MapName,Scenario,Connectivity,Algorithm,Weight,TaskID,Success,PathLength,OptimalLength,ExpandedNodes,TimeMS,Suboptimality
random512-10-0.map,random512-10-0.map.scen,4,BFS,1.0,0,True,3.0000,2.41421356,20,0.0694,24.26
random512-10-0.map,random512-10-0.map.scen,4,BFS,1.0,1,True,0.0000,0.0,1,0.0040,0.00
random512-10-0.map,random512-10-0.map.scen,4,BFS,1.0,2,True,3.0000,3.0,15,0.0578,0.00
random512-10-0.map,random512-10-0.map.scen,4,BFS,1.0,3,True,4.0000,2.82842712,29,0.0698,41.42
random512-10-0.map,random512-10-0.map.scen,4,BFS,1.0,4,True,0.0000,0.0,1,0.0021,0.00
random512-10-0.map,random512-10-0.map.scen,4,BFS,1.0,5,True,4.0000,3.41421356,38,0.0879,17.16
random512-10-0.map,random512-10-0.map.scen,4,BFS,1.0,6,True,0.0000,0.0,1,0.0027,0.00
random512-10-0.map,random512-10-0.map.scen,4,BFS,1.0,7,True,4.0000,3.41421356,27,0.1039,17.16
random512-10-0.map,random512-10-0.map.scen,4,BFS,1.0,8,True,4.0000,3.41421356,24,0.0553,17.16
random512-10-0.map,random512-10-0.map.scen,4,BFS,1.0,9,True,4.0000,2.82842712,27,0.0635,41.42
random512-10-0.map,random512-10-0.map.scen,4,Dijkstra,1.0,0,True,3.0000,2.41421356,18,0.0856,24.26
random512-10-0.map,random512-10-0.map.scen,4,Dijkstra,1.0,1,True,0.0000,0.0,1,0.0027,0.00
random512-10-0.map,random512-10-0.map.scen,4,Dijkstra,1.0,2,True,3.0000,3.0,17,0.0624,0.00
random512-10-0.map,random512-10-0.map.scen,4,Dijkstra,1.0,3,True,4.0000,2.82842712,30,0.1147,41.42
random512-10-0.map,random512-10-0.map.scen,4,Dijkstra,1.0,4,True,0.0000,0.0,1,0.0025,0.00
random512-10-0.map,random512-10-0.map.scen,4,Dijkstra,1.0,5,True,4.0000,3.41421356,34,0.1258,17.16
random512-10-0.map,random512-10-0.map.scen,4,Dijkstra,1.0,6,True,0.0000,0.0,1,0.0024,0.00
random512-10-0.map,random512-10-0.map.scen,4,Dijkstra,1.0,7,True,4.0000,3.41421356,23,0.0961,17.16
random512-10-0.map,random512-10-0.map.scen,4,Dijkstra,1.0,8,True,4.0000,3.41421356,27,0.1231,17.16
random512-10-0.map,random512-10-0.map.scen,4,Dijkstra,1.0,9,True,4.0000,2.82842712,23,0.0960,41.42
random512-10-0.map,random512-10-0.map.scen,4,A* (Octile),1.0,0,True,3.0000,2.41421356,6,0.0262,24.26
random512-10-0.map,random512-10-0.map.scen,4,A* (Octile),1.0,1,True,0.0000,0.0,1,0.0026,0.00
random512-10-0.map,random512-10-0.map.scen,4,A* (Octile),1.0,2,True,3.0000,3.0,4,0.0152,0.00
random512-10-0.map,random512-10-0.map.scen,4,A* (Octile),1.0,3,True,4.0000,2.82842712,9,0.0384,41.42
random512-10-0.map,random512-10-0.map.scen,4,A* (Octile),1.0,4,True,0.0000,0.0,1,0.0024,0.00
random512-10-0.map,random512-10-0.map.scen,4,A* (Octile),1.0,5,True,4.0000,3.41421356,8,0.0353,17.16
random512-10-0.map,random512-10-0.map.scen,4,A* (Octile),1.0,6,True,0.0000,0.0,1,0.0024,0.00
random512-10-0.map,random512-10-0.map.scen,4,A* (Octile),1.0,7,True,4.0000,3.41421356,7,0.0294,17.16
random512-10-0.map,random512-10-0.map.scen,4,A* (Octile),1.0,8,True,4.0000,3.41421356,7,0.0308,17.16
random512-10-0.map,random512-10-0.map.scen,4,A* (Octile),1.0,9,True,4.0000,2.82842712,8,0.0344,41.42
random512-10-0.map,random512-10-0.map.scen,4,WA* (x2.0),2.0,0,True,3.0000,2.41421356,4,0.0183,24.26
random512-10-0.map,random512-10-0.map.scen,4,WA* (x2.0),2.0,1,True,0.0000,0.0,1,0.0020,0.00
random512-10-0.map,random512-10-0.map.scen,4,WA* (x2.0),2.0,2,True,3.0000,3.0,4,0.0128,0.00
random512-10-0.map,random512-10-0.map.scen,4,WA* (x2.0),2.0,3,True,4.0000,2.82842712,5,0.0190,41.42
random512-10-0.map,random512-10-0.map.scen,4,WA* (x2.0),2.0,4,True,0.0000,0.0,1,0.0020,0.00
random512-10-0.map,random512-10-0.map.scen,4,WA* (x2.0),2.0,5,True,4.0000,3.41421356,5,0.0206,17.16
random512-10-0.map,random512-10-0.map.scen,4,WA* (x2.0),2.0,6,True,0.0000,0.0,1,0.0020,0.00
random512-10-0.map,random512-10-0.map.scen,4,WA* (x2.0),2.0,7,True,4.0000,3.41421356,5,0.0182,17.16
random512-10-0.map,random512-10-0.map.scen,4,WA* (x2.0),2.0,8,True,4.0000,3.41421356,5,0.0188,17.16
random512-10-0.map,random512-10-0.map.scen,4,WA* (x2.0),2.0,9,True,4.0000,2.82842712,5,0.0183,41.42
random512-10-0.map,random512-10-0.map.scen,4,WA* (x10.0),10.0,0,True,3.0000,2.41421356,4,0.0155,24.26
random512-10-0.map,random512-10-0.map.scen,4,WA* (x10.0),10.0,1,True,0.0000,0.0,1,0.0020,0.00
random512-10-0.map,random512-10-0.map.scen,4,WA* (x10.0),10.0,2,True,3.0000,3.0,4,0.0127,0.00
random512-10-0.map,random512-10-0.map.scen,4,WA* (x10.0),10.0,3,True,4.0000,2.82842712,5,0.0192,41.42
random512-10-0.map,random512-10-0.map.scen,4,WA* (x10.0),10.0,4,True,0.0000,0.0,1,0.0020,0.00
random512-10-0.map,random512-10-0.map.scen,4,WA* (x10.0),10.0,5,True,4.0000,3.41421356,5,0.0202,17.16
random512-10-0.map,random512-10-0.map.scen,4,WA* (x10.0),10.0,6,True,0.0000,0.0,1,0.0020,0.00
random512-10-0.map,random512-10-0.map.scen,4,WA* (x10.0),10.0,7,True,4.0000,3.41421356,5,0.0180,17.16
random512-10-0.map,random512-10-0.map.scen,4,WA* (x10.0),10.0,8,True,4.0000,3.41421356,5,0.0192,17.16
random512-10-0.map,random512-10-0.map.scen,4,WA* (x10.0),10.0,9,True,4.0000,2.82842712,5,0.0182,41.42
random512-10-0.map,random512-10-0.map.scen,8,BFS,1.0,0,True,2.0000,2.41421356,17,0.0457,-17.16
random512-10-0.map,random512-10-0.map.scen,8,BFS,1.0,1,True,0.0000,0.0,1,0.0018,0.00
random512-10-0.map,random512-10-0.map.scen,8,BFS,1.0,2,True,3.0000,3.0,21,0.0528,0.00
random512-10-0.map,random512-10-0.map.scen,8,BFS,1.0,3,True,2.0000,2.82842712,25,0.0617,-29.29
random512-10-0.map,random512-10-0.map.scen,8,BFS,1.0,4,True,0.0000,0.0,1,0.0018,0.00
random512-10-0.map,random512-10-0.map.scen,8,BFS,1.0,5,True,3.0000,3.41421356,37,0.0991,-12.13
random512-10-0.map,random512-10-0.map.scen,8,BFS,1.0,6,True,0.0000,0.0,1,0.0017,0.00
random512-10-0.map,random512-10-0.map.scen,8,BFS,1.0,7,True,3.0000,3.41421356,32,0.0828,-12.13
random512-10-0.map,random512-10-0.map.scen,8,BFS,1.0,8,True,3.0000,3.41421356,26,0.0679,-12.13
random512-10-0.map,random512-10-0.map.scen,8,BFS,1.0,9,True,2.0000,2.82842712,24,0.0621,-29.29
random512-10-0.map,random512-10-0.map.scen,8,Dijkstra,1.0,0,True,2.4142,2.41421356,17,0.0683,0.00
random512-10-0.map,random512-10-0.map.scen,8,Dijkstra,1.0,1,True,0.0000,0.0,1,0.0021,0.00
random512-10-0.map,random512-10-0.map.scen,8,Dijkstra,1.0,2,True,3.0000,3.0,16,0.0662,0.00
random512-10-0.map,random512-10-0.map.scen,8,Dijkstra,1.0,3,True,2.8284,2.82842712,25,0.1090,0.00
random512-10-0.map,random512-10-0.map.scen,8,Dijkstra,1.0,4,True,0.0000,0.0,1,0.0020,0.00
random512-10-0.map,random512-10-0.map.scen,8,Dijkstra,1.0,5,True,3.4142,3.41421356,32,0.1378,0.00
random512-10-0.map,random512-10-0.map.scen,8,Dijkstra,1.0,6,True,0.0000,0.0,1,0.0020,0.00
random512-10-0.map,random512-10-0.map.scen,8,Dijkstra,1.0,7,True,3.4142,3.41421356,28,0.1262,0.00
random512-10-0.map,random512-10-0.map.scen,8,Dijkstra,1.0,8,True,3.4142,3.41421356,30,0.1337,0.00
random512-10-0.map,random512-10-0.map.scen,8,Dijkstra,1.0,9,True,2.8284,2.82842712,24,0.1071,0.00
random512-10-0.map,random512-10-0.map.scen,8,A* (Octile),1.0,0,True,2.4142,2.41421356,4,0.0335,0.00
random512-10-0.map,random512-10-0.map.scen,8,A* (Octile),1.0,1,True,0.0000,0.0,1,0.0032,0.00
random512-10-0.map,random512-10-0.map.scen,8,A* (Octile),1.0,2,True,3.0000,3.0,4,0.0216,0.00
random512-10-0.map,random512-10-0.map.scen,8,A* (Octile),1.0,3,True,2.8284,2.82842712,3,0.0326,0.00
random512-10-0.map,random512-10-0.map.scen,8,A* (Octile),1.0,4,True,0.0000,0.0,1,0.0037,0.00
random512-10-0.map,random512-10-0.map.scen,8,A* (Octile),1.0,5,True,3.4142,3.41421356,6,0.0353,0.00
random512-10-0.map,random512-10-0.map.scen,8,A* (Octile),1.0,6,True,0.0000,0.0,1,0.0021,0.00
random512-10-0.map,random512-10-0.map.scen,8,A* (Octile),1.0,7,True,3.4142,3.41421356,6,0.0292,0.00
random512-10-0.map,random512-10-0.map.scen,8,A* (Octile),1.0,8,True,3.4142,3.41421356,6,0.0313,0.00
random512-10-0.map,random512-10-0.map.scen,8,A* (Octile),1.0,9,True,2.8284,2.82842712,3,0.0185,0.00
random512-10-0.map,random512-10-0.map.scen,8,WA* (x2.0),2.0,0,True,2.4142,2.41421356,3,0.0183,0.00
random512-10-0.map,random512-10-0.map.scen,8,WA* (x2.0),2.0,1,True,0.0000,0.0,1,0.0020,0.00
random512-10-0.map,random512-10-0.map.scen,8,WA* (x2.0),2.0,2,True,3.0000,3.0,4,0.0154,0.00
random512-10-0.map,random512-10-0.map.scen,8,WA* (x2.0),2.0,3,True,2.8284,2.82842712,3,0.0206,0.00
random512-10-0.map,random512-10-0.map.scen,8,WA* (x2.0),2.0,4,True,0.0000,0.0,1,0.0037,0.00
random512-10-0.map,random512-10-0.map.scen,8,WA* (x2.0),2.0,5,True,3.4142,3.41421356,4,0.0457,0.00
random512-10-0.map,random512-10-0.map.scen,8,WA* (x2.0),2.0,6,True,0.0000,0.0,1,0.0028,0.00
random512-10-0.map,random512-10-0.map.scen,8,WA* (x2.0),2.0,7,True,3.4142,3.41421356,4,0.0225,0.00
random512-10-0.map,random512-10-0.map.scen,8,WA* (x2.0),2.0,8,True,3.4142,3.41421356,4,0.0247,0.00
random512-10-0.map,random512-10-0.map.scen,8,WA* (x2.0),2.0,9,True,2.8284,2.82842712,3,0.0182,0.00
random512-10-0.map,random512-10-0.map.scen,8,WA* (x10.0),10.0,0,True,2.4142,2.41421356,3,0.0179,0.00
random512-10-0.map,random512-10-0.map.scen,8,WA* (x10.0),10.0,1,True,0.0000,0.0,1,0.0020,0.00
random512-10-0.map,random512-10-0.map.scen,8,WA* (x10.0),10.0,2,True,3.0000,3.0,4,0.0147,0.00
random512-10-0.map,random512-10-0.map.scen,8,WA* (x10.0),10.0,3,True,2.8284,2.82842712,3,0.0200,0.00
random512-10-0.map,random512-10-0.map.scen,8,WA* (x10.0),10.0,4,True,0.0000,0.0,1,0.0019,0.00
random512-10-0.map,random512-10-0.map.scen,8,WA* (x10.0),10.0,5,True,3.4142,3.41421356,4,0.0372,0.00
random512-10-0.map,random512-10-0.map.scen,8,WA* (x10.0),10.0,6,True,0.0000,0.0,1,0.0033,0.00
random512-10-0.map,random512-10-0.map.scen,8,WA* (x10.0),10.0,7,True,3.4142,3.41421356,4,0.0289,0.00
random512-10-0.map,random512-10-0.map.scen,8,WA* (x10.0),10.0,8,True,3.4142,3.41421356,4,0.0250,0.00
random512-10-0.map,random512-10-0.map.scen,8,WA* (x10.0),10.0,9,True,2.8284,2.82842712,3,0.0178,0.00
random512-10-1.map,random512-10-1.map.scen,4,BFS,1.0,0,True,2.0000,2.0,9,0.0371,0.00
random512-10-1.map,random512-10-1.map.scen,4,BFS,1.0,1,True,4.0000,3.41421356,31,0.0921,17.16
random512-10-1.map,random512-10-1.map.scen,4,BFS,1.0,2,True,4.0000,3.41421356,22,0.0449,17.16
random512-10-1.map,random512-10-1.map.scen,4,BFS,1.0,3,True,3.0000,2.41421356,21,0.0400,24.26
random512-10-1.map,random512-10-1.map.scen,4,BFS,1.0,4,True,4.0000,3.41421356,36,0.0636,17.16
random512-10-1.map,random512-10-1.map.scen,4,BFS,1.0,5,True,1.0000,1.0,2,0.0056,0.00
random512-10-1.map,random512-10-1.map.scen,4,BFS,1.0,6,True,1.0000,1.0,4,0.0082,0.00
random512-10-1.map,random512-10-1.map.scen,4,BFS,1.0,7,True,1.0000,1.0,2,0.0054,0.00
random512-10-1.map,random512-10-1.map.scen,4,BFS,1.0,8,True,2.0000,1.41421356,7,0.0147,41.42
random512-10-1.map,random512-10-1.map.scen,4,BFS,1.0,9,True,4.0000,2.82842712,23,0.0402,41.42
random512-10-1.map,random512-10-1.map.scen,4,Dijkstra,1.0,0,True,2.0000,2.0,9,0.0318,0.00
random512-10-1.map,random512-10-1.map.scen,4,Dijkstra,1.0,1,True,4.0000,3.41421356,29,0.0827,17.16
random512-10-1.map,random512-10-1.map.scen,4,Dijkstra,1.0,2,True,4.0000,3.41421356,32,0.0875,17.16
random512-10-1.map,random512-10-1.map.scen,4,Dijkstra,1.0,3,True,3.0000,2.41421356,18,0.0539,24.26
random512-10-1.map,random512-10-1.map.scen,4,Dijkstra,1.0,4,True,4.0000,3.41421356,33,0.0937,17.16
random512-10-1.map,random512-10-1.map.scen,4,Dijkstra,1.0,5,True,1.0000,1.0,2,0.0062,0.00
random512-10-1.map,random512-10-1.map.scen,4,Dijkstra,1.0,6,True,1.0000,1.0,4,0.0120,0.00
random512-10-1.map,random512-10-1.map.scen,4,Dijkstra,1.0,7,True,1.0000,1.0,2,0.0059,0.00
random512-10-1.map,random512-10-1.map.scen,4,Dijkstra,1.0,8,True,2.0000,1.41421356,6,0.0163,41.42
random512-10-1.map,random512-10-1.map.scen,4,Dijkstra,1.0,9,True,4.0000,2.82842712,20,0.0566,41.42
random512-10-1.map,random512-10-1.map.scen,4,A* (Octile),1.0,0,True,2.0000,2.0,3,0.0113,0.00
random512-10-1.map,random512-10-1.map.scen,4,A* (Octile),1.0,1,True,4.0000,3.41421356,8,0.0259,17.16
random512-10-1.map,random512-10-1.map.scen,4,A* (Octile),1.0,2,True,4.0000,3.41421356,6,0.0180,17.16
random512-10-1.map,random512-10-1.map.scen,4,A* (Octile),1.0,3,True,3.0000,2.41421356,6,0.0204,24.26
random512-10-1.map,random512-10-1.map.scen,4,A* (Octile),1.0,4,True,4.0000,3.41421356,8,0.0265,17.16
random512-10-1.map,random512-10-1.map.scen,4,A* (Octile),1.0,5,True,1.0000,1.0,2,0.0061,0.00
random512-10-1.map,random512-10-1.map.scen,4,A* (Octile),1.0,6,True,1.0000,1.0,2,0.0061,0.00
random512-10-1.map,random512-10-1.map.scen,4,A* (Octile),1.0,7,True,1.0000,1.0,2,0.0059,0.00
random512-10-1.map,random512-10-1.map.scen,4,A* (Octile),1.0,8,True,2.0000,1.41421356,4,0.0125,41.42
random512-10-1.map,random512-10-1.map.scen,4,A* (Octile),1.0,9,True,4.0000,2.82842712,8,0.0235,41.42
random512-10-1.map,random512-10-1.map.scen,4,WA* (x2.0),2.0,0,True,2.0000,2.0,3,0.0106,0.00
random512-10-1.map,random512-10-1.map.scen,4,WA* (x2.0),2.0,1,True,4.0000,3.41421356,5,0.0178,17.16
random512-10-1.map,random512-10-1.map.scen,4,WA* (x2.0),2.0,2,True,4.0000,3.41421356,5,0.0155,17.16
random512-10-1.map,random512-10-1.map.scen,4,WA* (x2.0),2.0,3,True,3.0000,2.41421356,4,0.0144,24.26
random512-10-1.map,random512-10-1.map.scen,4,WA* (x2.0),2.0,4,True,4.0000,3.41421356,5,0.0170,17.16
random512-10-1.map,random512-10-1.map.scen,4,WA* (x2.0),2.0,5,True,1.0000,1.0,2,0.0063,0.00
random512-10-1.map,random512-10-1.map.scen,4,WA* (x2.0),2.0,6,True,1.0000,1.0,2,0.0061,0.00
random512-10-1.map,random512-10-1.map.scen,4,WA* (x2.0),2.0,7,True,1.0000,1.0,2,0.0059,0.00
random512-10-1.map,random512-10-1.map.scen,4,WA* (x2.0),2.0,8,True,2.0000,1.41421356,3,0.0101,41.42
random512-10-1.map,random512-10-1.map.scen,4,WA* (x2.0),2.0,9,True,4.0000,2.82842712,5,0.0155,41.42
random512-10-1.map,random512-10-1.map.scen,4,WA* (x10.0),10.0,0,True,2.0000,2.0,3,0.0107,0.00
random512-10-1.map,random512-10-1.map.scen,4,WA* (x10.0),10.0,1,True,4.0000,3.41421356,5,0.0171,17.16
random512-10-1.map,random512-10-1.map.scen,4,WA* (x10.0),10.0,2,True,4.0000,3.41421356,5,0.0159,17.16
random512-10-1.map,random512-10-1.map.scen,4,WA* (x10.0),10.0,3,True,3.0000,2.41421356,4,0.0141,24.26
random512-10-1.map,random512-10-1.map.scen,4,WA* (x10.0),10.0,4,True,4.0000,3.41421356,5,0.0174,17.16
random512-10-1.map,random512-10-1.map.scen,4,WA* (x10.0),10.0,5,True,1.0000,1.0,2,0.0059,0.00
random512-10-1.map,random512-10-1.map.scen,4,WA* (x10.0),10.0,6,True,1.0000,1.0,2,0.0058,0.00
random512-10-1.map,random512-10-1.map.scen,4,WA* (x10.0),10.0,7,True,1.0000,1.0,2,0.0056,0.00
random512-10-1.map,random512-10-1.map.scen,4,WA* (x10.0),10.0,8,True,2.0000,1.41421356,3,0.0094,41.42
random512-10-1.map,random512-10-1.map.scen,4,WA* (x10.0),10.0,9,True,4.0000,2.82842712,5,0.0149,41.42
random512-10-1.map,random512-10-1.map.scen,8,BFS,1.0,0,True,2.0000,2.0,13,0.0300,0.00
random512-10-1.map,random512-10-1.map.scen,8,BFS,1.0,1,True,3.0000,3.41421356,26,0.0551,-12.13
random512-10-1.map,random512-10-1.map.scen,8,BFS,1.0,2,True,3.0000,3.41421356,21,0.0439,-12.13
random512-10-1.map,random512-10-1.map.scen,8,BFS,1.0,3,True,2.0000,2.41421356,16,0.0375,-17.16
random512-10-1.map,random512-10-1.map.scen,8,BFS,1.0,4,True,3.0000,3.41421356,32,0.0721,-12.13
random512-10-1.map,random512-10-1.map.scen,8,BFS,1.0,5,True,1.0000,1.0,2,0.0057,0.00
random512-10-1.map,random512-10-1.map.scen,8,BFS,1.0,6,True,1.0000,1.0,4,0.0104,0.00
random512-10-1.map,random512-10-1.map.scen,8,BFS,1.0,7,True,1.0000,1.0,2,0.0057,0.00
random512-10-1.map,random512-10-1.map.scen,8,BFS,1.0,8,True,1.0000,1.41421356,6,0.0144,-29.29
random512-10-1.map,random512-10-1.map.scen,8,BFS,1.0,9,True,2.0000,2.82842712,16,0.0574,-29.29
random512-10-1.map,random512-10-1.map.scen,8,Dijkstra,1.0,0,True,2.0000,2.0,10,0.0378,0.00
random512-10-1.map,random512-10-1.map.scen,8,Dijkstra,1.0,1,True,3.4142,3.41421356,25,0.0939,0.00
random512-10-1.map,random512-10-1.map.scen,8,Dijkstra,1.0,2,True,3.4142,3.41421356,27,0.0940,0.00
random512-10-1.map,random512-10-1.map.scen,8,Dijkstra,1.0,3,True,2.4142,2.41421356,17,0.0795,0.00
random512-10-1.map,random512-10-1.map.scen,8,Dijkstra,1.0,4,True,3.4142,3.41421356,26,0.1381,0.00
random512-10-1.map,random512-10-1.map.scen,8,Dijkstra,1.0,5,True,1.0000,1.0,2,0.0079,0.00
random512-10-1.map,random512-10-1.map.scen,8,Dijkstra,1.0,6,True,1.0000,1.0,3,0.0106,0.00
random512-10-1.map,random512-10-1.map.scen,8,Dijkstra,1.0,7,True,1.0000,1.0,2,0.0074,0.00
random512-10-1.map,random512-10-1.map.scen,8,Dijkstra,1.0,8,True,1.4142,1.41421356,8,0.0488,0.00
random512-10-1.map,random512-10-1.map.scen,8,Dijkstra,1.0,9,True,2.8284,2.82842712,18,0.0998,0.00
random512-10-1.map,random512-10-1.map.scen,8,A* (Octile),1.0,0,True,2.0000,2.0,3,0.0141,0.00
random512-10-1.map,random512-10-1.map.scen,8,A* (Octile),1.0,1,True,3.4142,3.41421356,6,0.0291,0.00
random512-10-1.map,random512-10-1.map.scen,8,A* (Octile),1.0,2,True,3.4142,3.41421356,5,0.0211,0.00
random512-10-1.map,random512-10-1.map.scen,8,A* (Octile),1.0,3,True,2.4142,2.41421356,4,0.0221,0.00
random512-10-1.map,random512-10-1.map.scen,8,A* (Octile),1.0,4,True,3.4142,3.41421356,6,0.0283,0.00
random512-10-1.map,random512-10-1.map.scen,8,A* (Octile),1.0,5,True,1.0000,1.0,2,0.0082,0.00
random512-10-1.map,random512-10-1.map.scen,8,A* (Octile),1.0,6,True,1.0000,1.0,2,0.0086,0.00
random512-10-1.map,random512-10-1.map.scen,8,A* (Octile),1.0,7,True,1.0000,1.0,2,0.0081,0.00
random512-10-1.map,random512-10-1.map.scen,8,A* (Octile),1.0,8,True,1.4142,1.41421356,2,0.0099,0.00
random512-10-1.map,random512-10-1.map.scen,8,A* (Octile),1.0,9,True,2.8284,2.82842712,3,0.0133,0.00
random512-10-1.map,random512-10-1.map.scen,8,WA* (x2.0),2.0,0,True,2.0000,2.0,3,0.0136,0.00
random512-10-1.map,random512-10-1.map.scen,8,WA* (x2.0),2.0,1,True,3.4142,3.41421356,4,0.0260,0.00
random512-10-1.map,random512-10-1.map.scen,8,WA* (x2.0),2.0,2,True,3.4142,3.41421356,4,0.0179,0.00
random512-10-1.map,random512-10-1.map.scen,8,WA* (x2.0),2.0,3,True,2.4142,2.41421356,3,0.0170,0.00
random512-10-1.map,random512-10-1.map.scen,8,WA* (x2.0),2.0,4,True,3.4142,3.41421356,4,0.0204,0.00
random512-10-1.map,random512-10-1.map.scen,8,WA* (x2.0),2.0,5,True,1.0000,1.0,2,0.0082,0.00
random512-10-1.map,random512-10-1.map.scen,8,WA* (x2.0),2.0,6,True,1.0000,1.0,2,0.0080,0.00
random512-10-1.map,random512-10-1.map.scen,8,WA* (x2.0),2.0,7,True,1.0000,1.0,2,0.0077,0.00
random512-10-1.map,random512-10-1.map.scen,8,WA* (x2.0),2.0,8,True,1.4142,1.41421356,2,0.0093,0.00
random512-10-1.map,random512-10-1.map.scen,8,WA* (x2.0),2.0,9,True,2.8284,2.82842712,3,0.0172,0.00
random512-10-1.map,random512-10-1.map.scen,8,WA* (x10.0),10.0,0,True,2.0000,2.0,3,0.0197,0.00
random512-10-1.map,random512-10-1.map.scen,8,WA* (x10.0),10.0,1,True,3.4142,3.41421356,4,0.0224,0.00
random512-10-1.map,random512-10-1.map.scen,8,WA* (x10.0),10.0,2,True,3.4142,3.41421356,4,0.0171,0.00
random512-10-1.map,random512-10-1.map.scen,8,WA* (x10.0),10.0,3,True,2.4142,2.41421356,3,0.0175,0.00
random512-10-1.map,random512-10-1.map.scen,8,WA* (x10.0),10.0,4,True,3.4142,3.41421356,4,0.0257,0.00
random512-10-1.map,random512-10-1.map.scen,8,WA* (x10.0),10.0,5,True,1.0000,1.0,2,0.0107,0.00
random512-10-1.map,random512-10-1.map.scen,8,WA* (x10.0),10.0,6,True,1.0000,1.0,2,0.0111,0.00
random512-10-1.map,random512-10-1.map.scen,8,WA* (x10.0),10.0,7,True,1.0000,1.0,2,0.0120,0.00
random512-10-1.map,random512-10-1.map.scen,8,WA* (x10.0),10.0,8,True,1.4142,1.41421356,2,0.0146,0.00
random512-10-1.map,random512-10-1.map.scen,8,WA* (x10.0),10.0,9,True,2.8284,2.82842712,3,0.0202,0.00
random512-10-2.map,random512-10-2.map.scen,4,BFS,1.0,0,True,5.0000,3.82842712,40,0.1094,30.60
random512-10-2.map,random512-10-2.map.scen,4,BFS,1.0,1,True,5.0000,3.82842712,45,0.1120,30.60
random512-10-2.map,random512-10-2.map.scen,4,BFS,1.0,2,True,3.0000,3.0,16,0.0278,0.00
random512-10-2.map,random512-10-2.map.scen,4,BFS,1.0,3,True,3.0000,3.0,25,0.0412,0.00
random512-10-2.map,random512-10-2.map.scen,4,BFS,1.0,4,True,3.0000,2.41421356,19,0.0323,24.26
random512-10-2.map,random512-10-2.map.scen,4,BFS,1.0,5,True,1.0000,1.0,2,0.0051,0.00
random512-10-2.map,random512-10-2.map.scen,4,BFS,1.0,6,True,3.0000,3.0,17,0.0289,0.00
random512-10-2.map,random512-10-2.map.scen,4,BFS,1.0,7,True,0.0000,0.0,1,0.0015,0.00
random512-10-2.map,random512-10-2.map.scen,4,BFS,1.0,8,True,2.0000,2.0,8,0.0140,0.00
random512-10-2.map,random512-10-2.map.scen,4,BFS,1.0,9,True,2.0000,2.0,5,0.0115,0.00
random512-10-2.map,random512-10-2.map.scen,4,Dijkstra,1.0,0,True,5.0000,3.82842712,36,0.1016,30.60
random512-10-2.map,random512-10-2.map.scen,4,Dijkstra,1.0,1,True,5.0000,3.82842712,37,0.0962,30.60
random512-10-2.map,random512-10-2.map.scen,4,Dijkstra,1.0,2,True,3.0000,3.0,15,0.0417,0.00
random512-10-2.map,random512-10-2.map.scen,4,Dijkstra,1.0,3,True,3.0000,3.0,15,0.0423,0.00
random512-10-2.map,random512-10-2.map.scen,4,Dijkstra,1.0,4,True,3.0000,2.41421356,13,0.0363,24.26
random512-10-2.map,random512-10-2.map.scen,4,Dijkstra,1.0,5,True,1.0000,1.0,2,0.0070,0.00
random512-10-2.map,random512-10-2.map.scen,4,Dijkstra,1.0,6,True,3.0000,3.0,13,0.0338,0.00
random512-10-2.map,random512-10-2.map.scen,4,Dijkstra,1.0,7,True,0.0000,0.0,1,0.0018,0.00
random512-10-2.map,random512-10-2.map.scen,4,Dijkstra,1.0,8,True,2.0000,2.0,8,0.0204,0.00
random512-10-2.map,random512-10-2.map.scen,4,Dijkstra,1.0,9,True,2.0000,2.0,5,0.0151,0.00
random512-10-2.map,random512-10-2.map.scen,4,A* (Octile),1.0,0,True,5.0000,3.82842712,12,0.0411,30.60
random512-10-2.map,random512-10-2.map.scen,4,A* (Octile),1.0,1,True,5.0000,3.82842712,12,0.0376,30.60
random512-10-2.map,random512-10-2.map.scen,4,A* (Octile),1.0,2,True,3.0000,3.0,4,0.0195,0.00
random512-10-2.map,random512-10-2.map.scen,4,A* (Octile),1.0,3,True,3.0000,3.0,4,0.0143,0.00
random512-10-2.map,random512-10-2.map.scen,4,A* (Octile),1.0,4,True,3.0000,2.41421356,6,0.0183,24.26
random512-10-2.map,random512-10-2.map.scen,4,A* (Octile),1.0,5,True,1.0000,1.0,2,0.0069,0.00
random512-10-2.map,random512-10-2.map.scen,4,A* (Octile),1.0,6,True,3.0000,3.0,4,0.0139,0.00
random512-10-2.map,random512-10-2.map.scen,4,A* (Octile),1.0,7,True,0.0000,0.0,1,0.0017,0.00
random512-10-2.map,random512-10-2.map.scen,4,A* (Octile),1.0,8,True,2.0000,2.0,3,0.0093,0.00
random512-10-2.map,random512-10-2.map.scen,4,A* (Octile),1.0,9,True,2.0000,2.0,3,0.0090,0.00
random512-10-2.map,random512-10-2.map.scen,4,WA* (x2.0),2.0,0,True,5.0000,3.82842712,6,0.0213,30.60
random512-10-2.map,random512-10-2.map.scen,4,WA* (x2.0),2.0,1,True,5.0000,3.82842712,6,0.0190,30.60
random512-10-2.map,random512-10-2.map.scen,4,WA* (x2.0),2.0,2,True,3.0000,3.0,4,0.0131,0.00
random512-10-2.map,random512-10-2.map.scen,4,WA* (x2.0),2.0,3,True,3.0000,3.0,4,0.0137,0.00
random512-10-2.map,random512-10-2.map.scen,4,WA* (x2.0),2.0,4,True,3.0000,2.41421356,4,0.0125,24.26
random512-10-2.map,random512-10-2.map.scen,4,WA* (x2.0),2.0,5,True,1.0000,1.0,2,0.0068,0.00
random512-10-2.map,random512-10-2.map.scen,4,WA* (x2.0),2.0,6,True,3.0000,3.0,4,0.0137,0.00
random512-10-2.map,random512-10-2.map.scen,4,WA* (x2.0),2.0,7,True,0.0000,0.0,1,0.0017,0.00
random512-10-2.map,random512-10-2.map.scen,4,WA* (x2.0),2.0,8,True,2.0000,2.0,3,0.0087,0.00
random512-10-2.map,random512-10-2.map.scen,4,WA* (x2.0),2.0,9,True,2.0000,2.0,3,0.0089,0.00
random512-10-2.map,random512-10-2.map.scen,4,WA* (x10.0),10.0,0,True,5.0000,3.82842712,6,0.0211,30.60
random512-10-2.map,random512-10-2.map.scen,4,WA* (x10.0),10.0,1,True,5.0000,3.82842712,6,0.0188,30.60
random512-10-2.map,random512-10-2.map.scen,4,WA* (x10.0),10.0,2,True,3.0000,3.0,4,0.0128,0.00
random512-10-2.map,random512-10-2.map.scen,4,WA* (x10.0),10.0,3,True,3.0000,3.0,4,0.0141,0.00
random512-10-2.map,random512-10-2.map.scen,4,WA* (x10.0),10.0,4,True,3.0000,2.41421356,4,0.0126,24.26
random512-10-2.map,random512-10-2.map.scen,4,WA* (x10.0),10.0,5,True,1.0000,1.0,2,0.0068,0.00
random512-10-2.map,random512-10-2.map.scen,4,WA* (x10.0),10.0,6,True,3.0000,3.0,4,0.0138,0.00
random512-10-2.map,random512-10-2.map.scen,4,WA* (x10.0),10.0,7,True,0.0000,0.0,1,0.0017,0.00
random512-10-2.map,random512-10-2.map.scen,4,WA* (x10.0),10.0,8,True,2.0000,2.0,3,0.0090,0.00
random512-10-2.map,random512-10-2.map.scen,4,WA* (x10.0),10.0,9,True,2.0000,2.0,3,0.0105,0.00
random512-10-2.map,random512-10-2.map.scen,8,BFS,1.0,0,True,3.0000,3.82842712,20,0.0427,-21.64
random512-10-2.map,random512-10-2.map.scen,8,BFS,1.0,1,True,3.0000,3.82842712,26,0.0558,-21.64
random512-10-2.map,random512-10-2.map.scen,8,BFS,1.0,2,True,3.0000,3.0,23,0.0488,0.00
random512-10-2.map,random512-10-2.map.scen,8,BFS,1.0,3,True,3.0000,3.0,39,0.1536,0.00
random512-10-2.map,random512-10-2.map.scen,8,BFS,1.0,4,True,2.0000,2.41421356,16,0.0398,-17.16
random512-10-2.map,random512-10-2.map.scen,8,BFS,1.0,5,True,1.0000,1.0,2,0.0071,0.00
random512-10-2.map,random512-10-2.map.scen,8,BFS,1.0,6,True,3.0000,3.0,25,0.0504,0.00
random512-10-2.map,random512-10-2.map.scen,8,BFS,1.0,7,True,0.0000,0.0,1,0.0014,0.00
random512-10-2.map,random512-10-2.map.scen,8,BFS,1.0,8,True,2.0000,2.0,9,0.0187,0.00
random512-10-2.map,random512-10-2.map.scen,8,BFS,1.0,9,True,2.0000,2.0,7,0.0170,0.00
random512-10-2.map,random512-10-2.map.scen,8,Dijkstra,1.0,0,True,3.8284,3.82842712,26,0.0876,0.00
random512-10-2.map,random512-10-2.map.scen,8,Dijkstra,1.0,1,True,3.8284,3.82842712,31,0.1178,0.00
random512-10-2.map,random512-10-2.map.scen,8,Dijkstra,1.0,2,True,3.0000,3.0,21,0.0840,0.00
random512-10-2.map,random512-10-2.map.scen,8,Dijkstra,1.0,3,True,3.0000,3.0,29,0.1168,0.00
random512-10-2.map,random512-10-2.map.scen,8,Dijkstra,1.0,4,True,2.4142,2.41421356,16,0.0659,0.00
random512-10-2.map,random512-10-2.map.scen,8,Dijkstra,1.0,5,True,1.0000,1.0,2,0.0096,0.00
random512-10-2.map,random512-10-2.map.scen,8,Dijkstra,1.0,6,True,3.0000,3.0,22,0.0823,0.00
random512-10-2.map,random512-10-2.map.scen,8,Dijkstra,1.0,7,True,0.0000,0.0,1,0.0017,0.00
random512-10-2.map,random512-10-2.map.scen,8,Dijkstra,1.0,8,True,2.0000,2.0,7,0.0196,0.00
random512-10-2.map,random512-10-2.map.scen,8,Dijkstra,1.0,9,True,2.0000,2.0,9,0.0347,0.00
random512-10-2.map,random512-10-2.map.scen,8,A* (Octile),1.0,0,True,3.8284,3.82842712,4,0.0211,0.00
random512-10-2.map,random512-10-2.map.scen,8,A* (Octile),1.0,1,True,3.8284,3.82842712,4,0.0176,0.00
random512-10-2.map,random512-10-2.map.scen,8,A* (Octile),1.0,2,True,3.0000,3.0,4,0.0166,0.00
random512-10-2.map,random512-10-2.map.scen,8,A* (Octile),1.0,3,True,3.0000,3.0,4,0.0209,0.00
random512-10-2.map,random512-10-2.map.scen,8,A* (Octile),1.0,4,True,2.4142,2.41421356,4,0.0176,0.00
random512-10-2.map,random512-10-2.map.scen,8,A* (Octile),1.0,5,True,1.0000,1.0,2,0.0096,0.00
random512-10-2.map,random512-10-2.map.scen,8,A* (Octile),1.0,6,True,3.0000,3.0,4,0.0197,0.00
random512-10-2.map,random512-10-2.map.scen,8,A* (Octile),1.0,7,True,0.0000,0.0,1,0.0019,0.00
random512-10-2.map,random512-10-2.map.scen,8,A* (Octile),1.0,8,True,2.0000,2.0,3,0.0142,0.00
random512-10-2.map,random512-10-2.map.scen,8,A* (Octile),1.0,9,True,2.0000,2.0,3,0.0142,0.00
random512-10-2.map,random512-10-2.map.scen,8,WA* (x2.0),2.0,0,True,3.8284,3.82842712,4,0.0227,0.00
random512-10-2.map,random512-10-2.map.scen,8,WA* (x2.0),2.0,1,True,3.8284,3.82842712,4,0.0195,0.00
random512-10-2.map,random512-10-2.map.scen,8,WA* (x2.0),2.0,2,True,3.0000,3.0,4,0.0158,0.00
random512-10-2.map,random512-10-2.map.scen,8,WA* (x2.0),2.0,3,True,3.0000,3.0,4,0.0201,0.00
random512-10-2.map,random512-10-2.map.scen,8,WA* (x2.0),2.0,4,True,2.4142,2.41421356,3,0.0135,0.00
random512-10-2.map,random512-10-2.map.scen,8,WA* (x2.0),2.0,5,True,1.0000,1.0,2,0.0097,0.00
random512-10-2.map,random512-10-2.map.scen,8,WA* (x2.0),2.0,6,True,3.0000,3.0,4,0.0192,0.00
random512-10-2.map,random512-10-2.map.scen,8,WA* (x2.0),2.0,7,True,0.0000,0.0,1,0.0032,0.00
random512-10-2.map,random512-10-2.map.scen,8,WA* (x2.0),2.0,8,True,2.0000,2.0,3,0.0102,0.00
random512-10-2.map,random512-10-2.map.scen,8,WA* (x2.0),2.0,9,True,2.0000,2.0,3,0.0105,0.00
random512-10-2.map,random512-10-2.map.scen,8,WA* (x10.0),10.0,0,True,3.8284,3.82842712,4,0.0219,0.00
random512-10-2.map,random512-10-2.map.scen,8,WA* (x10.0),10.0,1,True,3.8284,3.82842712,4,0.0199,0.00
random512-10-2.map,random512-10-2.map.scen,8,WA* (x10.0),10.0,2,True,3.0000,3.0,4,0.0158,0.00
random512-10-2.map,random512-10-2.map.scen,8,WA* (x10.0),10.0,3,True,3.0000,3.0,4,0.0311,0.00
random512-10-2.map,random512-10-2.map.scen,8,WA* (x10.0),10.0,4,True,2.4142,2.41421356,3,0.0138,0.00
random512-10-2.map,random512-10-2.map.scen,8,WA* (x10.0),10.0,5,True,1.0000,1.0,2,0.0145,0.00
random512-10-2.map,random512-10-2.map.scen,8,WA* (x10.0),10.0,6,True,3.0000,3.0,4,0.0294,0.00
random512-10-2.map,random512-10-2.map.scen,8,WA* (x10.0),10.0,7,True,0.0000,0.0,1,0.0025,0.00
random512-10-2.map,random512-10-2.map.scen,8,WA* (x10.0),10.0,8,True,2.0000,2.0,3,0.0153,0.00
random512-10-2.map,random512-10-2.map.scen,8,WA* (x10.0),10.0,9,True,2.0000,2.0,3,0.0150,0.00
random512-10-3.map,random512-10-3.map.scen,4,BFS,1.0,0,True,4.0000,3.41421356,36,0.0979,17.16
random512-10-3.map,random512-10-3.map.scen,4,BFS,1.0,1,True,3.0000,2.41421356,13,0.0380,24.26
random512-10-3.map,random512-10-3.map.scen,4,BFS,1.0,2,True,2.0000,1.41421356,10,0.0287,41.42
random512-10-3.map,random512-10-3.map.scen,4,BFS,1.0,3,True,5.0000,3.82842712,32,0.0526,30.60
random512-10-3.map,random512-10-3.map.scen,4,BFS,1.0,4,True,4.0000,2.82842712,28,0.0451,41.42
random512-10-3.map,random512-10-3.map.scen,4,BFS,1.0,5,True,2.0000,2.0,10,0.0270,0.00
random512-10-3.map,random512-10-3.map.scen,4,BFS,1.0,6,True,2.0000,2.0,4,0.0081,0.00
random512-10-3.map,random512-10-3.map.scen,4,BFS,1.0,7,True,2.0000,2.0,13,0.0232,0.00
random512-10-3.map,random512-10-3.map.scen,4,BFS,1.0,8,True,3.0000,2.41421356,16,0.0271,24.26
random512-10-3.map,random512-10-3.map.scen,4,BFS,1.0,9,True,3.0000,3.0,13,0.0229,0.00
random512-10-3.map,random512-10-3.map.scen,4,Dijkstra,1.0,0,True,4.0000,3.41421356,30,0.0831,17.16
random512-10-3.map,random512-10-3.map.scen,4,Dijkstra,1.0,1,True,3.0000,2.41421356,22,0.0603,24.26
random512-10-3.map,random512-10-3.map.scen,4,Dijkstra,1.0,2,True,2.0000,1.41421356,10,0.0313,41.42
random512-10-3.map,random512-10-3.map.scen,4,Dijkstra,1.0,3,True,5.0000,3.82842712,30,0.0773,30.60
random512-10-3.map,random512-10-3.map.scen,4,Dijkstra,1.0,4,True,4.0000,2.82842712,37,0.1016,41.42
random512-10-3.map,random512-10-3.map.scen,4,Dijkstra,1.0,5,True,2.0000,2.0,7,0.0180,0.00
random512-10-3.map,random512-10-3.map.scen,4,Dijkstra,1.0,6,True,2.0000,2.0,7,0.0196,0.00
random512-10-3.map,random512-10-3.map.scen,4,Dijkstra,1.0,7,True,2.0000,2.0,8,0.0244,0.00
random512-10-3.map,random512-10-3.map.scen,4,Dijkstra,1.0,8,True,3.0000,2.41421356,16,0.0443,24.26
random512-10-3.map,random512-10-3.map.scen,4,Dijkstra,1.0,9,True,3.0000,3.0,12,0.0342,0.00
random512-10-3.map,random512-10-3.map.scen,4,A* (Octile),1.0,0,True,4.0000,3.41421356,8,0.0276,17.16
random512-10-3.map,random512-10-3.map.scen,4,A* (Octile),1.0,1,True,3.0000,2.41421356,6,0.0185,24.26
random512-10-3.map,random512-10-3.map.scen,4,A* (Octile),1.0,2,True,2.0000,1.41421356,4,0.0150,41.42
random512-10-3.map,random512-10-3.map.scen,4,A* (Octile),1.0,3,True,5.0000,3.82842712,12,0.0343,30.60
random512-10-3.map,random512-10-3.map.scen,4,A* (Octile),1.0,4,True,4.0000,2.82842712,9,0.0280,41.42
random512-10-3.map,random512-10-3.map.scen,4,A* (Octile),1.0,5,True,2.0000,2.0,3,0.0099,0.00
random512-10-3.map,random512-10-3.map.scen,4,A* (Octile),1.0,6,True,2.0000,2.0,3,0.0087,0.00
random512-10-3.map,random512-10-3.map.scen,4,A* (Octile),1.0,7,True,2.0000,2.0,3,0.0104,0.00
random512-10-3.map,random512-10-3.map.scen,4,A* (Octile),1.0,8,True,3.0000,2.41421356,5,0.0141,24.26
random512-10-3.map,random512-10-3.map.scen,4,A* (Octile),1.0,9,True,3.0000,3.0,4,0.0123,0.00
random512-10-3.map,random512-10-3.map.scen,4,WA* (x2.0),2.0,0,True,4.0000,3.41421356,5,0.0186,17.16
random512-10-3.map,random512-10-3.map.scen,4,WA* (x2.0),2.0,1,True,3.0000,2.41421356,4,0.0130,24.26
random512-10-3.map,random512-10-3.map.scen,4,WA* (x2.0),2.0,2,True,2.0000,1.41421356,3,0.0104,41.42
random512-10-3.map,random512-10-3.map.scen,4,WA* (x2.0),2.0,3,True,5.0000,3.82842712,6,0.0185,30.60
random512-10-3.map,random512-10-3.map.scen,4,WA* (x2.0),2.0,4,True,4.0000,2.82842712,5,0.0166,41.42
random512-10-3.map,random512-10-3.map.scen,4,WA* (x2.0),2.0,5,True,2.0000,2.0,3,0.0095,0.00
random512-10-3.map,random512-10-3.map.scen,4,WA* (x2.0),2.0,6,True,2.0000,2.0,3,0.0084,0.00
random512-10-3.map,random512-10-3.map.scen,4,WA* (x2.0),2.0,7,True,2.0000,2.0,3,0.0105,0.00
random512-10-3.map,random512-10-3.map.scen,4,WA* (x2.0),2.0,8,True,3.0000,2.41421356,4,0.0131,24.26
random512-10-3.map,random512-10-3.map.scen,4,WA* (x2.0),2.0,9,True,3.0000,3.0,4,0.0175,0.00
random512-10-3.map,random512-10-3.map.scen,4,WA* (x10.0),10.0,0,True,4.0000,3.41421356,5,0.0317,17.16
random512-10-3.map,random512-10-3.map.scen,4,WA* (x10.0),10.0,1,True,3.0000,2.41421356,4,0.0227,24.26
random512-10-3.map,random512-10-3.map.scen,4,WA* (x10.0),10.0,2,True,2.0000,1.41421356,3,0.0115,41.42
random512-10-3.map,random512-10-3.map.scen,4,WA* (x10.0),10.0,3,True,5.0000,3.82842712,6,0.0197,30.60
random512-10-3.map,random512-10-3.map.scen,4,WA* (x10.0),10.0,4,True,4.0000,2.82842712,5,0.0170,41.42
random512-10-3.map,random512-10-3.map.scen,4,WA* (x10.0),10.0,5,True,2.0000,2.0,3,0.0098,0.00
random512-10-3.map,random512-10-3.map.scen,4,WA* (x10.0),10.0,6,True,2.0000,2.0,3,0.0089,0.00
random512-10-3.map,random512-10-3.map.scen,4,WA* (x10.0),10.0,7,True,2.0000,2.0,3,0.0105,0.00
random512-10-3.map,random512-10-3.map.scen,4,WA* (x10.0),10.0,8,True,3.0000,2.41421356,4,0.0132,24.26
random512-10-3.map,random512-10-3.map.scen,4,WA* (x10.0),10.0,9,True,3.0000,3.0,4,0.0123,0.00
random512-10-3.map,random512-10-3.map.scen,8,BFS,1.0,0,True,3.0000,3.41421356,36,0.0868,-12.13
random512-10-3.map,random512-10-3.map.scen,8,BFS,1.0,1,True,2.0000,2.41421356,9,0.0243,-17.16
random512-10-3.map,random512-10-3.map.scen,8,BFS,1.0,2,True,1.0000,1.41421356,7,0.0202,-29.29
random512-10-3.map,random512-10-3.map.scen,8,BFS,1.0,3,True,3.0000,3.82842712,20,0.0434,-21.64
random512-10-3.map,random512-10-3.map.scen,8,BFS,1.0,4,True,2.0000,2.82842712,19,0.0463,-29.29
random512-10-3.map,random512-10-3.map.scen,8,BFS,1.0,5,True,2.0000,2.0,12,0.0246,0.00
random512-10-3.map,random512-10-3.map.scen,8,BFS,1.0,6,True,2.0000,2.0,5,0.0119,0.00
random512-10-3.map,random512-10-3.map.scen,8,BFS,1.0,7,True,2.0000,2.0,18,0.0420,0.00
random512-10-3.map,random512-10-3.map.scen,8,BFS,1.0,8,True,2.0000,2.41421356,11,0.0229,-17.16
random512-10-3.map,random512-10-3.map.scen,8,BFS,1.0,9,True,3.0000,3.0,19,0.0456,0.00
random512-10-3.map,random512-10-3.map.scen,8,Dijkstra,1.0,0,True,3.4142,3.41421356,29,0.1161,0.00
random512-10-3.map,random512-10-3.map.scen,8,Dijkstra,1.0,1,True,2.4142,2.41421356,12,0.0632,0.00
random512-10-3.map,random512-10-3.map.scen,8,Dijkstra,1.0,2,True,1.4142,1.41421356,8,0.0341,0.00
random512-10-3.map,random512-10-3.map.scen,8,Dijkstra,1.0,3,True,3.8284,3.82842712,26,0.0908,0.00
random512-10-3.map,random512-10-3.map.scen,8,Dijkstra,1.0,4,True,2.8284,2.82842712,21,0.0851,0.00
random512-10-3.map,random512-10-3.map.scen,8,Dijkstra,1.0,5,True,2.0000,2.0,9,0.0308,0.00
random512-10-3.map,random512-10-3.map.scen,8,Dijkstra,1.0,6,True,2.0000,2.0,5,0.0175,0.00
random512-10-3.map,random512-10-3.map.scen,8,Dijkstra,1.0,7,True,2.0000,2.0,10,0.0399,0.00
random512-10-3.map,random512-10-3.map.scen,8,Dijkstra,1.0,8,True,2.4142,2.41421356,13,0.0448,0.00
random512-10-3.map,random512-10-3.map.scen,8,Dijkstra,1.0,9,True,3.0000,3.0,18,0.0717,0.00
random512-10-3.map,random512-10-3.map.scen,8,A* (Octile),1.0,0,True,3.4142,3.41421356,6,0.0280,0.00
random512-10-3.map,random512-10-3.map.scen,8,A* (Octile),1.0,1,True,2.4142,2.41421356,4,0.0179,0.00
random512-10-3.map,random512-10-3.map.scen,8,A* (Octile),1.0,2,True,1.4142,1.41421356,2,0.0158,0.00
random512-10-3.map,random512-10-3.map.scen,8,A* (Octile),1.0,3,True,3.8284,3.82842712,4,0.0218,0.00
random512-10-3.map,random512-10-3.map.scen,8,A* (Octile),1.0,4,True,2.8284,2.82842712,3,0.0159,0.00
random512-10-3.map,random512-10-3.map.scen,8,A* (Octile),1.0,5,True,2.0000,2.0,3,0.0129,0.00
random512-10-3.map,random512-10-3.map.scen,8,A* (Octile),1.0,6,True,2.0000,2.0,3,0.0116,0.00
random512-10-3.map,random512-10-3.map.scen,8,A* (Octile),1.0,7,True,2.0000,2.0,3,0.0151,0.00
random512-10-3.map,random512-10-3.map.scen,8,A* (Octile),1.0,8,True,2.4142,2.41421356,3,0.0137,0.00
random512-10-3.map,random512-10-3.map.scen,8,A* (Octile),1.0,9,True,3.0000,3.0,4,0.0211,0.00
random512-10-3.map,random512-10-3.map.scen,8,WA* (x2.0),2.0,0,True,3.4142,3.41421356,4,0.0196,0.00
random512-10-3.map,random512-10-3.map.scen,8,WA* (x2.0),2.0,1,True,2.4142,2.41421356,3,0.0134,0.00
random512-10-3.map,random512-10-3.map.scen,8,WA* (x2.0),2.0,2,True,1.4142,1.41421356,2,0.0100,0.00
random512-10-3.map,random512-10-3.map.scen,8,WA* (x2.0),2.0,3,True,3.8284,3.82842712,4,0.0227,0.00
random512-10-3.map,random512-10-3.map.scen,8,WA* (x2.0),2.0,4,True,2.8284,2.82842712,3,0.0153,0.00
random512-10-3.map,random512-10-3.map.scen,8,WA* (x2.0),2.0,5,True,2.0000,2.0,3,0.0129,0.00
random512-10-3.map,random512-10-3.map.scen,8,WA* (x2.0),2.0,6,True,2.0000,2.0,3,0.0115,0.00
random512-10-3.map,random512-10-3.map.scen,8,WA* (x2.0),2.0,7,True,2.0000,2.0,3,0.0143,0.00
random512-10-3.map,random512-10-3.map.scen,8,WA* (x2.0),2.0,8,True,2.4142,2.41421356,3,0.0133,0.00
random512-10-3.map,random512-10-3.map.scen,8,WA* (x2.0),2.0,9,True,3.0000,3.0,4,0.0186,0.00
random512-10-3.map,random512-10-3.map.scen,8,WA* (x10.0),10.0,0,True,3.4142,3.41421356,4,0.0251,0.00
random512-10-3.map,random512-10-3.map.scen,8,WA* (x10.0),10.0,1,True,2.4142,2.41421356,3,0.0143,0.00
random512-10-3.map,random512-10-3.map.scen,8,WA* (x10.0),10.0,2,True,1.4142,1.41421356,2,0.0135,0.00
random512-10-3.map,random512-10-3.map.scen,8,WA* (x10.0),10.0,3,True,3.8284,3.82842712,4,0.0328,0.00
random512-10-3.map,random512-10-3.map.scen,8,WA* (x10.0),10.0,4,True,2.8284,2.82842712,3,0.0220,0.00
random512-10-3.map,random512-10-3.map.scen,8,WA* (x10.0),10.0,5,True,2.0000,2.0,3,0.0185,0.00
random512-10-3.map,random512-10-3.map.scen,8,WA* (x10.0),10.0,6,True,2.0000,2.0,3,0.0185,0.00
random512-10-3.map,random512-10-3.map.scen,8,WA* (x10.0),10.0,7,True,2.0000,2.0,3,0.0232,0.00
random512-10-3.map,random512-10-3.map.scen,8,WA* (x10.0),10.0,8,True,2.4142,2.41421356,3,0.0199,0.00
random512-10-3.map,random512-10-3.map.scen,8,WA* (x10.0),10.0,9,True,3.0000,3.0,4,0.0242,0.00
random512-10-4.map,random512-10-4.map.scen,4,BFS,1.0,0,True,3.0000,3.0,21,0.0652,0.00
random512-10-4.map,random512-10-4.map.scen,4,BFS,1.0,1,True,2.0000,2.0,6,0.0167,0.00
random512-10-4.map,random512-10-4.map.scen,4,BFS,1.0,2,True,3.0000,3.0,23,0.0628,0.00
random512-10-4.map,random512-10-4.map.scen,4,BFS,1.0,3,True,1.0000,1.0,2,0.0169,0.00
random512-10-4.map,random512-10-4.map.scen,4,BFS,1.0,4,True,1.0000,1.0,3,0.0079,0.00
random512-10-4.map,random512-10-4.map.scen,4,BFS,1.0,5,True,0.0000,0.0,1,0.0015,0.00
random512-10-4.map,random512-10-4.map.scen,4,BFS,1.0,6,True,2.0000,1.41421356,7,0.0152,41.42
random512-10-4.map,random512-10-4.map.scen,4,BFS,1.0,7,True,1.0000,1.0,3,0.0056,0.00
random512-10-4.map,random512-10-4.map.scen,4,BFS,1.0,8,True,2.0000,2.0,13,0.0247,0.00
random512-10-4.map,random512-10-4.map.scen,4,BFS,1.0,9,True,3.0000,3.0,10,0.0203,0.00
random512-10-4.map,random512-10-4.map.scen,4,Dijkstra,1.0,0,True,3.0000,3.0,20,0.0624,0.00
random512-10-4.map,random512-10-4.map.scen,4,Dijkstra,1.0,1,True,2.0000,2.0,12,0.0336,0.00
random512-10-4.map,random512-10-4.map.scen,4,Dijkstra,1.0,2,True,3.0000,3.0,20,0.0570,0.00
random512-10-4.map,random512-10-4.map.scen,4,Dijkstra,1.0,3,True,1.0000,1.0,2,0.0063,0.00
random512-10-4.map,random512-10-4.map.scen,4,Dijkstra,1.0,4,True,1.0000,1.0,5,0.0146,0.00
random512-10-4.map,random512-10-4.map.scen,4,Dijkstra,1.0,5,True,0.0000,0.0,1,0.0018,0.00
random512-10-4.map,random512-10-4.map.scen,4,Dijkstra,1.0,6,True,2.0000,1.41421356,11,0.0298,41.42
random512-10-4.map,random512-10-4.map.scen,4,Dijkstra,1.0,7,True,1.0000,1.0,3,0.0081,0.00
random512-10-4.map,random512-10-4.map.scen,4,Dijkstra,1.0,8,True,2.0000,2.0,8,0.0258,0.00
random512-10-4.map,random512-10-4.map.scen,4,Dijkstra,1.0,9,True,3.0000,3.0,8,0.0237,0.00
random512-10-4.map,random512-10-4.map.scen,4,A* (Octile),1.0,0,True,3.0000,3.0,4,0.0148,0.00
random512-10-4.map,random512-10-4.map.scen,4,A* (Octile),1.0,1,True,2.0000,2.0,3,0.0107,0.00
random512-10-4.map,random512-10-4.map.scen,4,A* (Octile),1.0,2,True,3.0000,3.0,4,0.0141,0.00
random512-10-4.map,random512-10-4.map.scen,4,A* (Octile),1.0,3,True,1.0000,1.0,2,0.0065,0.00
random512-10-4.map,random512-10-4.map.scen,4,A* (Octile),1.0,4,True,1.0000,1.0,2,0.0071,0.00
random512-10-4.map,random512-10-4.map.scen,4,A* (Octile),1.0,5,True,0.0000,0.0,1,0.0034,0.00
random512-10-4.map,random512-10-4.map.scen,4,A* (Octile),1.0,6,True,2.0000,1.41421356,4,0.0228,41.42
random512-10-4.map,random512-10-4.map.scen,4,A* (Octile),1.0,7,True,1.0000,1.0,2,0.0092,0.00
random512-10-4.map,random512-10-4.map.scen,4,A* (Octile),1.0,8,True,2.0000,2.0,3,0.0157,0.00
random512-10-4.map,random512-10-4.map.scen,4,A* (Octile),1.0,9,True,3.0000,3.0,5,0.0148,0.00
random512-10-4.map,random512-10-4.map.scen,4,WA* (x2.0),2.0,0,True,3.0000,3.0,4,0.0141,0.00
random512-10-4.map,random512-10-4.map.scen,4,WA* (x2.0),2.0,1,True,2.0000,2.0,3,0.0103,0.00
random512-10-4.map,random512-10-4.map.scen,4,WA* (x2.0),2.0,2,True,3.0000,3.0,4,0.0137,0.00
random512-10-4.map,random512-10-4.map.scen,4,WA* (x2.0),2.0,3,True,1.0000,1.0,2,0.0062,0.00
random512-10-4.map,random512-10-4.map.scen,4,WA* (x2.0),2.0,4,True,1.0000,1.0,2,0.0067,0.00
random512-10-4.map,random512-10-4.map.scen,4,WA* (x2.0),2.0,5,True,0.0000,0.0,1,0.0017,0.00
random512-10-4.map,random512-10-4.map.scen,4,WA* (x2.0),2.0,6,True,2.0000,1.41421356,3,0.0101,41.42
random512-10-4.map,random512-10-4.map.scen,4,WA* (x2.0),2.0,7,True,1.0000,1.0,2,0.0061,0.00
random512-10-4.map,random512-10-4.map.scen,4,WA* (x2.0),2.0,8,True,2.0000,2.0,3,0.0101,0.00
random512-10-4.map,random512-10-4.map.scen,4,WA* (x2.0),2.0,9,True,3.0000,3.0,4,0.0120,0.00
random512-10-4.map,random512-10-4.map.scen,4,WA* (x10.0),10.0,0,True,3.0000,3.0,4,0.0131,0.00
random512-10-4.map,random512-10-4.map.scen,4,WA* (x10.0),10.0,1,True,2.0000,2.0,3,0.0099,0.00
random512-10-4.map,random512-10-4.map.scen,4,WA* (x10.0),10.0,2,True,3.0000,3.0,4,0.0134,0.00
random512-10-4.map,random512-10-4.map.scen,4,WA* (x10.0),10.0,3,True,1.0000,1.0,2,0.0060,0.00
random512-10-4.map,random512-10-4.map.scen,4,WA* (x10.0),10.0,4,True,1.0000,1.0,2,0.0069,0.00
random512-10-4.map,random512-10-4.map.scen,4,WA* (x10.0),10.0,5,True,0.0000,0.0,1,0.0017,0.00
random512-10-4.map,random512-10-4.map.scen,4,WA* (x10.0),10.0,6,True,2.0000,1.41421356,3,0.0104,41.42
random512-10-4.map,random512-10-4.map.scen,4,WA* (x10.0),10.0,7,True,1.0000,1.0,2,0.0061,0.00
random512-10-4.map,random512-10-4.map.scen,4,WA* (x10.0),10.0,8,True,2.0000,2.0,3,0.0107,0.00
random512-10-4.map,random512-10-4.map.scen,4,WA* (x10.0),10.0,9,True,3.0000,3.0,4,0.0117,0.00
random512-10-4.map,random512-10-4.map.scen,8,BFS,1.0,0,True,3.0000,3.0,31,0.0842,0.00
random512-10-4.map,random512-10-4.map.scen,8,BFS,1.0,1,True,2.0000,2.0,9,0.0214,0.00
random512-10-4.map,random512-10-4.map.scen,8,BFS,1.0,2,True,3.0000,3.0,35,0.0734,0.00
random512-10-4.map,random512-10-4.map.scen,8,BFS,1.0,3,True,1.0000,1.0,2,0.0058,0.00
random512-10-4.map,random512-10-4.map.scen,8,BFS,1.0,4,True,1.0000,1.0,3,0.0089,0.00
random512-10-4.map,random512-10-4.map.scen,8,BFS,1.0,5,True,0.0000,0.0,1,0.0014,0.00
random512-10-4.map,random512-10-4.map.scen,8,BFS,1.0,6,True,1.0000,1.41421356,6,0.0172,-29.29
random512-10-4.map,random512-10-4.map.scen,8,BFS,1.0,7,True,1.0000,1.0,3,0.0069,0.00
random512-10-4.map,random512-10-4.map.scen,8,BFS,1.0,8,True,2.0000,2.0,19,0.0468,0.00
random512-10-4.map,random512-10-4.map.scen,8,BFS,1.0,9,True,3.0000,3.0,11,0.0261,0.00
random512-10-4.map,random512-10-4.map.scen,8,Dijkstra,1.0,0,True,3.0000,3.0,22,0.0876,0.00
random512-10-4.map,random512-10-4.map.scen,8,Dijkstra,1.0,1,True,2.0000,2.0,9,0.0331,0.00
random512-10-4.map,random512-10-4.map.scen,8,Dijkstra,1.0,2,True,3.0000,3.0,26,0.1035,0.00
random512-10-4.map,random512-10-4.map.scen,8,Dijkstra,1.0,3,True,1.0000,1.0,2,0.0073,0.00
random512-10-4.map,random512-10-4.map.scen,8,Dijkstra,1.0,4,True,1.0000,1.0,4,0.0142,0.00
random512-10-4.map,random512-10-4.map.scen,8,Dijkstra,1.0,5,True,0.0000,0.0,1,0.0017,0.00
random512-10-4.map,random512-10-4.map.scen,8,Dijkstra,1.0,6,True,1.4142,1.41421356,9,0.0354,0.00
random512-10-4.map,random512-10-4.map.scen,8,Dijkstra,1.0,7,True,1.0000,1.0,4,0.0131,0.00
random512-10-4.map,random512-10-4.map.scen,8,Dijkstra,1.0,8,True,2.0000,2.0,10,0.0426,0.00
random512-10-4.map,random512-10-4.map.scen,8,Dijkstra,1.0,9,True,3.0000,3.0,15,0.0569,0.00
random512-10-4.map,random512-10-4.map.scen,8,A* (Octile),1.0,0,True,3.0000,3.0,4,0.0178,0.00
random512-10-4.map,random512-10-4.map.scen,8,A* (Octile),1.0,1,True,2.0000,2.0,3,0.0125,0.00
random512-10-4.map,random512-10-4.map.scen,8,A* (Octile),1.0,2,True,3.0000,3.0,4,0.0202,0.00
random512-10-4.map,random512-10-4.map.scen,8,A* (Octile),1.0,3,True,1.0000,1.0,2,0.0079,0.00
random512-10-4.map,random512-10-4.map.scen,8,A* (Octile),1.0,4,True,1.0000,1.0,2,0.0092,0.00
random512-10-4.map,random512-10-4.map.scen,8,A* (Octile),1.0,5,True,0.0000,0.0,1,0.0017,0.00
random512-10-4.map,random512-10-4.map.scen,8,A* (Octile),1.0,6,True,1.4142,1.41421356,2,0.0097,0.00
random512-10-4.map,random512-10-4.map.scen,8,A* (Octile),1.0,7,True,1.0000,1.0,2,0.0080,0.00
random512-10-4.map,random512-10-4.map.scen,8,A* (Octile),1.0,8,True,2.0000,2.0,3,0.0149,0.00
random512-10-4.map,random512-10-4.map.scen,8,A* (Octile),1.0,9,True,3.0000,3.0,5,0.0178,0.00
random512-10-4.map,random512-10-4.map.scen,8,WA* (x2.0),2.0,0,True,3.0000,3.0,4,0.0170,0.00
random512-10-4.map,random512-10-4.map.scen,8,WA* (x2.0),2.0,1,True,2.0000,2.0,3,0.0126,0.00
random512-10-4.map,random512-10-4.map.scen,8,WA* (x2.0),2.0,2,True,3.0000,3.0,4,0.0196,0.00
random512-10-4.map,random512-10-4.map.scen,8,WA* (x2.0),2.0,3,True,1.0000,1.0,2,0.0080,0.00
random512-10-4.map,random512-10-4.map.scen,8,WA* (x2.0),2.0,4,True,1.0000,1.0,2,0.0093,0.00
random512-10-4.map,random512-10-4.map.scen,8,WA* (x2.0),2.0,5,True,0.0000,0.0,1,0.0016,0.00
random512-10-4.map,random512-10-4.map.scen,8,WA* (x2.0),2.0,6,True,1.4142,1.41421356,2,0.0099,0.00
random512-10-4.map,random512-10-4.map.scen,8,WA* (x2.0),2.0,7,True,1.0000,1.0,2,0.0079,0.00
random512-10-4.map,random512-10-4.map.scen,8,WA* (x2.0),2.0,8,True,2.0000,2.0,3,0.0146,0.00
random512-10-4.map,random512-10-4.map.scen,8,WA* (x2.0),2.0,9,True,3.0000,3.0,4,0.0136,0.00
random512-10-4.map,random512-10-4.map.scen,8,WA* (x10.0),10.0,0,True,3.0000,3.0,4,0.0178,0.00
random512-10-4.map,random512-10-4.map.scen,8,WA* (x10.0),10.0,1,True,2.0000,2.0,3,0.0125,0.00
random512-10-4.map,random512-10-4.map.scen,8,WA* (x10.0),10.0,2,True,3.0000,3.0,4,0.0204,0.00
random512-10-4.map,random512-10-4.map.scen,8,WA* (x10.0),10.0,3,True,1.0000,1.0,2,0.0078,0.00
random512-10-4.map,random512-10-4.map.scen,8,WA* (x10.0),10.0,4,True,1.0000,1.0,2,0.0132,0.00
random512-10-4.map,random512-10-4.map.scen,8,WA* (x10.0),10.0,5,True,0.0000,0.0,1,0.0022,0.00
random512-10-4.map,random512-10-4.map.scen,8,WA* (x10.0),10.0,6,True,1.4142,1.41421356,2,0.0138,0.00
random512-10-4.map,random512-10-4.map.scen,8,WA* (x10.0),10.0,7,True,1.0000,1.0,2,0.0110,0.00
random512-10-4.map,random512-10-4.map.scen,8,WA* (x10.0),10.0,8,True,2.0000,2.0,3,0.0225,0.00
random512-10-4.map,random512-10-4.map.scen,8,WA* (x10.0),10.0,9,True,3.0000,3.0,4,0.0280,0.00
random512-10-5.map,random512-10-5.map.scen,4,BFS,1.0,0,True,4.0000,3.41421356,30,0.0619,17.16
random512-10-5.map,random512-10-5.map.scen,4,BFS,1.0,1,True,4.0000,3.41421356,28,0.0683,17.16
random512-10-5.map,random512-10-5.map.scen,4,BFS,1.0,2,True,5.0000,3.82842712,43,0.1228,30.60
random512-10-5.map,random512-10-5.map.scen,4,BFS,1.0,3,True,5.0000,3.82842712,48,0.0982,30.60
random512-10-5.map,random512-10-5.map.scen,4,BFS,1.0,4,True,4.0000,2.82842712,25,0.0430,41.42
random512-10-5.map,random512-10-5.map.scen,4,BFS,1.0,5,True,4.0000,3.41421356,33,0.0530,17.16
random512-10-5.map,random512-10-5.map.scen,4,BFS,1.0,6,True,3.0000,2.41421356,15,0.0258,24.26
random512-10-5.map,random512-10-5.map.scen,4,BFS,1.0,7,True,2.0000,2.0,6,0.0132,0.00
random512-10-5.map,random512-10-5.map.scen,4,BFS,1.0,8,True,4.0000,2.82842712,26,0.0463,41.42
random512-10-5.map,random512-10-5.map.scen,4,BFS,1.0,9,True,2.0000,1.41421356,8,0.0174,41.42
random512-10-5.map,random512-10-5.map.scen,4,Dijkstra,1.0,0,True,4.0000,3.41421356,25,0.0700,17.16
random512-10-5.map,random512-10-5.map.scen,4,Dijkstra,1.0,1,True,4.0000,3.41421356,27,0.0758,17.16
random512-10-5.map,random512-10-5.map.scen,4,Dijkstra,1.0,2,True,5.0000,3.82842712,40,0.1921,30.60
random512-10-5.map,random512-10-5.map.scen,4,Dijkstra,1.0,3,True,5.0000,3.82842712,45,0.1296,30.60
random512-10-5.map,random512-10-5.map.scen,4,Dijkstra,1.0,4,True,4.0000,2.82842712,33,0.0826,41.42
random512-10-5.map,random512-10-5.map.scen,4,Dijkstra,1.0,5,True,4.0000,3.41421356,25,0.0637,17.16
random512-10-5.map,random512-10-5.map.scen,4,Dijkstra,1.0,6,True,3.0000,2.41421356,20,0.0515,24.26
random512-10-5.map,random512-10-5.map.scen,4,Dijkstra,1.0,7,True,2.0000,2.0,9,0.0282,0.00
random512-10-5.map,random512-10-5.map.scen,4,Dijkstra,1.0,8,True,4.0000,2.82842712,32,0.0846,41.42
random512-10-5.map,random512-10-5.map.scen,4,Dijkstra,1.0,9,True,2.0000,1.41421356,6,0.0173,41.42
random512-10-5.map,random512-10-5.map.scen,4,A* (Octile),1.0,0,True,4.0000,3.41421356,7,0.0226,17.16
random512-10-5.map,random512-10-5.map.scen,4,A* (Octile),1.0,1,True,4.0000,3.41421356,7,0.0201,17.16
random512-10-5.map,random512-10-5.map.scen,4,A* (Octile),1.0,2,True,5.0000,3.82842712,11,0.0335,30.60
random512-10-5.map,random512-10-5.map.scen,4,A* (Octile),1.0,3,True,5.0000,3.82842712,12,0.0456,30.60
random512-10-5.map,random512-10-5.map.scen,4,A* (Octile),1.0,4,True,4.0000,2.82842712,9,0.0294,41.42
random512-10-5.map,random512-10-5.map.scen,4,A* (Octile),1.0,5,True,4.0000,3.41421356,7,0.0215,17.16
random512-10-5.map,random512-10-5.map.scen,4,A* (Octile),1.0,6,True,3.0000,2.41421356,6,0.0197,24.26
random512-10-5.map,random512-10-5.map.scen,4,A* (Octile),1.0,7,True,2.0000,2.0,3,0.0098,0.00
random512-10-5.map,random512-10-5.map.scen,4,A* (Octile),1.0,8,True,4.0000,2.82842712,9,0.0279,41.42
random512-10-5.map,random512-10-5.map.scen,4,A* (Octile),1.0,9,True,2.0000,1.41421356,4,0.0137,41.42
random512-10-5.map,random512-10-5.map.scen,4,WA* (x2.0),2.0,0,True,4.0000,3.41421356,5,0.0162,17.16
random512-10-5.map,random512-10-5.map.scen,4,WA* (x2.0),2.0,1,True,4.0000,3.41421356,5,0.0158,17.16
random512-10-5.map,random512-10-5.map.scen,4,WA* (x2.0),2.0,2,True,5.0000,3.82842712,6,0.0206,30.60
random512-10-5.map,random512-10-5.map.scen,4,WA* (x2.0),2.0,3,True,5.0000,3.82842712,6,0.0217,30.60
random512-10-5.map,random512-10-5.map.scen,4,WA* (x2.0),2.0,4,True,4.0000,2.82842712,5,0.0163,41.42
random512-10-5.map,random512-10-5.map.scen,4,WA* (x2.0),2.0,5,True,4.0000,3.41421356,5,0.0162,17.16
random512-10-5.map,random512-10-5.map.scen,4,WA* (x2.0),2.0,6,True,3.0000,2.41421356,4,0.0132,24.26
random512-10-5.map,random512-10-5.map.scen,4,WA* (x2.0),2.0,7,True,2.0000,2.0,3,0.0095,0.00
random512-10-5.map,random512-10-5.map.scen,4,WA* (x2.0),2.0,8,True,4.0000,2.82842712,5,0.0157,41.42
random512-10-5.map,random512-10-5.map.scen,4,WA* (x2.0),2.0,9,True,2.0000,1.41421356,3,0.0099,41.42
random512-10-5.map,random512-10-5.map.scen,4,WA* (x10.0),10.0,0,True,4.0000,3.41421356,5,0.0150,17.16
random512-10-5.map,random512-10-5.map.scen,4,WA* (x10.0),10.0,1,True,4.0000,3.41421356,5,0.0147,17.16
random512-10-5.map,random512-10-5.map.scen,4,WA* (x10.0),10.0,2,True,5.0000,3.82842712,6,0.0203,30.60
random512-10-5.map,random512-10-5.map.scen,4,WA* (x10.0),10.0,3,True,5.0000,3.82842712,6,0.0212,30.60
random512-10-5.map,random512-10-5.map.scen,4,WA* (x10.0),10.0,4,True,4.0000,2.82842712,5,0.0159,41.42
random512-10-5.map,random512-10-5.map.scen,4,WA* (x10.0),10.0,5,True,4.0000,3.41421356,5,0.0163,17.16
random512-10-5.map,random512-10-5.map.scen,4,WA* (x10.0),10.0,6,True,3.0000,2.41421356,4,0.0132,24.26
random512-10-5.map,random512-10-5.map.scen,4,WA* (x10.0),10.0,7,True,2.0000,2.0,3,0.0095,0.00
random512-10-5.map,random512-10-5.map.scen,4,WA* (x10.0),10.0,8,True,4.0000,2.82842712,5,0.0160,41.42
random512-10-5.map,random512-10-5.map.scen,4,WA* (x10.0),10.0,9,True,2.0000,1.41421356,3,0.0102,41.42
random512-10-5.map,random512-10-5.map.scen,8,BFS,1.0,0,True,3.0000,3.41421356,28,0.0581,-12.13
random512-10-5.map,random512-10-5.map.scen,8,BFS,1.0,1,True,3.0000,3.41421356,23,0.0521,-12.13
random512-10-5.map,random512-10-5.map.scen,8,BFS,1.0,2,True,3.0000,3.82842712,23,0.0505,-21.64
random512-10-5.map,random512-10-5.map.scen,8,BFS,1.0,3,True,3.0000,3.82842712,35,0.0766,-21.64
random512-10-5.map,random512-10-5.map.scen,8,BFS,1.0,4,True,2.0000,2.82842712,19,0.0409,-29.29
random512-10-5.map,random512-10-5.map.scen,8,BFS,1.0,5,True,3.0000,3.41421356,30,0.0594,-12.13
random512-10-5.map,random512-10-5.map.scen,8,BFS,1.0,6,True,2.0000,2.41421356,14,0.0288,-17.16
random512-10-5.map,random512-10-5.map.scen,8,BFS,1.0,7,True,2.0000,2.0,8,0.0214,0.00
random512-10-5.map,random512-10-5.map.scen,8,BFS,1.0,8,True,2.0000,2.82842712,22,0.0479,-29.29
random512-10-5.map,random512-10-5.map.scen,8,BFS,1.0,9,True,1.0000,1.41421356,9,0.0242,-29.29
random512-10-5.map,random512-10-5.map.scen,8,Dijkstra,1.0,0,True,3.4142,3.41421356,24,0.0830,0.00
random512-10-5.map,random512-10-5.map.scen,8,Dijkstra,1.0,1,True,3.4142,3.41421356,20,0.0731,0.00
random512-10-5.map,random512-10-5.map.scen,8,Dijkstra,1.0,2,True,3.8284,3.82842712,30,0.1097,0.00
random512-10-5.map,random512-10-5.map.scen,8,Dijkstra,1.0,3,True,3.8284,3.82842712,36,0.1466,0.00
random512-10-5.map,random512-10-5.map.scen,8,Dijkstra,1.0,4,True,2.8284,2.82842712,22,0.0759,0.00
random512-10-5.map,random512-10-5.map.scen,8,Dijkstra,1.0,5,True,3.4142,3.41421356,25,0.0860,0.00
random512-10-5.map,random512-10-5.map.scen,8,Dijkstra,1.0,6,True,2.4142,2.41421356,18,0.0638,0.00
random512-10-5.map,random512-10-5.map.scen,8,Dijkstra,1.0,7,True,2.0000,2.0,7,0.0289,0.00
random512-10-5.map,random512-10-5.map.scen,8,Dijkstra,1.0,8,True,2.8284,2.82842712,21,0.0788,0.00
random512-10-5.map,random512-10-5.map.scen,8,Dijkstra,1.0,9,True,1.4142,1.41421356,7,0.0315,0.00
random512-10-5.map,random512-10-5.map.scen,8,A* (Octile),1.0,0,True,3.4142,3.41421356,6,0.0235,0.00
random512-10-5.map,random512-10-5.map.scen,8,A* (Octile),1.0,1,True,3.4142,3.41421356,5,0.0210,0.00
random512-10-5.map,random512-10-5.map.scen,8,A* (Octile),1.0,2,True,3.8284,3.82842712,4,0.0164,0.00
random512-10-5.map,random512-10-5.map.scen,8,A* (Octile),1.0,3,True,3.8284,3.82842712,4,0.0227,0.00
random512-10-5.map,random512-10-5.map.scen,8,A* (Octile),1.0,4,True,2.8284,2.82842712,3,0.0166,0.00
random512-10-5.map,random512-10-5.map.scen,8,A* (Octile),1.0,5,True,3.4142,3.41421356,4,0.0188,0.00
random512-10-5.map,random512-10-5.map.scen,8,A* (Octile),1.0,6,True,2.4142,2.41421356,4,0.0191,0.00
random512-10-5.map,random512-10-5.map.scen,8,A* (Octile),1.0,7,True,2.0000,2.0,3,0.0130,0.00
random512-10-5.map,random512-10-5.map.scen,8,A* (Octile),1.0,8,True,2.8284,2.82842712,3,0.0169,0.00
random512-10-5.map,random512-10-5.map.scen,8,A* (Octile),1.0,9,True,1.4142,1.41421356,2,0.0098,0.00
random512-10-5.map,random512-10-5.map.scen,8,WA* (x2.0),2.0,0,True,3.4142,3.41421356,4,0.0251,0.00
random512-10-5.map,random512-10-5.map.scen,8,WA* (x2.0),2.0,1,True,3.4142,3.41421356,4,0.0239,0.00
random512-10-5.map,random512-10-5.map.scen,8,WA* (x2.0),2.0,2,True,3.8284,3.82842712,4,0.0239,0.00
random512-10-5.map,random512-10-5.map.scen,8,WA* (x2.0),2.0,3,True,3.8284,3.82842712,4,0.0330,0.00
random512-10-5.map,random512-10-5.map.scen,8,WA* (x2.0),2.0,4,True,2.8284,2.82842712,3,0.0190,0.00
random512-10-5.map,random512-10-5.map.scen,8,WA* (x2.0),2.0,5,True,3.4142,3.41421356,4,0.0191,0.00
random512-10-5.map,random512-10-5.map.scen,8,WA* (x2.0),2.0,6,True,2.4142,2.41421356,3,0.0151,0.00
random512-10-5.map,random512-10-5.map.scen,8,WA* (x2.0),2.0,7,True,2.0000,2.0,3,0.0127,0.00
random512-10-5.map,random512-10-5.map.scen,8,WA* (x2.0),2.0,8,True,2.8284,2.82842712,3,0.0164,0.00
random512-10-5.map,random512-10-5.map.scen,8,WA* (x2.0),2.0,9,True,1.4142,1.41421356,2,0.0099,0.00
random512-10-5.map,random512-10-5.map.scen,8,WA* (x10.0),10.0,0,True,3.4142,3.41421356,4,0.0166,0.00
random512-10-5.map,random512-10-5.map.scen,8,WA* (x10.0),10.0,1,True,3.4142,3.41421356,4,0.0159,0.00
random512-10-5.map,random512-10-5.map.scen,8,WA* (x10.0),10.0,2,True,3.8284,3.82842712,4,0.0187,0.00
random512-10-5.map,random512-10-5.map.scen,8,WA* (x10.0),10.0,3,True,3.8284,3.82842712,4,0.0230,0.00
random512-10-5.map,random512-10-5.map.scen,8,WA* (x10.0),10.0,4,True,2.8284,2.82842712,3,0.0316,0.00
random512-10-5.map,random512-10-5.map.scen,8,WA* (x10.0),10.0,5,True,3.4142,3.41421356,4,0.0330,0.00
random512-10-5.map,random512-10-5.map.scen,8,WA* (x10.0),10.0,6,True,2.4142,2.41421356,3,0.0167,0.00
random512-10-5.map,random512-10-5.map.scen,8,WA* (x10.0),10.0,7,True,2.0000,2.0,3,0.0131,0.00
random512-10-5.map,random512-10-5.map.scen,8,WA* (x10.0),10.0,8,True,2.8284,2.82842712,3,0.0174,0.00
random512-10-5.map,random512-10-5.map.scen,8,WA* (x10.0),10.0,9,True,1.4142,1.41421356,2,0.0102,0.00
random512-10-6.map,random512-10-6.map.scen,4,BFS,1.0,0,True,2.0000,2.0,10,0.0291,0.00
random512-10-6.map,random512-10-6.map.scen,4,BFS,1.0,1,True,3.0000,2.41421356,15,0.0297,24.26
random512-10-6.map,random512-10-6.map.scen,4,BFS,1.0,2,True,2.0000,1.41421356,7,0.0141,41.42
random512-10-6.map,random512-10-6.map.scen,4,BFS,1.0,3,True,5.0000,3.82842712,40,0.1020,30.60
random512-10-6.map,random512-10-6.map.scen,4,BFS,1.0,4,True,3.0000,2.41421356,15,0.0379,24.26
random512-10-6.map,random512-10-6.map.scen,4,BFS,1.0,5,True,4.0000,2.82842712,30,0.0551,41.42
random512-10-6.map,random512-10-6.map.scen,4,BFS,1.0,6,True,4.0000,2.82842712,23,0.0401,41.42
random512-10-6.map,random512-10-6.map.scen,4,BFS,1.0,7,True,2.0000,2.0,5,0.0099,0.00
random512-10-6.map,random512-10-6.map.scen,4,BFS,1.0,8,True,2.0000,2.0,6,0.0111,0.00
random512-10-6.map,random512-10-6.map.scen,4,BFS,1.0,9,True,2.0000,2.0,10,0.0279,0.00
random512-10-6.map,random512-10-6.map.scen,4,Dijkstra,1.0,0,True,2.0000,2.0,7,0.0201,0.00
random512-10-6.map,random512-10-6.map.scen,4,Dijkstra,1.0,1,True,3.0000,2.41421356,16,0.0463,24.26
random512-10-6.map,random512-10-6.map.scen,4,Dijkstra,1.0,2,True,2.0000,1.41421356,9,0.0262,41.42
random512-10-6.map,random512-10-6.map.scen,4,Dijkstra,1.0,3,True,5.0000,3.82842712,43,0.1274,30.60
random512-10-6.map,random512-10-6.map.scen,4,Dijkstra,1.0,4,True,3.0000,2.41421356,18,0.0526,24.26
random512-10-6.map,random512-10-6.map.scen,4,Dijkstra,1.0,5,True,4.0000,2.82842712,25,0.0646,41.42
random512-10-6.map,random512-10-6.map.scen,4,Dijkstra,1.0,6,True,4.0000,2.82842712,33,0.0880,41.42
random512-10-6.map,random512-10-6.map.scen,4,Dijkstra,1.0,7,True,2.0000,2.0,5,0.0145,0.00
random512-10-6.map,random512-10-6.map.scen,4,Dijkstra,1.0,8,True,2.0000,2.0,12,0.0322,0.00
random512-10-6.map,random512-10-6.map.scen,4,Dijkstra,1.0,9,True,2.0000,2.0,7,0.0214,0.00
random512-10-6.map,random512-10-6.map.scen,4,A* (Octile),1.0,0,True,2.0000,2.0,3,0.0116,0.00
random512-10-6.map,random512-10-6.map.scen,4,A* (Octile),1.0,1,True,3.0000,2.41421356,6,0.0211,24.26
random512-10-6.map,random512-10-6.map.scen,4,A* (Octile),1.0,2,True,2.0000,1.41421356,4,0.0142,41.42
