MapName,Scenario,Connectivity,Algorithm,Weight,TaskID,Success,PathLength,OptimalLength,ExpandedNodes,TimeMS,Suboptimality
maze512-1-1.map,maze512-1-1.map.scen,4,BFS,1.0,0,True,3.0000,3.0,8,0.0234,0.00
maze512-1-1.map,maze512-1-1.map.scen,4,BFS,1.0,1,True,1.0000,1.0,2,0.0043,0.00
maze512-1-1.map,maze512-1-1.map.scen,4,BFS,1.0,2,True,2.0000,2.0,5,0.0080,0.00
maze512-1-1.map,maze512-1-1.map.scen,4,BFS,1.0,3,True,3.0000,3.0,7,0.0108,0.00
maze512-1-1.map,maze512-1-1.map.scen,4,BFS,1.0,4,True,1.0000,1.0,2,0.0039,0.00
maze512-1-1.map,maze512-1-1.map.scen,4,BFS,1.0,5,True,3.0000,3.0,9,0.0126,0.00
maze512-1-1.map,maze512-1-1.map.scen,4,BFS,1.0,6,True,3.0000,3.0,6,0.0086,0.00
maze512-1-1.map,maze512-1-1.map.scen,4,BFS,1.0,7,True,0.0000,0.0,1,0.0014,0.00
maze512-1-1.map,maze512-1-1.map.scen,4,BFS,1.0,8,True,3.0000,3.0,7,0.0096,0.00
maze512-1-1.map,maze512-1-1.map.scen,4,BFS,1.0,9,True,2.0000,2.0,4,0.0064,0.00
maze512-1-1.map,maze512-1-1.map.scen,4,BFS,1.0,10,True,7.0000,7.0,22,0.0332,0.00
maze512-1-1.map,maze512-1-1.map.scen,4,BFS,1.0,11,True,4.0000,4.0,8,0.0113,0.00
maze512-1-1.map,maze512-1-1.map.scen,4,BFS,1.0,12,True,5.0000,5.0,13,0.0187,0.00
maze512-1-1.map,maze512-1-1.map.scen,4,BFS,1.0,13,True,4.0000,4.0,8,0.0124,0.00
maze512-1-1.map,maze512-1-1.map.scen,4,BFS,1.0,14,True,5.0000,5.0,6,0.0088,0.00
maze512-1-1.map,maze512-1-1.map.scen,4,BFS,1.0,15,True,6.0000,6.0,17,0.0238,0.00
maze512-1-1.map,maze512-1-1.map.scen,4,BFS,1.0,16,True,7.0000,7.0,17,0.0230,0.00
maze512-1-1.map,maze512-1-1.map.scen,4,BFS,1.0,17,True,7.0000,7.0,17,0.0231,0.00
maze512-1-1.map,maze512-1-1.map.scen,4,BFS,1.0,18,True,4.0000,4.0,13,0.0194,0.00
maze512-1-1.map,maze512-1-1.map.scen,4,BFS,1.0,19,True,6.0000,6.0,14,0.0199,0.00
maze512-1-1.map,maze512-1-1.map.scen,4,BFS,1.0,20,True,9.0000,9.0,27,0.0346,0.00
maze512-1-1.map,maze512-1-1.map.scen,4,BFS,1.0,21,True,10.0000,10.0,28,0.0345,0.00
maze512-1-1.map,maze512-1-1.map.scen,4,BFS,1.0,22,True,11.0000,11.0,36,0.0493,0.00
maze512-1-1.map,maze512-1-1.map.scen,4,BFS,1.0,23,True,11.0000,11.0,31,0.0394,0.00
maze512-1-1.map,maze512-1-1.map.scen,4,BFS,1.0,24,True,11.0000,11.0,22,0.0300,0.00
maze512-1-1.map,maze512-1-1.map.scen,4,BFS,1.0,25,True,9.0000,9.0,14,0.0184,0.00
maze512-1-1.map,maze512-1-1.map.scen,4,BFS,1.0,26,True,10.0000,10.0,31,0.0409,0.00
maze512-1-1.map,maze512-1-1.map.scen,4,BFS,1.0,27,True,11.0000,11.0,34,0.0452,0.00
maze512-1-1.map,maze512-1-1.map.scen,4,BFS,1.0,28,True,9.0000,9.0,29,0.0385,0.00
maze512-1-1.map,maze512-1-1.map.scen,4,BFS,1.0,29,True,11.0000,11.0,24,0.0285,0.00
maze512-1-1.map,maze512-1-1.map.scen,4,BFS,1.0,30,True,13.0000,13.0,41,0.0503,0.00
maze512-1-1.map,maze512-1-1.map.scen,4,BFS,1.0,31,True,12.0000,12.0,35,0.0567,0.00
maze512-1-1.map,maze512-1-1.map.scen,4,BFS,1.0,32,True,13.0000,13.0,50,0.0647,0.00
maze512-1-1.map,maze512-1-1.map.scen,4,BFS,1.0,33,True,15.0000,15.0,31,0.0483,0.00
maze512-1-1.map,maze512-1-1.map.scen,4,BFS,1.0,34,True,13.0000,13.0,42,0.0546,0.00
maze512-1-1.map,maze512-1-1.map.scen,4,BFS,1.0,35,True,14.0000,14.0,40,0.0500,0.00
maze512-1-1.map,maze512-1-1.map.scen,4,BFS,1.0,36,True,13.0000,13.0,40,0.0524,0.00
maze512-1-1.map,maze512-1-1.map.scen,4,BFS,1.0,37,True,12.0000,12.0,26,0.0306,0.00
maze512-1-1.map,maze512-1-1.map.scen,4,BFS,1.0,38,True,13.0000,13.0,26,0.0308,0.00
maze512-1-1.map,maze512-1-1.map.scen,4,BFS,1.0,39,True,12.0000,12.0,31,0.0373,0.00
maze512-1-1.map,maze512-1-1.map.scen,4,BFS,1.0,40,True,19.0000,19.0,67,0.0855,0.00
maze512-1-1.map,maze512-1-1.map.scen,4,BFS,1.0,41,True,17.0000,17.0,34,0.0424,0.00
maze512-1-1.map,maze512-1-1.map.scen,4,BFS,1.0,42,True,16.0000,16.0,35,0.0437,0.00
maze512-1-1.map,maze512-1-1.map.scen,4,BFS,1.0,43,True,19.0000,19.0,41,0.0483,0.00
maze512-1-1.map,maze512-1-1.map.scen,4,BFS,1.0,44,True,19.0000,19.0,57,0.0634,0.00
maze512-1-1.map,maze512-1-1.map.scen,4,BFS,1.0,45,True,17.0000,17.0,39,0.0452,0.00
maze512-1-1.map,maze512-1-1.map.scen,4,BFS,1.0,46,True,19.0000,19.0,51,0.0643,0.00
maze512-1-1.map,maze512-1-1.map.scen,4,BFS,1.0,47,True,17.0000,17.0,61,0.0783,0.00
maze512-1-1.map,maze512-1-1.map.scen,4,BFS,1.0,48,True,16.0000,16.0,59,0.0731,0.00
maze512-1-1.map,maze512-1-1.map.scen,4,BFS,1.0,49,True,19.0000,19.0,72,0.0866,0.00
maze512-1-1.map,maze512-1-1.map.scen,4,BFS,1.0,50,True,23.0000,23.0,54,0.0633,0.00
maze512-1-1.map,maze512-1-1.map.scen,4,BFS,1.0,51,True,21.0000,21.0,83,0.0981,0.00
maze512-1-1.map,maze512-1-1.map.scen,4,BFS,1.0,52,True,22.0000,22.0,75,0.0893,0.00
maze512-1-1.map,maze512-1-1.map.scen,4,BFS,1.0,53,True,21.0000,21.0,62,0.0794,0.00
maze512-1-1.map,maze512-1-1.map.scen,4,BFS,1.0,54,True,22.0000,22.0,65,0.0754,0.00
maze512-1-1.map,maze512-1-1.map.scen,4,BFS,1.0,55,True,23.0000,23.0,93,0.1182,0.00
maze512-1-1.map,maze512-1-1.map.scen,4,BFS,1.0,56,True,22.0000,22.0,76,0.0926,0.00
maze512-1-1.map,maze512-1-1.map.scen,4,BFS,1.0,57,True,22.0000,22.0,72,0.0821,0.00
maze512-1-1.map,maze512-1-1.map.scen,4,BFS,1.0,58,True,20.0000,20.0,81,0.0957,0.00
maze512-1-1.map,maze512-1-1.map.scen,4,BFS,1.0,59,True,21.0000,21.0,58,0.0760,0.00
maze512-1-1.map,maze512-1-1.map.scen,4,BFS,1.0,60,True,25.0000,25.0,30,0.0411,0.00
maze512-1-1.map,maze512-1-1.map.scen,4,BFS,1.0,61,True,27.0000,27.0,142,0.1870,0.00
maze512-1-1.map,maze512-1-1.map.scen,4,BFS,1.0,62,True,27.0000,27.0,89,0.1214,0.00
maze512-1-1.map,maze512-1-1.map.scen,4,BFS,1.0,63,True,24.0000,24.0,88,0.1208,0.00
maze512-1-1.map,maze512-1-1.map.scen,4,BFS,1.0,64,True,26.0000,26.0,76,0.0938,0.00
maze512-1-1.map,maze512-1-1.map.scen,4,BFS,1.0,65,True,24.0000,24.0,68,0.0963,0.00
maze512-1-1.map,maze512-1-1.map.scen,4,BFS,1.0,66,True,24.0000,24.0,69,0.0859,0.00
maze512-1-1.map,maze512-1-1.map.scen,4,BFS,1.0,67,True,27.0000,27.0,65,0.0884,0.00
maze512-1-1.map,maze512-1-1.map.scen,4,BFS,1.0,68,True,24.0000,24.0,87,0.1010,0.00
maze512-1-1.map,maze512-1-1.map.scen,4,BFS,1.0,69,True,27.0000,27.0,62,0.1238,0.00
maze512-1-1.map,maze512-1-1.map.scen,4,BFS,1.0,70,True,28.0000,28.0,97,0.1166,0.00
maze512-1-1.map,maze512-1-1.map.scen,4,BFS,1.0,71,True,30.0000,30.0,103,0.1407,0.00
maze512-1-1.map,maze512-1-1.map.scen,4,BFS,1.0,72,True,28.0000,28.0,78,0.1014,0.00
maze512-1-1.map,maze512-1-1.map.scen,4,BFS,1.0,73,True,28.0000,28.0,115,0.1345,0.00
maze512-1-1.map,maze512-1-1.map.scen,4,BFS,1.0,74,True,31.0000,31.0,88,0.0990,0.00
maze512-1-1.map,maze512-1-1.map.scen,4,BFS,1.0,75,True,30.0000,30.0,96,0.1274,0.00
maze512-1-1.map,maze512-1-1.map.scen,4,BFS,1.0,76,True,28.0000,28.0,96,0.1386,0.00
maze512-1-1.map,maze512-1-1.map.scen,4,BFS,1.0,77,True,28.0000,28.0,119,0.1685,0.00
maze512-1-1.map,maze512-1-1.map.scen,4,BFS,1.0,78,True,31.0000,31.0,68,0.0885,0.00
maze512-1-1.map,maze512-1-1.map.scen,4,BFS,1.0,79,True,30.0000,30.0,73,0.0909,0.00
maze512-1-1.map,maze512-1-1.map.scen,4,BFS,1.0,80,True,33.0000,33.0,133,0.1899,0.00
maze512-1-1.map,maze512-1-1.map.scen,4,BFS,1.0,81,True,35.0000,35.0,101,0.1245,0.00
maze512-1-1.map,maze512-1-1.map.scen,4,BFS,1.0,82,True,33.0000,33.0,78,0.1055,0.00
maze512-1-1.map,maze512-1-1.map.scen,4,BFS,1.0,83,True,35.0000,35.0,81,0.0997,0.00
maze512-1-1.map,maze512-1-1.map.scen,4,BFS,1.0,84,True,34.0000,34.0,88,0.1107,0.00
maze512-1-1.map,maze512-1-1.map.scen,4,BFS,1.0,85,True,35.0000,35.0,126,0.1538,0.00
maze512-1-1.map,maze512-1-1.map.scen,4,BFS,1.0,86,True,33.0000,33.0,91,0.1136,0.00
maze512-1-1.map,maze512-1-1.map.scen,4,BFS,1.0,87,True,35.0000,35.0,151,0.1994,0.00
maze512-1-1.map,maze512-1-1.map.scen,4,BFS,1.0,88,True,32.0000,32.0,71,0.0919,0.00
maze512-1-1.map,maze512-1-1.map.scen,4,BFS,1.0,89,True,33.0000,33.0,120,0.1403,0.00
maze512-1-1.map,maze512-1-1.map.scen,4,BFS,1.0,90,True,39.0000,39.0,118,0.1403,0.00
maze512-1-1.map,maze512-1-1.map.scen,4,BFS,1.0,91,True,39.0000,39.0,243,0.3435,0.00
maze512-1-1.map,maze512-1-1.map.scen,4,BFS,1.0,92,True,38.0000,38.0,129,0.1623,0.00
maze512-1-1.map,maze512-1-1.map.scen,4,BFS,1.0,93,True,37.0000,37.0,163,0.2048,0.00
maze512-1-1.map,maze512-1-1.map.scen,4,BFS,1.0,94,True,36.0000,36.0,108,0.1369,0.00
maze512-1-1.map,maze512-1-1.map.scen,4,BFS,1.0,95,True,38.0000,38.0,100,0.1190,0.00
maze512-1-1.map,maze512-1-1.map.scen,4,BFS,1.0,96,True,37.0000,37.0,89,0.1021,0.00
maze512-1-1.map,maze512-1-1.map.scen,4,BFS,1.0,97,True,38.0000,38.0,152,0.2005,0.00
maze512-1-1.map,maze512-1-1.map.scen,4,BFS,1.0,98,True,37.0000,37.0,81,0.1023,0.00
maze512-1-1.map,maze512-1-1.map.scen,4,BFS,1.0,99,True,39.0000,39.0,116,0.1420,0.00
maze512-1-1.map,maze512-1-1.map.scen,4,BFS,1.0,100,True,41.0000,41.0,122,0.1406,0.00
maze512-1-1.map,maze512-1-1.map.scen,4,BFS,1.0,101,True,41.0000,41.0,65,0.0817,0.00
maze512-1-1.map,maze512-1-1.map.scen,4,BFS,1.0,102,True,41.0000,41.0,125,0.1514,0.00
maze512-1-1.map,maze512-1-1.map.scen,4,BFS,1.0,103,True,43.0000,43.0,170,0.2490,0.00
maze512-1-1.map,maze512-1-1.map.scen,4,BFS,1.0,104,True,41.0000,41.0,98,0.1190,0.00
maze512-1-1.map,maze512-1-1.map.scen,4,BFS,1.0,105,True,40.0000,40.0,92,0.1095,0.00
maze512-1-1.map,maze512-1-1.map.scen,4,BFS,1.0,106,True,40.0000,40.0,152,0.2060,0.00
maze512-1-1.map,maze512-1-1.map.scen,4,BFS,1.0,107,True,43.0000,43.0,150,0.1929,0.00
maze512-1-1.map,maze512-1-1.map.scen,4,BFS,1.0,108,True,40.0000,40.0,141,0.1761,0.00
maze512-1-1.map,maze512-1-1.map.scen,4,BFS,1.0,109,True,42.0000,42.0,95,0.1204,0.00
maze512-1-1.map,maze512-1-1.map.scen,4,BFS,1.0,110,True,44.0000,44.0,140,0.1978,0.00
maze512-1-1.map,maze512-1-1.map.scen,4,BFS,1.0,111,True,46.0000,46.0,100,0.1319,0.00
maze512-1-1.map,maze512-1-1.map.scen,4,BFS,1.0,112,True,44.0000,44.0,146,0.1844,0.00
maze512-1-1.map,maze512-1-1.map.scen,4,BFS,1.0,113,True,47.0000,47.0,143,0.1727,0.00
maze512-1-1.map,maze512-1-1.map.scen,4,BFS,1.0,114,True,46.0000,46.0,125,0.1471,0.00
maze512-1-1.map,maze512-1-1.map.scen,4,BFS,1.0,115,True,45.0000,45.0,87,0.1006,0.00
maze512-1-1.map,maze512-1-1.map.scen,4,BFS,1.0,116,True,45.0000,45.0,200,0.2733,0.00
maze512-1-1.map,maze512-1-1.map.scen,4,BFS,1.0,117,True,46.0000,46.0,249,0.3492,0.00
maze512-1-1.map,maze512-1-1.map.scen,4,BFS,1.0,118,True,44.0000,44.0,172,0.2225,0.00
maze512-1-1.map,maze512-1-1.map.scen,4,BFS,1.0,119,True,46.0000,46.0,124,0.1415,0.00
maze512-1-1.map,maze512-1-1.map.scen,4,BFS,1.0,120,True,49.0000,49.0,131,0.1659,0.00
maze512-1-1.map,maze512-1-1.map.scen,4,BFS,1.0,121,True,50.0000,50.0,200,0.2515,0.00
maze512-1-1.map,maze512-1-1.map.scen,4,BFS,1.0,122,True,50.0000,50.0,145,0.1823,0.00
maze512-1-1.map,maze512-1-1.map.scen,4,BFS,1.0,123,True,51.0000,51.0,142,0.1929,0.00
maze512-1-1.map,maze512-1-1.map.scen,4,BFS,1.0,124,True,51.0000,51.0,158,0.2005,0.00
maze512-1-1.map,maze512-1-1.map.scen,4,BFS,1.0,125,True,48.0000,48.0,117,0.1315,0.00
maze512-1-1.map,maze512-1-1.map.scen,4,BFS,1.0,126,True,51.0000,51.0,198,0.2554,0.00
maze512-1-1.map,maze512-1-1.map.scen,4,BFS,1.0,127,True,49.0000,49.0,209,0.3005,0.00
maze512-1-1.map,maze512-1-1.map.scen,4,BFS,1.0,128,True,48.0000,48.0,246,0.3249,0.00
maze512-1-1.map,maze512-1-1.map.scen,4,BFS,1.0,129,True,51.0000,51.0,247,0.3197,0.00
maze512-1-1.map,maze512-1-1.map.scen,4,BFS,1.0,130,True,55.0000,55.0,150,0.2019,0.00
maze512-1-1.map,maze512-1-1.map.scen,4,BFS,1.0,131,True,52.0000,52.0,169,0.2385,0.00
maze512-1-1.map,maze512-1-1.map.scen,4,BFS,1.0,132,True,55.0000,55.0,198,0.2613,0.00
maze512-1-1.map,maze512-1-1.map.scen,4,BFS,1.0,133,True,53.0000,53.0,109,0.1528,0.00
maze512-1-1.map,maze512-1-1.map.scen,4,BFS,1.0,134,True,52.0000,52.0,162,0.2170,0.00
maze512-1-1.map,maze512-1-1.map.scen,4,BFS,1.0,135,True,55.0000,55.0,189,0.2673,0.00
maze512-1-1.map,maze512-1-1.map.scen,4,BFS,1.0,136,True,52.0000,52.0,165,0.2120,0.00
maze512-1-1.map,maze512-1-1.map.scen,4,BFS,1.0,137,True,53.0000,53.0,174,0.2325,0.00
maze512-1-1.map,maze512-1-1.map.scen,4,BFS,1.0,138,True,54.0000,54.0,146,0.1932,0.00
maze512-1-1.map,maze512-1-1.map.scen,4,BFS,1.0,139,True,54.0000,54.0,153,0.1913,0.00
maze512-1-1.map,maze512-1-1.map.scen,4,BFS,1.0,140,True,59.0000,59.0,278,0.3928,0.00
maze512-1-1.map,maze512-1-1.map.scen,4,BFS,1.0,141,True,56.0000,56.0,272,0.3974,0.00
maze512-1-1.map,maze512-1-1.map.scen,4,BFS,1.0,142,True,58.0000,58.0,287,0.4039,0.00
maze512-1-1.map,maze512-1-1.map.scen,4,BFS,1.0,143,True,56.0000,56.0,218,0.2944,0.00
maze512-1-1.map,maze512-1-1.map.scen,4,BFS,1.0,144,True,59.0000,59.0,300,0.3872,0.00
maze512-1-1.map,maze512-1-1.map.scen,4,BFS,1.0,145,True,59.0000,59.0,185,0.2484,0.00
maze512-1-1.map,maze512-1-1.map.scen,4,BFS,1.0,146,True,59.0000,59.0,210,0.2653,0.00
maze512-1-1.map,maze512-1-1.map.scen,4,BFS,1.0,147,True,57.0000,57.0,359,0.4782,0.00
maze512-1-1.map,maze512-1-1.map.scen,4,BFS,1.0,148,True,56.0000,56.0,292,0.4132,0.00
maze512-1-1.map,maze512-1-1.map.scen,4,BFS,1.0,149,True,58.0000,58.0,183,0.2413,0.00
maze512-1-1.map,maze512-1-1.map.scen,4,BFS,1.0,150,True,62.0000,62.0,240,0.3065,0.00
maze512-1-1.map,maze512-1-1.map.scen,4,BFS,1.0,151,True,61.0000,61.0,248,0.3510,0.00
maze512-1-1.map,maze512-1-1.map.scen,4,BFS,1.0,152,True,60.0000,60.0,262,0.3487,0.00
maze512-1-1.map,maze512-1-1.map.scen,4,BFS,1.0,153,True,60.0000,60.0,175,0.2359,0.00
maze512-1-1.map,maze512-1-1.map.scen,4,BFS,1.0,154,True,62.0000,62.0,241,0.3356,0.00
maze512-1-1.map,maze512-1-1.map.scen,4,BFS,1.0,155,True,63.0000,63.0,191,0.2547,0.00
maze512-1-1.map,maze512-1-1.map.scen,4,BFS,1.0,156,True,62.0000,62.0,220,0.2682,0.00
maze512-1-1.map,maze512-1-1.map.scen,4,BFS,1.0,157,True,61.0000,61.0,236,0.3255,0.00
maze512-1-1.map,maze512-1-1.map.scen,4,BFS,1.0,158,True,61.0000,61.0,221,0.3043,0.00
maze512-1-1.map,maze512-1-1.map.scen,4,BFS,1.0,159,True,63.0000,63.0,303,0.4150,0.00
maze512-1-1.map,maze512-1-1.map.scen,4,BFS,1.0,160,True,65.0000,65.0,303,0.4090,0.00
maze512-1-1.map,maze512-1-1.map.scen,4,BFS,1.0,161,True,64.0000,64.0,217,0.3224,0.00
maze512-1-1.map,maze512-1-1.map.scen,4,BFS,1.0,162,True,65.0000,65.0,468,0.5796,0.00
maze512-1-1.map,maze512-1-1.map.scen,4,BFS,1.0,163,True,64.0000,64.0,253,0.3471,0.00
maze512-1-1.map,maze512-1-1.map.scen,4,BFS,1.0,164,True,65.0000,65.0,281,0.3909,0.00
maze512-1-1.map,maze512-1-1.map.scen,4,BFS,1.0,165,True,64.0000,64.0,374,0.4610,0.00
maze512-1-1.map,maze512-1-1.map.scen,4,BFS,1.0,166,True,65.0000,65.0,167,0.2477,0.00
maze512-1-1.map,maze512-1-1.map.scen,4,BFS,1.0,167,True,67.0000,67.0,271,0.3682,0.00
maze512-1-1.map,maze512-1-1.map.scen,4,BFS,1.0,168,True,64.0000,64.0,308,0.4231,0.00
maze512-1-1.map,maze512-1-1.map.scen,4,BFS,1.0,169,True,67.0000,67.0,181,0.2396,0.00
maze512-1-1.map,maze512-1-1.map.scen,4,BFS,1.0,170,True,70.0000,70.0,183,0.2425,0.00
maze512-1-1.map,maze512-1-1.map.scen,4,BFS,1.0,171,True,71.0000,71.0,244,0.3231,0.00
maze512-1-1.map,maze512-1-1.map.scen,4,BFS,1.0,172,True,68.0000,68.0,236,0.3016,0.00
maze512-1-1.map,maze512-1-1.map.scen,4,BFS,1.0,173,True,69.0000,69.0,356,0.4726,0.00
maze512-1-1.map,maze512-1-1.map.scen,4,BFS,1.0,174,True,71.0000,71.0,301,0.4060,0.00
maze512-1-1.map,maze512-1-1.map.scen,4,BFS,1.0,175,True,69.0000,69.0,232,0.3053,0.00
maze512-1-1.map,maze512-1-1.map.scen,4,BFS,1.0,176,True,68.0000,68.0,241,0.3379,0.00
maze512-1-1.map,maze512-1-1.map.scen,4,BFS,1.0,177,True,68.0000,68.0,243,0.3617,0.00
maze512-1-1.map,maze512-1-1.map.scen,4,BFS,1.0,178,True,71.0000,71.0,225,0.2972,0.00
maze512-1-1.map,maze512-1-1.map.scen,4,BFS,1.0,179,True,69.0000,69.0,240,0.3140,0.00
maze512-1-1.map,maze512-1-1.map.scen,4,BFS,1.0,180,True,75.0000,75.0,290,0.3819,0.00
maze512-1-1.map,maze512-1-1.map.scen,4,BFS,1.0,181,True,72.0000,72.0,224,0.3024,0.00
maze512-1-1.map,maze512-1-1.map.scen,4,BFS,1.0,182,True,74.0000,74.0,170,0.2226,0.00
maze512-1-1.map,maze512-1-1.map.scen,4,BFS,1.0,183,True,74.0000,74.0,227,0.3235,0.00
maze512-1-1.map,maze512-1-1.map.scen,4,BFS,1.0,184,True,75.0000,75.0,159,0.2208,0.00
maze512-1-1.map,maze512-1-1.map.scen,4,BFS,1.0,185,True,73.0000,73.0,307,0.4151,0.00
maze512-1-1.map,maze512-1-1.map.scen,4,BFS,1.0,186,True,72.0000,72.0,221,0.3017,0.00
maze512-1-1.map,maze512-1-1.map.scen,4,BFS,1.0,187,True,72.0000,72.0,162,0.2120,0.00
maze512-1-1.map,maze512-1-1.map.scen,4,BFS,1.0,188,True,75.0000,75.0,266,0.3472,0.00
maze512-1-1.map,maze512-1-1.map.scen,4,BFS,1.0,189,True,73.0000,73.0,256,0.3538,0.00
maze512-1-1.map,maze512-1-1.map.scen,4,BFS,1.0,190,True,77.0000,77.0,203,0.2658,0.00
maze512-1-1.map,maze512-1-1.map.scen,4,BFS,1.0,191,True,78.0000,78.0,232,0.3067,0.00
maze512-1-1.map,maze512-1-1.map.scen,4,BFS,1.0,192,True,79.0000,79.0,212,0.2799,0.00
maze512-1-1.map,maze512-1-1.map.scen,4,BFS,1.0,193,True,78.0000,78.0,282,0.3810,0.00
maze512-1-1.map,maze512-1-1.map.scen,4,BFS,1.0,194,True,79.0000,79.0,246,0.3310,0.00
maze512-1-1.map,maze512-1-1.map.scen,4,BFS,1.0,195,True,77.0000,77.0,250,0.3347,0.00
maze512-1-1.map,maze512-1-1.map.scen,4,BFS,1.0,196,True,78.0000,78.0,308,0.3905,0.00
maze512-1-1.map,maze512-1-1.map.scen,4,BFS,1.0,197,True,76.0000,76.0,290,0.3807,0.00
maze512-1-1.map,maze512-1-1.map.scen,4,BFS,1.0,198,True,77.0000,77.0,221,0.3106,0.00
maze512-1-1.map,maze512-1-1.map.scen,4,BFS,1.0,199,True,77.0000,77.0,238,0.3199,0.00
maze512-1-1.map,maze512-1-1.map.scen,4,BFS,1.0,200,True,83.0000,83.0,378,0.4717,0.00
maze512-1-1.map,maze512-1-1.map.scen,4,BFS,1.0,201,True,82.0000,82.0,596,0.7077,0.00
maze512-1-1.map,maze512-1-1.map.scen,4,BFS,1.0,202,True,81.0000,81.0,302,0.4008,0.00
maze512-1-1.map,maze512-1-1.map.scen,4,BFS,1.0,203,True,82.0000,82.0,414,0.5220,0.00
maze512-1-1.map,maze512-1-1.map.scen,4,BFS,1.0,204,True,83.0000,83.0,298,0.4149,0.00
maze512-1-1.map,maze512-1-1.map.scen,4,BFS,1.0,205,True,80.0000,80.0,444,0.5724,0.00
maze512-1-1.map,maze512-1-1.map.scen,4,BFS,1.0,206,True,81.0000,81.0,135,0.2051,0.00
maze512-1-1.map,maze512-1-1.map.scen,4,BFS,1.0,207,True,83.0000,83.0,316,0.4104,0.00
maze512-1-1.map,maze512-1-1.map.scen,4,BFS,1.0,208,True,82.0000,82.0,239,0.3330,0.00
maze512-1-1.map,maze512-1-1.map.scen,4,BFS,1.0,209,True,81.0000,81.0,411,0.4942,0.00
maze512-1-1.map,maze512-1-1.map.scen,4,BFS,1.0,210,True,86.0000,86.0,264,0.4066,0.00
maze512-1-1.map,maze512-1-1.map.scen,4,BFS,1.0,211,True,87.0000,87.0,617,0.7549,0.00
maze512-1-1.map,maze512-1-1.map.scen,4,BFS,1.0,212,True,84.0000,84.0,199,0.2798,0.00
maze512-1-1.map,maze512-1-1.map.scen,4,BFS,1.0,213,True,85.0000,85.0,468,0.5586,0.00
maze512-1-1.map,maze512-1-1.map.scen,4,BFS,1.0,214,True,87.0000,87.0,133,0.1789,0.00
maze512-1-1.map,maze512-1-1.map.scen,4,BFS,1.0,215,True,84.0000,84.0,287,0.3861,0.00
maze512-1-1.map,maze512-1-1.map.scen,4,BFS,1.0,216,True,84.0000,84.0,241,0.3104,0.00
maze512-1-1.map,maze512-1-1.map.scen,4,BFS,1.0,217,True,84.0000,84.0,298,0.3932,0.00
maze512-1-1.map,maze512-1-1.map.scen,4,BFS,1.0,218,True,85.0000,85.0,197,0.2623,0.00
maze512-1-1.map,maze512-1-1.map.scen,4,BFS,1.0,219,True,86.0000,86.0,289,0.3832,0.00
maze512-1-1.map,maze512-1-1.map.scen,4,BFS,1.0,220,True,91.0000,91.0,709,0.8544,0.00
maze512-1-1.map,maze512-1-1.map.scen,4,BFS,1.0,221,True,90.0000,90.0,483,0.5746,0.00
maze512-1-1.map,maze512-1-1.map.scen,4,BFS,1.0,222,True,89.0000,89.0,300,0.4041,0.00
maze512-1-1.map,maze512-1-1.map.scen,4,BFS,1.0,223,True,91.0000,91.0,265,0.4003,0.00
maze512-1-1.map,maze512-1-1.map.scen,4,BFS,1.0,224,True,89.0000,89.0,362,0.4723,0.00
maze512-1-1.map,maze512-1-1.map.scen,4,BFS,1.0,225,True,88.0000,88.0,237,0.3274,0.00
maze512-1-1.map,maze512-1-1.map.scen,4,BFS,1.0,226,True,90.0000,90.0,385,0.4751,0.00
maze512-1-1.map,maze512-1-1.map.scen,4,BFS,1.0,227,True,90.0000,90.0,320,0.4634,0.00
maze512-1-1.map,maze512-1-1.map.scen,4,BFS,1.0,228,True,88.0000,88.0,466,0.5608,0.00
maze512-1-1.map,maze512-1-1.map.scen,4,BFS,1.0,229,True,88.0000,88.0,309,0.4278,0.00
maze512-1-1.map,maze512-1-1.map.scen,4,BFS,1.0,230,True,93.0000,93.0,588,0.7071,0.00
maze512-1-1.map,maze512-1-1.map.scen,4,BFS,1.0,231,True,93.0000,93.0,662,0.8067,0.00
maze512-1-1.map,maze512-1-1.map.scen,4,BFS,1.0,232,True,92.0000,92.0,286,0.3906,0.00
maze512-1-1.map,maze512-1-1.map.scen,4,BFS,1.0,233,True,92.0000,92.0,422,0.5494,0.00
maze512-1-1.map,maze512-1-1.map.scen,4,BFS,1.0,234,True,95.0000,95.0,527,0.6535,0.00
maze512-1-1.map,maze512-1-1.map.scen,4,BFS,1.0,235,True,92.0000,92.0,595,0.7536,0.00
maze512-1-1.map,maze512-1-1.map.scen,4,BFS,1.0,236,True,92.0000,92.0,422,0.5412,0.00
maze512-1-1.map,maze512-1-1.map.scen,4,BFS,1.0,237,True,92.0000,92.0,251,0.3419,0.00
maze512-1-1.map,maze512-1-1.map.scen,4,BFS,1.0,238,True,94.0000,94.0,587,0.7258,0.00
maze512-1-1.map,maze512-1-1.map.scen,4,BFS,1.0,239,True,93.0000,93.0,296,0.4085,0.00
maze512-1-1.map,maze512-1-1.map.scen,4,BFS,1.0,240,True,97.0000,97.0,455,0.5227,0.00
maze512-1-1.map,maze512-1-1.map.scen,4,BFS,1.0,241,True,99.0000,99.0,521,0.6127,0.00
maze512-1-1.map,maze512-1-1.map.scen,4,BFS,1.0,242,True,97.0000,97.0,286,0.3865,0.00
maze512-1-1.map,maze512-1-1.map.scen,4,BFS,1.0,243,True,99.0000,99.0,322,0.3958,0.00
maze512-1-1.map,maze512-1-1.map.scen,4,BFS,1.0,244,True,97.0000,97.0,406,0.4866,0.00
maze512-1-1.map,maze512-1-1.map.scen,4,BFS,1.0,245,True,98.0000,98.0,258,0.3322,0.00
maze512-1-1.map,maze512-1-1.map.scen,4,BFS,1.0,246,True,96.0000,96.0,254,0.3231,0.00
maze512-1-1.map,maze512-1-1.map.scen,4,BFS,1.0,247,True,99.0000,99.0,203,0.2488,0.00
maze512-1-1.map,maze512-1-1.map.scen,4,BFS,1.0,248,True,98.0000,98.0,256,0.3590,0.00
maze512-1-1.map,maze512-1-1.map.scen,4,BFS,1.0,249,True,98.0000,98.0,239,0.3299,0.00
maze512-1-1.map,maze512-1-1.map.scen,4,BFS,1.0,250,True,102.0000,102.0,360,0.4763,0.00
maze512-1-1.map,maze512-1-1.map.scen,4,BFS,1.0,251,True,102.0000,102.0,664,0.8074,0.00
maze512-1-1.map,maze512-1-1.map.scen,4,BFS,1.0,252,True,101.0000,101.0,205,0.2687,0.00
maze512-1-1.map,maze512-1-1.map.scen,4,BFS,1.0,253,True,101.0000,101.0,335,0.4428,0.00
maze512-1-1.map,maze512-1-1.map.scen,4,BFS,1.0,254,True,101.0000,101.0,388,0.4816,0.00
maze512-1-1.map,maze512-1-1.map.scen,4,BFS,1.0,255,True,102.0000,102.0,247,0.3874,0.00
maze512-1-1.map,maze512-1-1.map.scen,4,BFS,1.0,256,True,103.0000,103.0,389,0.4859,0.00
maze512-1-1.map,maze512-1-1.map.scen,4,BFS,1.0,257,True,103.0000,103.0,445,0.5651,0.00
maze512-1-1.map,maze512-1-1.map.scen,4,BFS,1.0,258,True,100.0000,100.0,284,0.3493,0.00
maze512-1-1.map,maze512-1-1.map.scen,4,BFS,1.0,259,True,101.0000,101.0,356,0.4600,0.00
maze512-1-1.map,maze512-1-1.map.scen,4,BFS,1.0,260,True,107.0000,107.0,455,0.6791,0.00
maze512-1-1.map,maze512-1-1.map.scen,4,BFS,1.0,261,True,106.0000,106.0,431,0.5378,0.00
maze512-1-1.map,maze512-1-1.map.scen,4,BFS,1.0,262,True,107.0000,107.0,303,0.4141,0.00
maze512-1-1.map,maze512-1-1.map.scen,4,BFS,1.0,263,True,104.0000,104.0,347,0.4119,0.00
maze512-1-1.map,maze512-1-1.map.scen,4,BFS,1.0,264,True,107.0000,107.0,553,0.6824,0.00
maze512-1-1.map,maze512-1-1.map.scen,4,BFS,1.0,265,True,106.0000,106.0,285,0.3979,0.00
maze512-1-1.map,maze512-1-1.map.scen,4,BFS,1.0,266,True,105.0000,105.0,333,0.3910,0.00
maze512-1-1.map,maze512-1-1.map.scen,4,BFS,1.0,267,True,104.0000,104.0,552,0.6871,0.00
maze512-1-1.map,maze512-1-1.map.scen,4,BFS,1.0,268,True,105.0000,105.0,469,0.5810,0.00
maze512-1-1.map,maze512-1-1.map.scen,4,BFS,1.0,269,True,104.0000,104.0,421,0.5318,0.00
maze512-1-1.map,maze512-1-1.map.scen,4,BFS,1.0,270,True,110.0000,110.0,341,0.4402,0.00
maze512-1-1.map,maze512-1-1.map.scen,4,BFS,1.0,271,True,111.0000,111.0,316,0.4156,0.00
maze512-1-1.map,maze512-1-1.map.scen,4,BFS,1.0,272,True,111.0000,111.0,324,0.4274,0.00
maze512-1-1.map,maze512-1-1.map.scen,4,BFS,1.0,273,True,108.0000,108.0,218,0.2790,0.00
maze512-1-1.map,maze512-1-1.map.scen,4,BFS,1.0,274,True,111.0000,111.0,318,0.4215,0.00
maze512-1-1.map,maze512-1-1.map.scen,4,BFS,1.0,275,True,110.0000,110.0,673,0.8063,0.00
maze512-1-1.map,maze512-1-1.map.scen,4,BFS,1.0,276,True,109.0000,109.0,214,0.2937,0.00
maze512-1-1.map,maze512-1-1.map.scen,4,BFS,1.0,277,True,108.0000,108.0,376,0.4685,0.00
maze512-1-1.map,maze512-1-1.map.scen,4,BFS,1.0,278,True,110.0000,110.0,348,0.4594,0.00
maze512-1-1.map,maze512-1-1.map.scen,4,BFS,1.0,279,True,109.0000,109.0,460,0.5303,0.00
maze512-1-1.map,maze512-1-1.map.scen,4,BFS,1.0,280,True,115.0000,115.0,619,0.7551,0.00
maze512-1-1.map,maze512-1-1.map.scen,4,BFS,1.0,281,True,115.0000,115.0,419,0.5614,0.00
maze512-1-1.map,maze512-1-1.map.scen,4,BFS,1.0,282,True,115.0000,115.0,895,1.0243,0.00
maze512-1-1.map,maze512-1-1.map.scen,4,BFS,1.0,283,True,112.0000,112.0,485,0.6091,0.00
maze512-1-1.map,maze512-1-1.map.scen,4,BFS,1.0,284,True,114.0000,114.0,288,0.4211,0.00
maze512-1-1.map,maze512-1-1.map.scen,4,BFS,1.0,285,True,112.0000,112.0,259,0.3483,0.00
maze512-1-1.map,maze512-1-1.map.scen,4,BFS,1.0,286,True,113.0000,113.0,398,0.4834,0.00
maze512-1-1.map,maze512-1-1.map.scen,4,BFS,1.0,287,True,114.0000,114.0,521,0.6158,0.00
maze512-1-1.map,maze512-1-1.map.scen,4,BFS,1.0,288,True,115.0000,115.0,500,0.5709,0.00
maze512-1-1.map,maze512-1-1.map.scen,4,BFS,1.0,289,True,112.0000,112.0,376,0.4842,0.00
maze512-1-1.map,maze512-1-1.map.scen,4,BFS,1.0,290,True,118.0000,118.0,369,0.4620,0.00
maze512-1-1.map,maze512-1-1.map.scen,4,BFS,1.0,291,True,117.0000,117.0,466,0.5314,0.00
maze512-1-1.map,maze512-1-1.map.scen,4,BFS,1.0,292,True,116.0000,116.0,430,0.5174,0.00
maze512-1-1.map,maze512-1-1.map.scen,4,BFS,1.0,293,True,117.0000,117.0,544,0.7187,0.00
maze512-1-1.map,maze512-1-1.map.scen,4,BFS,1.0,294,True,118.0000,118.0,481,0.5620,0.00
maze512-1-1.map,maze512-1-1.map.scen,4,BFS,1.0,295,True,116.0000,116.0,398,0.5048,0.00
maze512-1-1.map,maze512-1-1.map.scen,4,BFS,1.0,296,True,117.0000,117.0,511,0.6138,0.00
maze512-1-1.map,maze512-1-1.map.scen,4,BFS,1.0,297,True,116.0000,116.0,630,0.7610,0.00
maze512-1-1.map,maze512-1-1.map.scen,4,BFS,1.0,298,True,119.0000,119.0,648,0.7865,0.00
maze512-1-1.map,maze512-1-1.map.scen,4,BFS,1.0,299,True,116.0000,116.0,315,0.4213,0.00
maze512-1-1.map,maze512-1-1.map.scen,4,BFS,1.0,300,True,123.0000,123.0,454,0.5245,0.00
maze512-1-1.map,maze512-1-1.map.scen,4,BFS,1.0,301,True,121.0000,121.0,413,0.5128,0.00
maze512-1-1.map,maze512-1-1.map.scen,4,BFS,1.0,302,True,122.0000,122.0,345,0.4277,0.00
maze512-1-1.map,maze512-1-1.map.scen,4,BFS,1.0,303,True,123.0000,123.0,942,1.0816,0.00
maze512-1-1.map,maze512-1-1.map.scen,4,BFS,1.0,304,True,120.0000,120.0,496,0.6096,0.00
maze512-1-1.map,maze512-1-1.map.scen,4,BFS,1.0,305,True,122.0000,122.0,615,0.7757,0.00
maze512-1-1.map,maze512-1-1.map.scen,4,BFS,1.0,306,True,120.0000,120.0,317,0.4160,0.00
maze512-1-1.map,maze512-1-1.map.scen,4,BFS,1.0,307,True,121.0000,121.0,319,0.4036,0.00
maze512-1-1.map,maze512-1-1.map.scen,4,BFS,1.0,308,True,123.0000,123.0,407,0.4944,0.00
maze512-1-1.map,maze512-1-1.map.scen,4,BFS,1.0,309,True,122.0000,122.0,396,0.4699,0.00
maze512-1-1.map,maze512-1-1.map.scen,4,BFS,1.0,310,True,124.0000,124.0,880,1.0488,0.00
maze512-1-1.map,maze512-1-1.map.scen,4,BFS,1.0,311,True,127.0000,127.0,232,0.3070,0.00
maze512-1-1.map,maze512-1-1.map.scen,4,BFS,1.0,312,True,127.0000,127.0,318,0.4130,0.00
maze512-1-1.map,maze512-1-1.map.scen,4,BFS,1.0,313,True,124.0000,124.0,575,0.7725,0.00
maze512-1-1.map,maze512-1-1.map.scen,4,BFS,1.0,314,True,124.0000,124.0,278,0.4327,0.00
maze512-1-1.map,maze512-1-1.map.scen,4,BFS,1.0,315,True,125.0000,125.0,411,0.5165,0.00
maze512-1-1.map,maze512-1-1.map.scen,4,BFS,1.0,316,True,126.0000,126.0,412,0.4943,0.00
maze512-1-1.map,maze512-1-1.map.scen,4,BFS,1.0,317,True,124.0000,124.0,391,0.5039,0.00
maze512-1-1.map,maze512-1-1.map.scen,4,BFS,1.0,318,True,124.0000,124.0,398,0.4774,0.00
maze512-1-1.map,maze512-1-1.map.scen,4,BFS,1.0,319,True,125.0000,125.0,782,0.8953,0.00
maze512-1-1.map,maze512-1-1.map.scen,4,BFS,1.0,320,True,129.0000,129.0,863,1.0803,0.00
maze512-1-1.map,maze512-1-1.map.scen,4,BFS,1.0,321,True,128.0000,128.0,368,0.4702,0.00
maze512-1-1.map,maze512-1-1.map.scen,4,BFS,1.0,322,True,130.0000,130.0,366,0.4691,0.00
maze512-1-1.map,maze512-1-1.map.scen,4,BFS,1.0,323,True,131.0000,131.0,410,0.5795,0.00
maze512-1-1.map,maze512-1-1.map.scen,4,BFS,1.0,324,True,129.0000,129.0,416,0.5308,0.00
maze512-1-1.map,maze512-1-1.map.scen,4,BFS,1.0,325,True,130.0000,130.0,569,0.7065,0.00
maze512-1-1.map,maze512-1-1.map.scen,4,BFS,1.0,326,True,130.0000,130.0,311,0.4150,0.00
maze512-1-1.map,maze512-1-1.map.scen,4,BFS,1.0,327,True,130.0000,130.0,774,0.9041,0.00
maze512-1-1.map,maze512-1-1.map.scen,4,BFS,1.0,328,True,128.0000,128.0,455,0.5440,0.00
maze512-1-1.map,maze512-1-1.map.scen,4,BFS,1.0,329,True,130.0000,130.0,702,0.8205,0.00
maze512-1-1.map,maze512-1-1.map.scen,4,BFS,1.0,330,True,133.0000,133.0,414,0.5109,0.00
maze512-1-1.map,maze512-1-1.map.scen,4,BFS,1.0,331,True,135.0000,135.0,422,0.4922,0.00
maze512-1-1.map,maze512-1-1.map.scen,4,BFS,1.0,332,True,132.0000,132.0,603,0.7014,0.00
maze512-1-1.map,maze512-1-1.map.scen,4,BFS,1.0,333,True,133.0000,133.0,878,0.9960,0.00
maze512-1-1.map,maze512-1-1.map.scen,4,BFS,1.0,334,True,135.0000,135.0,566,0.6690,0.00
maze512-1-1.map,maze512-1-1.map.scen,4,BFS,1.0,335,True,133.0000,133.0,466,0.5827,0.00
maze512-1-1.map,maze512-1-1.map.scen,4,BFS,1.0,336,True,135.0000,135.0,543,0.6923,0.00
maze512-1-1.map,maze512-1-1.map.scen,4,BFS,1.0,337,True,133.0000,133.0,573,0.7149,0.00
maze512-1-1.map,maze512-1-1.map.scen,4,BFS,1.0,338,True,133.0000,133.0,328,0.4456,0.00
maze512-1-1.map,maze512-1-1.map.scen,4,BFS,1.0,339,True,132.0000,132.0,596,0.7159,0.00
maze512-1-1.map,maze512-1-1.map.scen,4,BFS,1.0,340,True,137.0000,137.0,1021,1.2443,0.00
maze512-1-1.map,maze512-1-1.map.scen,4,BFS,1.0,341,True,138.0000,138.0,1213,1.4963,0.00
maze512-1-1.map,maze512-1-1.map.scen,4,BFS,1.0,342,True,136.0000,136.0,653,0.8021,0.00
maze512-1-1.map,maze512-1-1.map.scen,4,BFS,1.0,343,True,136.0000,136.0,616,0.7586,0.00
maze512-1-1.map,maze512-1-1.map.scen,4,BFS,1.0,344,True,138.0000,138.0,644,0.8190,0.00
maze512-1-1.map,maze512-1-1.map.scen,4,BFS,1.0,345,True,138.0000,138.0,297,0.4031,0.00
maze512-1-1.map,maze512-1-1.map.scen,4,BFS,1.0,346,True,137.0000,137.0,1115,1.3654,0.00
maze512-1-1.map,maze512-1-1.map.scen,4,BFS,1.0,347,True,139.0000,139.0,756,0.9085,0.00
maze512-1-1.map,maze512-1-1.map.scen,4,BFS,1.0,348,True,136.0000,136.0,687,0.8276,0.00
maze512-1-1.map,maze512-1-1.map.scen,4,BFS,1.0,349,True,136.0000,136.0,554,0.6971,0.00
maze512-1-1.map,maze512-1-1.map.scen,4,BFS,1.0,350,True,142.0000,142.0,529,0.6150,0.00
maze512-1-1.map,maze512-1-1.map.scen,4,BFS,1.0,351,True,141.0000,141.0,459,0.5336,0.00
maze512-1-1.map,maze512-1-1.map.scen,4,BFS,1.0,352,True,141.0000,141.0,671,0.8480,0.00
maze512-1-1.map,maze512-1-1.map.scen,4,BFS,1.0,353,True,141.0000,141.0,529,0.6637,0.00
maze512-1-1.map,maze512-1-1.map.scen,4,BFS,1.0,354,True,143.0000,143.0,520,0.5920,0.00
maze512-1-1.map,maze512-1-1.map.scen,4,BFS,1.0,355,True,142.0000,142.0,1189,1.4150,0.00
maze512-1-1.map,maze512-1-1.map.scen,4,BFS,1.0,356,True,140.0000,140.0,1094,1.2567,0.00
maze512-1-1.map,maze512-1-1.map.scen,4,BFS,1.0,357,True,140.0000,140.0,563,0.7024,0.00
maze512-1-1.map,maze512-1-1.map.scen,4,BFS,1.0,358,True,143.0000,143.0,442,0.5424,0.00
maze512-1-1.map,maze512-1-1.map.scen,4,BFS,1.0,359,True,142.0000,142.0,794,0.9184,0.00
maze512-1-1.map,maze512-1-1.map.scen,4,BFS,1.0,360,True,146.0000,146.0,1176,1.4038,0.00
maze512-1-1.map,maze512-1-1.map.scen,4,BFS,1.0,361,True,144.0000,144.0,1217,1.4584,0.00
maze512-1-1.map,maze512-1-1.map.scen,4,BFS,1.0,362,True,146.0000,146.0,639,0.7924,0.00
maze512-1-1.map,maze512-1-1.map.scen,4,BFS,1.0,363,True,145.0000,145.0,331,0.4093,0.00
maze512-1-1.map,maze512-1-1.map.scen,4,BFS,1.0,364,True,147.0000,147.0,424,0.5055,0.00
maze512-1-1.map,maze512-1-1.map.scen,4,BFS,1.0,365,True,145.0000,145.0,669,0.7899,0.00
maze512-1-1.map,maze512-1-1.map.scen,4,BFS,1.0,366,True,144.0000,144.0,442,0.5362,0.00
maze512-1-1.map,maze512-1-1.map.scen,4,BFS,1.0,367,True,146.0000,146.0,502,0.6022,0.00
maze512-1-1.map,maze512-1-1.map.scen,4,BFS,1.0,368,True,146.0000,146.0,743,0.8640,0.00
maze512-1-1.map,maze512-1-1.map.scen,4,BFS,1.0,369,True,147.0000,147.0,604,0.7281,0.00
maze512-1-1.map,maze512-1-1.map.scen,4,BFS,1.0,370,True,150.0000,150.0,710,0.8454,0.00
maze512-1-1.map,maze512-1-1.map.scen,4,BFS,1.0,371,True,150.0000,150.0,529,0.6295,0.00
maze512-1-1.map,maze512-1-1.map.scen,4,BFS,1.0,372,True,150.0000,150.0,516,0.6641,0.00
maze512-1-1.map,maze512-1-1.map.scen,4,BFS,1.0,373,True,149.0000,149.0,344,0.4626,0.00
maze512-1-1.map,maze512-1-1.map.scen,4,BFS,1.0,374,True,149.0000,149.0,433,0.5590,0.00
maze512-1-1.map,maze512-1-1.map.scen,4,BFS,1.0,375,True,150.0000,150.0,598,0.7272,0.00
maze512-1-1.map,maze512-1-1.map.scen,4,BFS,1.0,376,True,150.0000,150.0,746,0.9251,0.00
maze512-1-1.map,maze512-1-1.map.scen,4,BFS,1.0,377,True,148.0000,148.0,574,0.7327,0.00
maze512-1-1.map,maze512-1-1.map.scen,4,BFS,1.0,378,True,148.0000,148.0,801,0.9471,0.00
maze512-1-1.map,maze512-1-1.map.scen,4,BFS,1.0,379,True,148.0000,148.0,839,0.9513,0.00
maze512-1-1.map,maze512-1-1.map.scen,4,BFS,1.0,380,True,152.0000,152.0,615,0.7688,0.00
maze512-1-1.map,maze512-1-1.map.scen,4,BFS,1.0,381,True,152.0000,152.0,1100,1.2219,0.00
maze512-1-1.map,maze512-1-1.map.scen,4,BFS,1.0,382,True,154.0000,154.0,850,0.9851,0.00
maze512-1-1.map,maze512-1-1.map.scen,4,BFS,1.0,383,True,152.0000,152.0,921,1.0547,0.00
maze512-1-1.map,maze512-1-1.map.scen,4,BFS,1.0,384,True,152.0000,152.0,530,0.6232,0.00
maze512-1-1.map,maze512-1-1.map.scen,4,BFS,1.0,385,True,152.0000,152.0,463,0.5436,0.00
maze512-1-1.map,maze512-1-1.map.scen,4,BFS,1.0,386,True,153.0000,153.0,488,0.5776,0.00
maze512-1-1.map,maze512-1-1.map.scen,4,BFS,1.0,387,True,152.0000,152.0,665,0.7542,0.00
maze512-1-1.map,maze512-1-1.map.scen,4,BFS,1.0,388,True,155.0000,155.0,1175,1.3618,0.00
maze512-1-1.map,maze512-1-1.map.scen,4,BFS,1.0,389,True,154.0000,154.0,863,1.0584,0.00
maze512-1-1.map,maze512-1-1.map.scen,4,BFS,1.0,390,True,158.0000,158.0,399,0.5073,0.00
maze512-1-1.map,maze512-1-1.map.scen,4,BFS,1.0,391,True,158.0000,158.0,510,0.6029,0.00
maze512-1-1.map,maze512-1-1.map.scen,4,BFS,1.0,392,True,159.0000,159.0,389,0.4911,0.00
maze512-1-1.map,maze512-1-1.map.scen,4,BFS,1.0,393,True,156.0000,156.0,843,0.9524,0.00
maze512-1-1.map,maze512-1-1.map.scen,4,BFS,1.0,394,True,159.0000,159.0,755,0.9116,0.00
maze512-1-1.map,maze512-1-1.map.scen,4,BFS,1.0,395,True,158.0000,158.0,880,0.9960,0.00
maze512-1-1.map,maze512-1-1.map.scen,4,BFS,1.0,396,True,156.0000,156.0,677,0.8371,0.00
maze512-1-1.map,maze512-1-1.map.scen,4,BFS,1.0,397,True,156.0000,156.0,846,1.0024,0.00
maze512-1-1.map,maze512-1-1.map.scen,4,BFS,1.0,398,True,159.0000,159.0,542,0.7176,0.00
maze512-1-1.map,maze512-1-1.map.scen,4,BFS,1.0,399,True,159.0000,159.0,735,0.8661,0.00
maze512-1-1.map,maze512-1-1.map.scen,4,BFS,1.0,400,True,163.0000,163.0,642,0.7942,0.00
maze512-1-1.map,maze512-1-1.map.scen,4,BFS,1.0,401,True,163.0000,163.0,1082,1.3074,0.00
maze512-1-1.map,maze512-1-1.map.scen,4,BFS,1.0,402,True,160.0000,160.0,1577,1.7559,0.00
maze512-1-1.map,maze512-1-1.map.scen,4,BFS,1.0,403,True,161.0000,161.0,1583,1.7914,0.00
maze512-1-1.map,maze512-1-1.map.scen,4,BFS,1.0,404,True,163.0000,163.0,395,0.4920,0.00
maze512-1-1.map,maze512-1-1.map.scen,4,BFS,1.0,405,True,162.0000,162.0,891,1.0356,0.00
maze512-1-1.map,maze512-1-1.map.scen,4,BFS,1.0,406,True,161.0000,161.0,903,1.0479,0.00
maze512-1-1.map,maze512-1-1.map.scen,4,BFS,1.0,407,True,160.0000,160.0,355,0.4588,0.00
maze512-1-1.map,maze512-1-1.map.scen,4,BFS,1.0,408,True,162.0000,162.0,962,1.0986,0.00
maze512-1-1.map,maze512-1-1.map.scen,4,BFS,1.0,409,True,163.0000,163.0,603,0.7066,0.00
maze512-1-1.map,maze512-1-1.map.scen,4,BFS,1.0,410,True,166.0000,166.0,1412,1.6021,0.00
maze512-1-1.map,maze512-1-1.map.scen,4,BFS,1.0,411,True,166.0000,166.0,925,1.1274,0.00
maze512-1-1.map,maze512-1-1.map.scen,4,BFS,1.0,412,True,164.0000,164.0,1102,1.2925,0.00
maze512-1-1.map,maze512-1-1.map.scen,4,BFS,1.0,413,True,164.0000,164.0,1157,1.3743,0.00
maze512-1-1.map,maze512-1-1.map.scen,4,BFS,1.0,414,True,167.0000,167.0,725,0.9275,0.00
maze512-1-1.map,maze512-1-1.map.scen,4,BFS,1.0,415,True,165.0000,165.0,986,1.1102,0.00
maze512-1-1.map,maze512-1-1.map.scen,4,BFS,1.0,416,True,164.0000,164.0,1169,1.4019,0.00
maze512-1-1.map,maze512-1-1.map.scen,4,BFS,1.0,417,True,164.0000,164.0,899,1.0654,0.00
maze512-1-1.map,maze512-1-1.map.scen,4,BFS,1.0,418,True,164.0000,164.0,774,0.9176,0.00
maze512-1-1.map,maze512-1-1.map.scen,4,BFS,1.0,419,True,167.0000,167.0,791,0.9017,0.00
maze512-1-1.map,maze512-1-1.map.scen,4,BFS,1.0,420,True,170.0000,170.0,469,0.5573,0.00
maze512-1-1.map,maze512-1-1.map.scen,4,BFS,1.0,421,True,168.0000,168.0,786,0.9102,0.00
maze512-1-1.map,maze512-1-1.map.scen,4,BFS,1.0,422,True,169.0000,169.0,798,0.9935,0.00
maze512-1-1.map,maze512-1-1.map.scen,4,BFS,1.0,423,True,168.0000,168.0,485,0.5894,0.00
maze512-1-1.map,maze512-1-1.map.scen,4,BFS,1.0,424,True,171.0000,171.0,426,0.5250,0.00
maze512-1-1.map,maze512-1-1.map.scen,4,BFS,1.0,425,True,170.0000,170.0,900,1.1276,0.00
maze512-1-1.map,maze512-1-1.map.scen,4,BFS,1.0,426,True,170.0000,170.0,618,0.7956,0.00
maze512-1-1.map,maze512-1-1.map.scen,4,BFS,1.0,427,True,171.0000,171.0,758,0.8905,0.00
maze512-1-1.map,maze512-1-1.map.scen,4,BFS,1.0,428,True,170.0000,170.0,692,0.8657,0.00
maze512-1-1.map,maze512-1-1.map.scen,4,BFS,1.0,429,True,168.0000,168.0,997,1.1430,0.00
maze512-1-1.map,maze512-1-1.map.scen,4,BFS,1.0,430,True,175.0000,175.0,689,0.8567,0.00
maze512-1-1.map,maze512-1-1.map.scen,4,BFS,1.0,431,True,175.0000,175.0,1562,1.7986,0.00
maze512-1-1.map,maze512-1-1.map.scen,4,BFS,1.0,432,True,174.0000,174.0,752,0.9318,0.00
maze512-1-1.map,maze512-1-1.map.scen,4,BFS,1.0,433,True,175.0000,175.0,618,0.7779,0.00
maze512-1-1.map,maze512-1-1.map.scen,4,BFS,1.0,434,True,175.0000,175.0,1253,1.4424,0.00
maze512-1-1.map,maze512-1-1.map.scen,4,BFS,1.0,435,True,174.0000,174.0,1431,1.6850,0.00
maze512-1-1.map,maze512-1-1.map.scen,4,BFS,1.0,436,True,175.0000,175.0,695,0.8593,0.00
maze512-1-1.map,maze512-1-1.map.scen,4,BFS,1.0,437,True,174.0000,174.0,675,0.8090,0.00
maze512-1-1.map,maze512-1-1.map.scen,4,BFS,1.0,438,True,173.0000,173.0,1319,1.5319,0.00
maze512-1-1.map,maze512-1-1.map.scen,4,BFS,1.0,439,True,172.0000,172.0,706,0.8560,0.00
maze512-1-1.map,maze512-1-1.map.scen,4,BFS,1.0,440,True,177.0000,177.0,749,0.8813,0.00
maze512-1-1.map,maze512-1-1.map.scen,4,BFS,1.0,441,True,177.0000,177.0,1477,1.6809,0.00
maze512-1-1.map,maze512-1-1.map.scen,4,BFS,1.0,442,True,178.0000,178.0,518,0.6484,0.00
maze512-1-1.map,maze512-1-1.map.scen,4,BFS,1.0,443,True,179.0000,179.0,442,0.5435,0.00
maze512-1-1.map,maze512-1-1.map.scen,4,BFS,1.0,444,True,179.0000,179.0,672,0.8212,0.00
maze512-1-1.map,maze512-1-1.map.scen,4,BFS,1.0,445,True,177.0000,177.0,714,0.9125,0.00
maze512-1-1.map,maze512-1-1.map.scen,4,BFS,1.0,446,True,176.0000,176.0,1154,1.3610,0.00
maze512-1-1.map,maze512-1-1.map.scen,4,BFS,1.0,447,True,178.0000,178.0,876,1.0353,0.00
maze512-1-1.map,maze512-1-1.map.scen,4,BFS,1.0,448,True,178.0000,178.0,698,0.8875,0.00
maze512-1-1.map,maze512-1-1.map.scen,4,BFS,1.0,449,True,178.0000,178.0,1135,1.3593,0.00
maze512-1-1.map,maze512-1-1.map.scen,4,BFS,1.0,450,True,180.0000,180.0,1258,1.4498,0.00
maze512-1-1.map,maze512-1-1.map.scen,4,BFS,1.0,451,True,182.0000,182.0,1323,1.4851,0.00
maze512-1-1.map,maze512-1-1.map.scen,4,BFS,1.0,452,True,183.0000,183.0,1127,2.2367,0.00
maze512-1-1.map,maze512-1-1.map.scen,4,BFS,1.0,453,True,181.0000,181.0,1088,1.4121,0.00
maze512-1-1.map,maze512-1-1.map.scen,4,BFS,1.0,454,True,180.0000,180.0,327,0.4416,0.00
maze512-1-1.map,maze512-1-1.map.scen,4,BFS,1.0,455,True,182.0000,182.0,374,0.4799,0.00
maze512-1-1.map,maze512-1-1.map.scen,4,BFS,1.0,456,True,181.0000,181.0,679,0.8198,0.00
maze512-1-1.map,maze512-1-1.map.scen,4,BFS,1.0,457,True,183.0000,183.0,968,1.1299,0.00
maze512-1-1.map,maze512-1-1.map.scen,4,BFS,1.0,458,True,181.0000,181.0,599,0.8206,0.00
maze512-1-1.map,maze512-1-1.map.scen,4,BFS,1.0,459,True,182.0000,182.0,902,1.1062,0.00
maze512-1-1.map,maze512-1-1.map.scen,4,BFS,1.0,460,True,186.0000,186.0,962,1.1663,0.00
maze512-1-1.map,maze512-1-1.map.scen,4,BFS,1.0,461,True,185.0000,185.0,813,1.0551,0.00
maze512-1-1.map,maze512-1-1.map.scen,4,BFS,1.0,462,True,184.0000,184.0,994,1.1515,0.00
maze512-1-1.map,maze512-1-1.map.scen,4,BFS,1.0,463,True,185.0000,185.0,383,0.5231,0.00
maze512-1-1.map,maze512-1-1.map.scen,4,BFS,1.0,464,True,186.0000,186.0,887,1.0197,0.00
maze512-1-1.map,maze512-1-1.map.scen,4,BFS,1.0,465,True,185.0000,185.0,1292,1.6662,0.00
maze512-1-1.map,maze512-1-1.map.scen,4,BFS,1.0,466,True,184.0000,184.0,1659,3.2312,0.00
maze512-1-1.map,maze512-1-1.map.scen,4,BFS,1.0,467,True,187.0000,187.0,1096,1.4355,0.00
maze512-1-1.map,maze512-1-1.map.scen,4,BFS,1.0,468,True,185.0000,185.0,569,0.7480,0.00
maze512-1-1.map,maze512-1-1.map.scen,4,BFS,1.0,469,True,185.0000,185.0,630,0.7850,0.00
maze512-1-1.map,maze512-1-1.map.scen,4,BFS,1.0,470,True,189.0000,189.0,1838,2.0982,0.00
maze512-1-1.map,maze512-1-1.map.scen,4,BFS,1.0,471,True,189.0000,189.0,1045,1.2464,0.00
maze512-1-1.map,maze512-1-1.map.scen,4,BFS,1.0,472,True,190.0000,190.0,846,1.0677,0.00
maze512-1-1.map,maze512-1-1.map.scen,4,BFS,1.0,473,True,190.0000,190.0,3197,3.5911,0.00
maze512-1-1.map,maze512-1-1.map.scen,4,BFS,1.0,474,True,188.0000,188.0,564,0.7915,0.00
maze512-1-1.map,maze512-1-1.map.scen,4,BFS,1.0,475,True,191.0000,191.0,942,1.1789,0.00
maze512-1-1.map,maze512-1-1.map.scen,4,BFS,1.0,476,True,190.0000,190.0,1128,1.3493,0.00
maze512-1-1.map,maze512-1-1.map.scen,4,BFS,1.0,477,True,191.0000,191.0,1352,1.7093,0.00
maze512-1-1.map,maze512-1-1.map.scen,4,BFS,1.0,478,True,190.0000,190.0,815,1.2676,0.00
maze512-1-1.map,maze512-1-1.map.scen,4,BFS,1.0,479,True,188.0000,188.0,1841,2.1088,0.00
maze512-1-1.map,maze512-1-1.map.scen,4,BFS,1.0,480,True,195.0000,195.0,768,0.9706,0.00
maze512-1-1.map,maze512-1-1.map.scen,4,BFS,1.0,481,True,194.0000,194.0,1001,1.2372,0.00
maze512-1-1.map,maze512-1-1.map.scen,4,BFS,1.0,482,True,193.0000,193.0,609,0.8234,0.00
maze512-1-1.map,maze512-1-1.map.scen,4,BFS,1.0,483,True,193.0000,193.0,855,1.0083,0.00
maze512-1-1.map,maze512-1-1.map.scen,4,BFS,1.0,484,True,192.0000,192.0,580,0.7316,0.00
maze512-1-1.map,maze512-1-1.map.scen,4,BFS,1.0,485,True,192.0000,192.0,594,0.7763,0.00
maze512-1-1.map,maze512-1-1.map.scen,4,BFS,1.0,486,True,192.0000,192.0,821,1.0116,0.00
maze512-1-1.map,maze512-1-1.map.scen,4,BFS,1.0,487,True,192.0000,192.0,1341,1.6210,0.00
maze512-1-1.map,maze512-1-1.map.scen,4,BFS,1.0,488,True,192.0000,192.0,868,1.0315,0.00
maze512-1-1.map,maze512-1-1.map.scen,4,BFS,1.0,489,True,192.0000,192.0,1223,1.5193,0.00
maze512-1-1.map,maze512-1-1.map.scen,4,BFS,1.0,490,True,198.0000,198.0,1944,2.2028,0.00
maze512-1-1.map,maze512-1-1.map.scen,4,BFS,1.0,491,True,198.0000,198.0,1591,1.8827,0.00
maze512-1-1.map,maze512-1-1.map.scen,4,BFS,1.0,492,True,199.0000,199.0,1106,1.3605,0.00
maze512-1-1.map,maze512-1-1.map.scen,4,BFS,1.0,493,True,199.0000,199.0,837,0.9891,0.00
maze512-1-1.map,maze512-1-1.map.scen,4,BFS,1.0,494,True,199.0000,199.0,1447,1.6628,0.00
maze512-1-1.map,maze512-1-1.map.scen,4,BFS,1.0,495,True,197.0000,197.0,727,0.9071,0.00
maze512-1-1.map,maze512-1-1.map.scen,4,BFS,1.0,496,True,199.0000,199.0,580,0.6937,0.00
maze512-1-1.map,maze512-1-1.map.scen,4,BFS,1.0,497,True,196.0000,196.0,1885,2.1036,0.00
maze512-1-1.map,maze512-1-1.map.scen,4,BFS,1.0,498,True,198.0000,198.0,598,0.7794,0.00
maze512-1-1.map,maze512-1-1.map.scen,4,BFS,1.0,499,True,197.0000,197.0,782,0.9611,0.00
maze512-1-1.map,maze512-1-1.map.scen,4,BFS,1.0,500,True,202.0000,202.0,816,1.0069,0.00
maze512-1-1.map,maze512-1-1.map.scen,4,BFS,1.0,501,True,202.0000,202.0,1225,1.4993,0.00
maze512-1-1.map,maze512-1-1.map.scen,4,BFS,1.0,502,True,202.0000,202.0,361,0.4848,0.00
maze512-1-1.map,maze512-1-1.map.scen,4,BFS,1.0,503,True,201.0000,201.0,761,0.8992,0.00
maze512-1-1.map,maze512-1-1.map.scen,4,BFS,1.0,504,True,200.0000,200.0,1528,1.7325,0.00
maze512-1-1.map,maze512-1-1.map.scen,4,BFS,1.0,505,True,202.0000,202.0,1877,2.1903,0.00
maze512-1-1.map,maze512-1-1.map.scen,4,BFS,1.0,506,True,200.0000,200.0,652,0.8414,0.00
maze512-1-1.map,maze512-1-1.map.scen,4,BFS,1.0,507,True,202.0000,202.0,580,0.7462,0.00
maze512-1-1.map,maze512-1-1.map.scen,4,BFS,1.0,508,True,203.0000,203.0,900,1.0478,0.00
maze512-1-1.map,maze512-1-1.map.scen,4,BFS,1.0,509,True,203.0000,203.0,2091,2.3363,0.00
maze512-1-1.map,maze512-1-1.map.scen,4,BFS,1.0,510,True,207.0000,207.0,729,0.9210,0.00
maze512-1-1.map,maze512-1-1.map.scen,4,BFS,1.0,511,True,205.0000,205.0,856,1.0299,0.00
maze512-1-1.map,maze512-1-1.map.scen,4,BFS,1.0,512,True,206.0000,206.0,1362,1.5726,0.00
maze512-1-1.map,maze512-1-1.map.scen,4,BFS,1.0,513,True,205.0000,205.0,464,0.5952,0.00
maze512-1-1.map,maze512-1-1.map.scen,4,BFS,1.0,514,True,205.0000,205.0,1607,1.8311,0.00
maze512-1-1.map,maze512-1-1.map.scen,4,BFS,1.0,515,True,206.0000,206.0,526,0.6822,0.00
maze512-1-1.map,maze512-1-1.map.scen,4,BFS,1.0,516,True,204.0000,204.0,1387,1.6682,0.00
maze512-1-1.map,maze512-1-1.map.scen,4,BFS,1.0,517,True,206.0000,206.0,1064,1.2392,0.00
maze512-1-1.map,maze512-1-1.map.scen,4,BFS,1.0,518,True,206.0000,206.0,839,0.9982,0.00
maze512-1-1.map,maze512-1-1.map.scen,4,BFS,1.0,519,True,205.0000,205.0,952,1.0909,0.00
maze512-1-1.map,maze512-1-1.map.scen,4,BFS,1.0,520,True,208.0000,208.0,1381,1.5975,0.00
maze512-1-1.map,maze512-1-1.map.scen,4,BFS,1.0,521,True,211.0000,211.0,1076,1.2831,0.00
maze512-1-1.map,maze512-1-1.map.scen,4,BFS,1.0,522,True,211.0000,211.0,1006,1.2117,0.00
maze512-1-1.map,maze512-1-1.map.scen,4,BFS,1.0,523,True,208.0000,208.0,501,0.6359,0.00
maze512-1-1.map,maze512-1-1.map.scen,4,BFS,1.0,524,True,209.0000,209.0,583,0.7197,0.00
maze512-1-1.map,maze512-1-1.map.scen,4,BFS,1.0,525,True,210.0000,210.0,1450,1.6928,0.00
maze512-1-1.map,maze512-1-1.map.scen,4,BFS,1.0,526,True,211.0000,211.0,947,1.1461,0.00
maze512-1-1.map,maze512-1-1.map.scen,4,BFS,1.0,527,True,209.0000,209.0,833,1.0420,0.00
maze512-1-1.map,maze512-1-1.map.scen,4,BFS,1.0,528,True,208.0000,208.0,1183,1.3929,0.00
maze512-1-1.map,maze512-1-1.map.scen,4,BFS,1.0,529,True,208.0000,208.0,652,0.8306,0.00
maze512-1-1.map,maze512-1-1.map.scen,4,BFS,1.0,530,True,213.0000,213.0,683,0.8551,0.00
maze512-1-1.map,maze512-1-1.map.scen,4,BFS,1.0,531,True,213.0000,213.0,1923,2.2040,0.00
maze512-1-1.map,maze512-1-1.map.scen,4,BFS,1.0,532,True,212.0000,212.0,958,1.1977,0.00
maze512-1-1.map,maze512-1-1.map.scen,4,BFS,1.0,533,True,215.0000,215.0,1270,1.5739,0.00
maze512-1-1.map,maze512-1-1.map.scen,4,BFS,1.0,534,True,215.0000,215.0,925,1.0900,0.00
maze512-1-1.map,maze512-1-1.map.scen,4,BFS,1.0,535,True,213.0000,213.0,890,1.0215,0.00
maze512-1-1.map,maze512-1-1.map.scen,4,BFS,1.0,536,True,213.0000,213.0,803,0.9504,0.00
maze512-1-1.map,maze512-1-1.map.scen,4,BFS,1.0,537,True,212.0000,212.0,921,1.0501,0.00
maze512-1-1.map,maze512-1-1.map.scen,4,BFS,1.0,538,True,214.0000,214.0,673,0.8407,0.00
maze512-1-1.map,maze512-1-1.map.scen,4,BFS,1.0,539,True,215.0000,215.0,913,1.0841,0.00
maze512-1-1.map,maze512-1-1.map.scen,4,BFS,1.0,540,True,219.0000,219.0,441,0.5648,0.00
maze512-1-1.map,maze512-1-1.map.scen,4,BFS,1.0,541,True,217.0000,217.0,916,1.0758,0.00
maze512-1-1.map,maze512-1-1.map.scen,4,BFS,1.0,542,True,216.0000,216.0,697,0.8390,0.00
maze512-1-1.map,maze512-1-1.map.scen,4,BFS,1.0,543,True,216.0000,216.0,1561,1.7629,0.00
maze512-1-1.map,maze512-1-1.map.scen,4,BFS,1.0,544,True,216.0000,216.0,1423,1.6059,0.00
maze512-1-1.map,maze512-1-1.map.scen,4,BFS,1.0,545,True,216.0000,216.0,1718,1.9281,0.00
maze512-1-1.map,maze512-1-1.map.scen,4,BFS,1.0,546,True,218.0000,218.0,962,1.1085,0.00
maze512-1-1.map,maze512-1-1.map.scen,4,BFS,1.0,547,True,217.0000,217.0,944,1.0967,0.00
maze512-1-1.map,maze512-1-1.map.scen,4,BFS,1.0,548,True,218.0000,218.0,1098,1.2473,0.00
maze512-1-1.map,maze512-1-1.map.scen,4,BFS,1.0,549,True,218.0000,218.0,2139,2.3362,0.00
maze512-1-1.map,maze512-1-1.map.scen,4,BFS,1.0,550,True,222.0000,222.0,3681,4.1351,0.00
maze512-1-1.map,maze512-1-1.map.scen,4,BFS,1.0,551,True,223.0000,223.0,1821,1.9960,0.00
maze512-1-1.map,maze512-1-1.map.scen,4,BFS,1.0,552,True,223.0000,223.0,900,1.0167,0.00
maze512-1-1.map,maze512-1-1.map.scen,4,BFS,1.0,553,True,223.0000,223.0,1176,1.3603,0.00
maze512-1-1.map,maze512-1-1.map.scen,4,BFS,1.0,554,True,221.0000,221.0,911,1.0395,0.00
maze512-1-1.map,maze512-1-1.map.scen,4,BFS,1.0,555,True,222.0000,222.0,1154,1.3181,0.00
maze512-1-1.map,maze512-1-1.map.scen,4,BFS,1.0,556,True,220.0000,220.0,862,1.0675,0.00
maze512-1-1.map,maze512-1-1.map.scen,4,BFS,1.0,557,True,221.0000,221.0,1399,1.6192,0.00
maze512-1-1.map,maze512-1-1.map.scen,4,BFS,1.0,558,True,220.0000,220.0,1412,1.6111,0.00
maze512-1-1.map,maze512-1-1.map.scen,4,BFS,1.0,559,True,220.0000,220.0,1855,2.0288,0.00
maze512-1-1.map,maze512-1-1.map.scen,4,BFS,1.0,560,True,226.0000,226.0,1806,1.9932,0.00
maze512-1-1.map,maze512-1-1.map.scen,4,BFS,1.0,561,True,224.0000,224.0,3170,3.4540,0.00
maze512-1-1.map,maze512-1-1.map.scen,4,BFS,1.0,562,True,224.0000,224.0,1534,1.8013,0.00
maze512-1-1.map,maze512-1-1.map.scen,4,BFS,1.0,563,True,224.0000,224.0,2734,2.9677,0.00
maze512-1-1.map,maze512-1-1.map.scen,4,BFS,1.0,564,True,227.0000,227.0,627,0.8014,0.00
maze512-1-1.map,maze512-1-1.map.scen,4,BFS,1.0,565,True,225.0000,225.0,1289,1.4535,0.00
maze512-1-1.map,maze512-1-1.map.scen,4,BFS,1.0,566,True,224.0000,224.0,1748,1.9153,0.00
maze512-1-1.map,maze512-1-1.map.scen,4,BFS,1.0,567,True,224.0000,224.0,1196,1.4099,0.00
maze512-1-1.map,maze512-1-1.map.scen,4,BFS,1.0,568,True,224.0000,224.0,1548,1.8052,0.00
maze512-1-1.map,maze512-1-1.map.scen,4,BFS,1.0,569,True,226.0000,226.0,1504,1.6918,0.00
maze512-1-1.map,maze512-1-1.map.scen,4,BFS,1.0,570,True,228.0000,228.0,955,1.1237,0.00
maze512-1-1.map,maze512-1-1.map.scen,4,BFS,1.0,571,True,231.0000,231.0,1510,1.7341,0.00
maze512-1-1.map,maze512-1-1.map.scen,4,BFS,1.0,572,True,230.0000,230.0,2174,2.4572,0.00
maze512-1-1.map,maze512-1-1.map.scen,4,BFS,1.0,573,True,229.0000,229.0,733,0.9427,0.00
maze512-1-1.map,maze512-1-1.map.scen,4,BFS,1.0,574,True,228.0000,228.0,924,1.1463,0.00
maze512-1-1.map,maze512-1-1.map.scen,4,BFS,1.0,575,True,230.0000,230.0,2008,2.2349,0.00
maze512-1-1.map,maze512-1-1.map.scen,4,BFS,1.0,576,True,229.0000,229.0,1368,1.5380,0.00
maze512-1-1.map,maze512-1-1.map.scen,4,BFS,1.0,577,True,229.0000,229.0,1184,1.4481,0.00
maze512-1-1.map,maze512-1-1.map.scen,4,BFS,1.0,578,True,231.0000,231.0,853,1.0255,0.00
maze512-1-1.map,maze512-1-1.map.scen,4,BFS,1.0,579,True,229.0000,229.0,1631,1.8209,0.00
maze512-1-1.map,maze512-1-1.map.scen,4,BFS,1.0,580,True,234.0000,234.0,1183,1.4255,0.00
maze512-1-1.map,maze512-1-1.map.scen,4,BFS,1.0,581,True,235.0000,235.0,482,0.6319,0.00
maze512-1-1.map,maze512-1-1.map.scen,4,BFS,1.0,582,True,235.0000,235.0,726,0.8401,0.00
maze512-1-1.map,maze512-1-1.map.scen,4,BFS,1.0,583,True,232.0000,232.0,1790,1.9877,0.00
maze512-1-1.map,maze512-1-1.map.scen,4,BFS,1.0,584,True,232.0000,232.0,980,1.1576,0.00
maze512-1-1.map,maze512-1-1.map.scen,4,BFS,1.0,585,True,235.0000,235.0,894,1.1023,0.00
maze512-1-1.map,maze512-1-1.map.scen,4,BFS,1.0,586,True,233.0000,233.0,525,0.6777,0.00
maze512-1-1.map,maze512-1-1.map.scen,4,BFS,1.0,587,True,234.0000,234.0,1850,2.0441,0.00
maze512-1-1.map,maze512-1-1.map.scen,4,BFS,1.0,588,True,235.0000,235.0,1350,1.6091,0.00
maze512-1-1.map,maze512-1-1.map.scen,4,BFS,1.0,589,True,234.0000,234.0,1145,1.6540,0.00
