MapName,Scenario,Connectivity,Algorithm,Weight,TaskID,Success,PathLength,OptimalLength,ExpandedNodes,TimeMS,Suboptimality
maze512-1-0.map,maze512-1-0.map.scen,4,BFS,1.0,0,True,2.0000,2.0,4,0.0110,0.00
maze512-1-0.map,maze512-1-0.map.scen,4,BFS,1.0,24,True,8.0000,8.0,19,0.0194,0.00
maze512-1-0.map,maze512-1-0.map.scen,4,BFS,1.0,48,True,19.0000,19.0,53,0.0482,0.00
maze512-1-0.map,maze512-1-0.map.scen,4,BFS,1.0,72,True,31.0000,31.0,109,0.0904,0.00
maze512-1-0.map,maze512-1-0.map.scen,4,BFS,1.0,96,True,37.0000,37.0,117,0.0960,0.00
maze512-1-0.map,maze512-1-0.map.scen,4,BFS,1.0,121,True,48.0000,48.0,277,0.2598,0.00
maze512-1-0.map,maze512-1-0.map.scen,4,BFS,1.0,145,True,58.0000,58.0,246,0.2426,0.00
maze512-1-0.map,maze512-1-0.map.scen,4,BFS,1.0,169,True,66.0000,66.0,199,0.1815,0.00
maze512-1-0.map,maze512-1-0.map.scen,4,BFS,1.0,193,True,79.0000,79.0,276,0.2429,0.00
maze512-1-0.map,maze512-1-0.map.scen,4,BFS,1.0,218,True,85.0000,85.0,226,0.1857,0.00
maze512-1-0.map,maze512-1-0.map.scen,4,BFS,1.0,242,True,99.0000,99.0,352,0.3341,0.00
maze512-1-0.map,maze512-1-0.map.scen,4,BFS,1.0,266,True,107.0000,107.0,520,0.4127,0.00
maze512-1-0.map,maze512-1-0.map.scen,4,BFS,1.0,290,True,117.0000,117.0,981,0.7685,0.00
maze512-1-0.map,maze512-1-0.map.scen,4,BFS,1.0,315,True,125.0000,125.0,459,0.4587,0.00
maze512-1-0.map,maze512-1-0.map.scen,4,BFS,1.0,339,True,134.0000,134.0,641,0.5408,0.00
maze512-1-0.map,maze512-1-0.map.scen,4,BFS,1.0,363,True,145.0000,145.0,1542,1.3574,0.00
maze512-1-0.map,maze512-1-0.map.scen,4,BFS,1.0,387,True,155.0000,155.0,684,1.0118,0.00
maze512-1-0.map,maze512-1-0.map.scen,4,BFS,1.0,412,True,166.0000,166.0,769,1.1691,0.00
maze512-1-0.map,maze512-1-0.map.scen,4,BFS,1.0,436,True,173.0000,173.0,508,0.8192,0.00
maze512-1-0.map,maze512-1-0.map.scen,4,BFS,1.0,460,True,185.0000,185.0,1616,2.2808,0.00
maze512-1-0.map,maze512-1-0.map.scen,4,BFS,1.0,484,True,194.0000,194.0,546,0.5242,0.00
maze512-1-0.map,maze512-1-0.map.scen,4,BFS,1.0,509,True,203.0000,203.0,663,0.6051,0.00
maze512-1-0.map,maze512-1-0.map.scen,4,BFS,1.0,533,True,214.0000,214.0,703,0.6536,0.00
maze512-1-0.map,maze512-1-0.map.scen,4,BFS,1.0,557,True,220.0000,220.0,957,0.8377,0.00
maze512-1-0.map,maze512-1-0.map.scen,4,BFS,1.0,581,True,232.0000,232.0,2052,1.7464,0.00
maze512-1-0.map,maze512-1-0.map.scen,4,BFS,1.0,606,True,240.0000,240.0,424,0.4076,0.00
maze512-1-0.map,maze512-1-0.map.scen,4,BFS,1.0,630,True,252.0000,252.0,1569,1.2642,0.00
maze512-1-0.map,maze512-1-0.map.scen,4,BFS,1.0,654,True,262.0000,262.0,860,0.7763,0.00
maze512-1-0.map,maze512-1-0.map.scen,4,BFS,1.0,678,True,271.0000,271.0,2005,1.6760,0.00
maze512-1-0.map,maze512-1-0.map.scen,4,BFS,1.0,702,True,280.0000,280.0,1734,1.6191,0.00
maze512-1-0.map,maze512-1-0.map.scen,4,BFS,1.0,727,True,289.0000,289.0,1832,1.5630,0.00
maze512-1-0.map,maze512-1-0.map.scen,4,BFS,1.0,751,True,303.0000,303.0,1405,1.2675,0.00
maze512-1-0.map,maze512-1-0.map.scen,4,BFS,1.0,775,True,311.0000,311.0,1413,1.2601,0.00
maze512-1-0.map,maze512-1-0.map.scen,4,BFS,1.0,799,True,319.0000,319.0,815,0.7423,0.00
maze512-1-0.map,maze512-1-0.map.scen,4,BFS,1.0,824,True,328.0000,328.0,3206,2.6253,0.00
maze512-1-0.map,maze512-1-0.map.scen,4,BFS,1.0,848,True,336.0000,336.0,1058,0.8251,0.00
maze512-1-0.map,maze512-1-0.map.scen,4,BFS,1.0,872,True,351.0000,351.0,1751,1.3608,0.00
maze512-1-0.map,maze512-1-0.map.scen,4,BFS,1.0,896,True,357.0000,357.0,1713,1.4198,0.00
maze512-1-0.map,maze512-1-0.map.scen,4,BFS,1.0,921,True,371.0000,371.0,5171,4.4073,0.00
maze512-1-0.map,maze512-1-0.map.scen,4,BFS,1.0,945,True,378.0000,378.0,893,0.7698,0.00
maze512-1-0.map,maze512-1-0.map.scen,4,BFS,1.0,969,True,384.0000,384.0,1448,1.1931,0.00
maze512-1-0.map,maze512-1-0.map.scen,4,BFS,1.0,993,True,396.0000,396.0,1229,1.0901,0.00
maze512-1-0.map,maze512-1-0.map.scen,4,BFS,1.0,1018,True,406.0000,406.0,5098,4.2118,0.00
maze512-1-0.map,maze512-1-0.map.scen,4,BFS,1.0,1042,True,416.0000,416.0,7832,6.1761,0.00
maze512-1-0.map,maze512-1-0.map.scen,4,BFS,1.0,1066,True,427.0000,427.0,7410,6.2917,0.00
maze512-1-0.map,maze512-1-0.map.scen,4,BFS,1.0,1090,True,437.0000,437.0,6022,4.8828,0.00
maze512-1-0.map,maze512-1-0.map.scen,4,BFS,1.0,1115,True,446.0000,446.0,3341,2.6644,0.00
maze512-1-0.map,maze512-1-0.map.scen,4,BFS,1.0,1139,True,452.0000,452.0,4801,3.9075,0.00
maze512-1-0.map,maze512-1-0.map.scen,4,BFS,1.0,1163,True,467.0000,467.0,3627,2.9810,0.00
maze512-1-0.map,maze512-1-0.map.scen,4,BFS,1.0,1187,True,472.0000,472.0,2487,2.0334,0.00
maze512-1-0.map,maze512-1-0.map.scen,4,BFS,1.0,1212,True,484.0000,484.0,6139,4.9208,0.00
maze512-1-0.map,maze512-1-0.map.scen,4,BFS,1.0,1236,True,492.0000,492.0,5480,4.3864,0.00
maze512-1-0.map,maze512-1-0.map.scen,4,BFS,1.0,1260,True,505.0000,505.0,7722,6.1112,0.00
maze512-1-0.map,maze512-1-0.map.scen,4,BFS,1.0,1284,True,514.0000,514.0,4462,3.5006,0.00
maze512-1-0.map,maze512-1-0.map.scen,4,BFS,1.0,1308,True,521.0000,521.0,2537,2.1094,0.00
maze512-1-0.map,maze512-1-0.map.scen,4,BFS,1.0,1333,True,532.0000,532.0,5263,4.5416,0.00
maze512-1-0.map,maze512-1-0.map.scen,4,BFS,1.0,1357,True,543.0000,543.0,4153,3.2482,0.00
maze512-1-0.map,maze512-1-0.map.scen,4,BFS,1.0,1381,True,552.0000,552.0,9424,7.9257,0.00
maze512-1-0.map,maze512-1-0.map.scen,4,BFS,1.0,1405,True,561.0000,561.0,3279,2.5756,0.00
maze512-1-0.map,maze512-1-0.map.scen,4,BFS,1.0,1430,True,574.0000,574.0,6670,5.4230,0.00
maze512-1-0.map,maze512-1-0.map.scen,4,BFS,1.0,1454,True,581.0000,581.0,2460,1.9809,0.00
maze512-1-0.map,maze512-1-0.map.scen,4,BFS,1.0,1478,True,588.0000,588.0,5716,4.6303,0.00
maze512-1-0.map,maze512-1-0.map.scen,4,BFS,1.0,1502,True,600.0000,600.0,21862,18.2757,0.00
maze512-1-0.map,maze512-1-0.map.scen,4,BFS,1.0,1527,True,608.0000,608.0,5128,4.1512,0.00
maze512-1-0.map,maze512-1-0.map.scen,4,BFS,1.0,1551,True,620.0000,620.0,8721,7.0852,0.00
maze512-1-0.map,maze512-1-0.map.scen,4,BFS,1.0,1575,True,629.0000,629.0,21854,17.7727,0.00
maze512-1-0.map,maze512-1-0.map.scen,4,BFS,1.0,1599,True,638.0000,638.0,9375,7.6279,0.00
maze512-1-0.map,maze512-1-0.map.scen,4,BFS,1.0,1624,True,648.0000,648.0,10765,8.9274,0.00
maze512-1-0.map,maze512-1-0.map.scen,4,BFS,1.0,1648,True,658.0000,658.0,16995,13.2552,0.00
maze512-1-0.map,maze512-1-0.map.scen,4,BFS,1.0,1672,True,671.0000,671.0,10002,7.5984,0.00
maze512-1-0.map,maze512-1-0.map.scen,4,BFS,1.0,1696,True,678.0000,678.0,3549,2.9658,0.00
maze512-1-0.map,maze512-1-0.map.scen,4,BFS,1.0,1721,True,691.0000,691.0,22922,18.5532,0.00
maze512-1-0.map,maze512-1-0.map.scen,4,BFS,1.0,1745,True,697.0000,697.0,12727,10.1096,0.00
maze512-1-0.map,maze512-1-0.map.scen,4,BFS,1.0,1769,True,707.0000,707.0,4428,3.4116,0.00
maze512-1-0.map,maze512-1-0.map.scen,4,BFS,1.0,1793,True,718.0000,718.0,8161,6.1983,0.00
maze512-1-0.map,maze512-1-0.map.scen,4,BFS,1.0,1817,True,727.0000,727.0,3255,2.6061,0.00
maze512-1-0.map,maze512-1-0.map.scen,4,BFS,1.0,1842,True,737.0000,737.0,4242,3.2742,0.00
maze512-1-0.map,maze512-1-0.map.scen,4,BFS,1.0,1866,True,746.0000,746.0,10591,9.0245,0.00
maze512-1-0.map,maze512-1-0.map.scen,4,BFS,1.0,1890,True,757.0000,757.0,29572,23.6820,0.00
maze512-1-0.map,maze512-1-0.map.scen,4,BFS,1.0,1914,True,765.0000,765.0,5819,4.8004,0.00
maze512-1-0.map,maze512-1-0.map.scen,4,BFS,1.0,1939,True,775.0000,775.0,8264,6.5331,0.00
maze512-1-0.map,maze512-1-0.map.scen,4,BFS,1.0,1963,True,784.0000,784.0,12609,9.8817,0.00
maze512-1-0.map,maze512-1-0.map.scen,4,BFS,1.0,1987,True,795.0000,795.0,34113,27.2972,0.00
maze512-1-0.map,maze512-1-0.map.scen,4,BFS,1.0,2011,True,806.0000,806.0,11576,9.2826,0.00
maze512-1-0.map,maze512-1-0.map.scen,4,BFS,1.0,2036,True,812.0000,812.0,23547,18.8658,0.00
maze512-1-0.map,maze512-1-0.map.scen,4,BFS,1.0,2060,True,825.0000,825.0,3164,2.4787,0.00
maze512-1-0.map,maze512-1-0.map.scen,4,BFS,1.0,2084,True,834.0000,834.0,20815,17.1348,0.00
maze512-1-0.map,maze512-1-0.map.scen,4,BFS,1.0,2108,True,842.0000,842.0,26327,21.7393,0.00
maze512-1-0.map,maze512-1-0.map.scen,4,BFS,1.0,2133,True,855.0000,855.0,7664,6.3216,0.00
maze512-1-0.map,maze512-1-0.map.scen,4,BFS,1.0,2157,True,861.0000,861.0,21276,17.2671,0.00
maze512-1-0.map,maze512-1-0.map.scen,4,BFS,1.0,2181,True,874.0000,874.0,12887,10.3005,0.00
maze512-1-0.map,maze512-1-0.map.scen,4,BFS,1.0,2205,True,881.0000,881.0,26111,21.2568,0.00
maze512-1-0.map,maze512-1-0.map.scen,4,BFS,1.0,2230,True,893.0000,893.0,13105,10.1733,0.00
maze512-1-0.map,maze512-1-0.map.scen,4,BFS,1.0,2254,True,903.0000,903.0,18828,14.3797,0.00
maze512-1-0.map,maze512-1-0.map.scen,4,BFS,1.0,2278,True,911.0000,911.0,6660,5.1539,0.00
maze512-1-0.map,maze512-1-0.map.scen,4,BFS,1.0,2302,True,923.0000,923.0,36462,28.9013,0.00
maze512-1-0.map,maze512-1-0.map.scen,4,BFS,1.0,2327,True,930.0000,930.0,17583,13.7871,0.00
maze512-1-0.map,maze512-1-0.map.scen,4,BFS,1.0,2351,True,940.0000,940.0,7642,6.0933,0.00
maze512-1-0.map,maze512-1-0.map.scen,4,BFS,1.0,2375,True,949.0000,949.0,41170,32.1507,0.00
maze512-1-0.map,maze512-1-0.map.scen,4,BFS,1.0,2399,True,958.0000,958.0,54930,44.5563,0.00
maze512-1-0.map,maze512-1-0.map.scen,4,BFS,1.0,2424,True,968.0000,968.0,14073,11.3009,0.00
maze512-1-0.map,maze512-1-0.map.scen,4,BFS,1.0,2448,True,977.0000,977.0,7682,6.1431,0.00
maze512-1-0.map,maze512-1-0.map.scen,4,BFS,1.0,2472,True,990.0000,990.0,49046,40.9962,0.00
maze512-1-0.map,maze512-1-0.map.scen,4,BFS,1.0,2496,True,997.0000,997.0,25485,20.7383,0.00
maze512-1-0.map,maze512-1-0.map.scen,4,BFS,1.0,2520,True,1009.0000,1009.0,12966,10.3745,0.00
maze512-1-0.map,maze512-1-0.map.scen,4,BFS,1.0,2545,True,1017.0000,1017.0,18023,14.1104,0.00
maze512-1-0.map,maze512-1-0.map.scen,4,BFS,1.0,2569,True,1026.0000,1026.0,29249,23.7240,0.00
maze512-1-0.map,maze512-1-0.map.scen,4,BFS,1.0,2593,True,1036.0000,1036.0,24110,19.2738,0.00
maze512-1-0.map,maze512-1-0.map.scen,4,BFS,1.0,2617,True,1047.0000,1047.0,23245,18.4136,0.00
maze512-1-0.map,maze512-1-0.map.scen,4,BFS,1.0,2642,True,1058.0000,1058.0,5084,4.1675,0.00
maze512-1-0.map,maze512-1-0.map.scen,4,BFS,1.0,2666,True,1067.0000,1067.0,20142,15.2717,0.00
maze512-1-0.map,maze512-1-0.map.scen,4,BFS,1.0,2690,True,1076.0000,1076.0,11477,9.6054,0.00
maze512-1-0.map,maze512-1-0.map.scen,4,BFS,1.0,2714,True,1084.0000,1084.0,53426,44.3891,0.00
maze512-1-0.map,maze512-1-0.map.scen,4,BFS,1.0,2739,True,1092.0000,1092.0,29014,23.2543,0.00
maze512-1-0.map,maze512-1-0.map.scen,4,BFS,1.0,2763,True,1106.0000,1106.0,39753,31.2057,0.00
maze512-1-0.map,maze512-1-0.map.scen,4,BFS,1.0,2787,True,1115.0000,1115.0,51873,41.8512,0.00
maze512-1-0.map,maze512-1-0.map.scen,4,BFS,1.0,2811,True,1126.0000,1126.0,27861,21.4343,0.00
maze512-1-0.map,maze512-1-0.map.scen,4,BFS,1.0,2836,True,1133.0000,1133.0,18857,14.5125,0.00
maze512-1-0.map,maze512-1-0.map.scen,4,BFS,1.0,2860,True,1146.0000,1146.0,46803,38.1912,0.00
maze512-1-0.map,maze512-1-0.map.scen,4,BFS,1.0,2884,True,1155.0000,1155.0,7436,6.0153,0.00
maze512-1-0.map,maze512-1-0.map.scen,4,BFS,1.0,2908,True,1163.0000,1163.0,20983,16.9349,0.00
maze512-1-0.map,maze512-1-0.map.scen,4,BFS,1.0,2933,True,1175.0000,1175.0,19768,15.7053,0.00
maze512-1-0.map,maze512-1-0.map.scen,4,BFS,1.0,2957,True,1182.0000,1182.0,56673,47.1380,0.00
maze512-1-0.map,maze512-1-0.map.scen,4,BFS,1.0,2981,True,1195.0000,1195.0,59042,47.3870,0.00
maze512-1-0.map,maze512-1-0.map.scen,4,BFS,1.0,3005,True,1203.0000,1203.0,40797,33.3075,0.00
maze512-1-0.map,maze512-1-0.map.scen,4,BFS,1.0,3030,True,1212.0000,1212.0,43373,37.6752,0.00
maze512-1-0.map,maze512-1-0.map.scen,4,BFS,1.0,3054,True,1220.0000,1220.0,51336,42.1157,0.00
maze512-1-0.map,maze512-1-0.map.scen,4,BFS,1.0,3078,True,1228.0000,1228.0,49659,39.4736,0.00
maze512-1-0.map,maze512-1-0.map.scen,4,BFS,1.0,3102,True,1243.0000,1243.0,15229,11.9421,0.00
maze512-1-0.map,maze512-1-0.map.scen,4,BFS,1.0,3126,True,1250.0000,1250.0,33485,27.8421,0.00
maze512-1-0.map,maze512-1-0.map.scen,4,BFS,1.0,3151,True,1263.0000,1263.0,24982,20.9041,0.00
maze512-1-0.map,maze512-1-0.map.scen,4,BFS,1.0,3175,True,1268.0000,1268.0,19132,14.9428,0.00
maze512-1-0.map,maze512-1-0.map.scen,4,BFS,1.0,3199,True,1277.0000,1277.0,66444,54.7739,0.00
maze512-1-0.map,maze512-1-0.map.scen,4,BFS,1.0,3223,True,1290.0000,1290.0,15689,12.2289,0.00
maze512-1-0.map,maze512-1-0.map.scen,4,BFS,1.0,3248,True,1298.0000,1298.0,7509,6.1772,0.00
maze512-1-0.map,maze512-1-0.map.scen,4,BFS,1.0,3272,True,1309.0000,1309.0,23140,18.8291,0.00
maze512-1-0.map,maze512-1-0.map.scen,4,BFS,1.0,3296,True,1318.0000,1318.0,31855,24.5436,0.00
maze512-1-0.map,maze512-1-0.map.scen,4,BFS,1.0,3320,True,1331.0000,1331.0,55218,44.0293,0.00
maze512-1-0.map,maze512-1-0.map.scen,4,BFS,1.0,3345,True,1336.0000,1336.0,37292,29.0584,0.00
maze512-1-0.map,maze512-1-0.map.scen,4,BFS,1.0,3369,True,1345.0000,1345.0,40834,32.5606,0.00
maze512-1-0.map,maze512-1-0.map.scen,4,BFS,1.0,3393,True,1357.0000,1357.0,60402,49.2338,0.00
maze512-1-0.map,maze512-1-0.map.scen,4,BFS,1.0,3417,True,1364.0000,1364.0,31654,24.5957,0.00
maze512-1-0.map,maze512-1-0.map.scen,4,BFS,1.0,3442,True,1379.0000,1379.0,49088,40.2472,0.00
maze512-1-0.map,maze512-1-0.map.scen,4,BFS,1.0,3466,True,1384.0000,1384.0,59242,49.7904,0.00
maze512-1-0.map,maze512-1-0.map.scen,4,BFS,1.0,3490,True,1396.0000,1396.0,56338,44.6161,0.00
maze512-1-0.map,maze512-1-0.map.scen,4,BFS,1.0,3514,True,1404.0000,1404.0,84948,67.7737,0.00
maze512-1-0.map,maze512-1-0.map.scen,4,BFS,1.0,3539,True,1415.0000,1415.0,62751,50.1464,0.00
maze512-1-0.map,maze512-1-0.map.scen,4,BFS,1.0,3563,True,1426.0000,1426.0,52031,41.9654,0.00
maze512-1-0.map,maze512-1-0.map.scen,4,BFS,1.0,3587,True,1435.0000,1435.0,56325,46.2699,0.00
maze512-1-0.map,maze512-1-0.map.scen,4,BFS,1.0,3611,True,1446.0000,1446.0,38596,30.4097,0.00
maze512-1-0.map,maze512-1-0.map.scen,4,BFS,1.0,3635,True,1453.0000,1453.0,28352,23.3085,0.00
maze512-1-0.map,maze512-1-0.map.scen,4,BFS,1.0,3660,True,1465.0000,1465.0,19579,15.0961,0.00
maze512-1-0.map,maze512-1-0.map.scen,4,BFS,1.0,3684,True,1472.0000,1472.0,28511,22.5546,0.00
maze512-1-0.map,maze512-1-0.map.scen,4,BFS,1.0,3708,True,1480.0000,1480.0,58109,48.1030,0.00
maze512-1-0.map,maze512-1-0.map.scen,4,BFS,1.0,3732,True,1492.0000,1492.0,66614,53.2975,0.00
maze512-1-0.map,maze512-1-0.map.scen,4,BFS,1.0,3757,True,1503.0000,1503.0,85079,68.6112,0.00
maze512-1-0.map,maze512-1-0.map.scen,4,BFS,1.0,3781,True,1513.0000,1513.0,57799,46.9012,0.00
maze512-1-0.map,maze512-1-0.map.scen,4,BFS,1.0,3805,True,1521.0000,1521.0,78828,62.6044,0.00
maze512-1-0.map,maze512-1-0.map.scen,4,BFS,1.0,3829,True,1530.0000,1530.0,71727,58.0426,0.00
maze512-1-0.map,maze512-1-0.map.scen,4,BFS,1.0,3854,True,1541.0000,1541.0,55624,44.5919,0.00
maze512-1-0.map,maze512-1-0.map.scen,4,BFS,1.0,3878,True,1549.0000,1549.0,42514,36.0338,0.00
maze512-1-0.map,maze512-1-0.map.scen,4,BFS,1.0,3902,True,1563.0000,1563.0,8657,7.0012,0.00
maze512-1-0.map,maze512-1-0.map.scen,4,BFS,1.0,3926,True,1569.0000,1569.0,24010,18.9703,0.00
maze512-1-0.map,maze512-1-0.map.scen,4,BFS,1.0,3951,True,1581.0000,1581.0,23709,18.4992,0.00
maze512-1-0.map,maze512-1-0.map.scen,4,BFS,1.0,3975,True,1589.0000,1589.0,8549,6.6745,0.00
maze512-1-0.map,maze512-1-0.map.scen,4,BFS,1.0,3999,True,1596.0000,1596.0,80945,66.6555,0.00
maze512-1-0.map,maze512-1-0.map.scen,4,BFS,1.0,4023,True,1611.0000,1611.0,54457,42.7296,0.00
maze512-1-0.map,maze512-1-0.map.scen,4,BFS,1.0,4048,True,1617.0000,1617.0,83505,66.2030,0.00
maze512-1-0.map,maze512-1-0.map.scen,4,BFS,1.0,4072,True,1630.0000,1630.0,59211,46.7208,0.00
maze512-1-0.map,maze512-1-0.map.scen,4,BFS,1.0,4096,True,1638.0000,1638.0,66635,52.9641,0.00
maze512-1-0.map,maze512-1-0.map.scen,4,BFS,1.0,4120,True,1648.0000,1648.0,79298,63.7761,0.00
maze512-1-0.map,maze512-1-0.map.scen,4,BFS,1.0,4145,True,1657.0000,1657.0,8960,7.2987,0.00
maze512-1-0.map,maze512-1-0.map.scen,4,BFS,1.0,4169,True,1664.0000,1664.0,45500,37.4019,0.00
maze512-1-0.map,maze512-1-0.map.scen,4,BFS,1.0,4193,True,1679.0000,1679.0,35386,28.1506,0.00
maze512-1-0.map,maze512-1-0.map.scen,4,BFS,1.0,4217,True,1685.0000,1685.0,22368,18.3445,0.00
maze512-1-0.map,maze512-1-0.map.scen,4,BFS,1.0,4242,True,1696.0000,1696.0,80192,66.2357,0.00
maze512-1-0.map,maze512-1-0.map.scen,4,BFS,1.0,4266,True,1705.0000,1705.0,25753,21.0177,0.00
maze512-1-0.map,maze512-1-0.map.scen,4,BFS,1.0,4290,True,1718.0000,1718.0,48923,39.9000,0.00
maze512-1-0.map,maze512-1-0.map.scen,4,BFS,1.0,4314,True,1727.0000,1727.0,92165,79.6681,0.00
maze512-1-0.map,maze512-1-0.map.scen,4,BFS,1.0,4338,True,1735.0000,1735.0,77107,62.8047,0.00
maze512-1-0.map,maze512-1-0.map.scen,4,BFS,1.0,4363,True,1747.0000,1747.0,45796,38.7946,0.00
maze512-1-0.map,maze512-1-0.map.scen,4,BFS,1.0,4387,True,1755.0000,1755.0,93903,79.1426,0.00
maze512-1-0.map,maze512-1-0.map.scen,4,BFS,1.0,4411,True,1766.0000,1766.0,52131,42.9597,0.00
maze512-1-0.map,maze512-1-0.map.scen,4,BFS,1.0,4435,True,1772.0000,1772.0,48115,40.2479,0.00
maze512-1-0.map,maze512-1-0.map.scen,4,BFS,1.0,4460,True,1784.0000,1784.0,68040,56.9049,0.00
maze512-1-0.map,maze512-1-0.map.scen,4,BFS,1.0,4484,True,1795.0000,1795.0,99847,84.0245,0.00
maze512-1-0.map,maze512-1-0.map.scen,4,BFS,1.0,4508,True,1801.0000,1801.0,63364,50.0890,0.00
maze512-1-0.map,maze512-1-0.map.scen,4,BFS,1.0,4532,True,1812.0000,1812.0,51984,43.1139,0.00
maze512-1-0.map,maze512-1-0.map.scen,4,BFS,1.0,4557,True,1823.0000,1823.0,72857,58.5463,0.00
maze512-1-0.map,maze512-1-0.map.scen,4,BFS,1.0,4581,True,1833.0000,1833.0,77470,62.4318,0.00
maze512-1-0.map,maze512-1-0.map.scen,4,BFS,1.0,4605,True,1841.0000,1841.0,70713,55.7307,0.00
maze512-1-0.map,maze512-1-0.map.scen,4,BFS,1.0,4629,True,1850.0000,1850.0,59876,48.1626,0.00
maze512-1-0.map,maze512-1-0.map.scen,4,BFS,1.0,4654,True,1860.0000,1860.0,6052,4.9285,0.00
maze512-1-0.map,maze512-1-0.map.scen,4,BFS,1.0,4678,True,1869.0000,1869.0,47608,41.3328,0.00
maze512-1-0.map,maze512-1-0.map.scen,4,BFS,1.0,4702,True,1880.0000,1880.0,83372,68.2120,0.00
maze512-1-0.map,maze512-1-0.map.scen,4,BFS,1.0,4726,True,1891.0000,1891.0,66949,53.6701,0.00
maze512-1-0.map,maze512-1-0.map.scen,4,BFS,1.0,4751,True,1903.0000,1903.0,43304,36.5824,0.00
maze512-1-0.map,maze512-1-0.map.scen,4,BFS,1.0,4775,True,1910.0000,1910.0,90360,75.8001,0.00
maze512-1-0.map,maze512-1-0.map.scen,4,BFS,1.0,4799,True,1917.0000,1917.0,43168,35.2200,0.00
maze512-1-0.map,maze512-1-0.map.scen,4,BFS,1.0,4823,True,1929.0000,1929.0,72582,57.5690,0.00
maze512-1-0.map,maze512-1-0.map.scen,4,BFS,1.0,4848,True,1939.0000,1939.0,45185,36.9670,0.00
maze512-1-0.map,maze512-1-0.map.scen,4,BFS,1.0,4872,True,1950.0000,1950.0,95697,82.1206,0.00
maze512-1-0.map,maze512-1-0.map.scen,4,BFS,1.0,4896,True,1957.0000,1957.0,30656,25.1393,0.00
maze512-1-0.map,maze512-1-0.map.scen,4,BFS,1.0,4920,True,1968.0000,1968.0,95602,83.5908,0.00
maze512-1-0.map,maze512-1-0.map.scen,4,BFS,1.0,4944,True,1977.0000,1977.0,33001,26.6155,0.00
maze512-1-0.map,maze512-1-0.map.scen,4,BFS,1.0,4969,True,1987.0000,1987.0,91143,79.3084,0.00
maze512-1-0.map,maze512-1-0.map.scen,4,BFS,1.0,4993,True,1997.0000,1997.0,95821,82.0385,0.00
maze512-1-0.map,maze512-1-0.map.scen,4,BFS,1.0,5017,True,2004.0000,2004.0,95479,81.0540,0.00
maze512-1-0.map,maze512-1-0.map.scen,4,BFS,1.0,5041,True,2016.0000,2016.0,49279,39.9797,0.00
maze512-1-0.map,maze512-1-0.map.scen,4,BFS,1.0,5066,True,2024.0000,2024.0,77332,64.3116,0.00
maze512-1-0.map,maze512-1-0.map.scen,4,BFS,1.0,5090,True,2036.0000,2036.0,48294,38.6024,0.00
maze512-1-0.map,maze512-1-0.map.scen,4,BFS,1.0,5114,True,2046.0000,2046.0,82651,68.8246,0.00
maze512-1-0.map,maze512-1-0.map.scen,4,BFS,1.0,5138,True,2053.0000,2053.0,51169,42.8498,0.00
maze512-1-0.map,maze512-1-0.map.scen,4,BFS,1.0,5163,True,2065.0000,2065.0,77965,62.2426,0.00
maze512-1-0.map,maze512-1-0.map.scen,4,BFS,1.0,5187,True,2074.0000,2074.0,68944,54.7513,0.00
maze512-1-0.map,maze512-1-0.map.scen,4,BFS,1.0,5211,True,2085.0000,2085.0,77521,61.4806,0.00
maze512-1-0.map,maze512-1-0.map.scen,4,BFS,1.0,5235,True,2092.0000,2092.0,35976,29.6447,0.00
maze512-1-0.map,maze512-1-0.map.scen,4,BFS,1.0,5260,True,2105.0000,2105.0,45974,37.3040,0.00
maze512-1-0.map,maze512-1-0.map.scen,4,BFS,1.0,5284,True,2115.0000,2115.0,85004,68.5783,0.00
maze512-1-0.map,maze512-1-0.map.scen,4,BFS,1.0,5308,True,2120.0000,2120.0,87630,73.5852,0.00
maze512-1-0.map,maze512-1-0.map.scen,4,BFS,1.0,5332,True,2132.0000,2132.0,77426,60.4992,0.00
maze512-1-0.map,maze512-1-0.map.scen,4,BFS,1.0,5357,True,2142.0000,2142.0,77040,60.7333,0.00
maze512-1-0.map,maze512-1-0.map.scen,4,BFS,1.0,5381,True,2152.0000,2152.0,106496,91.1751,0.00
maze512-1-0.map,maze512-1-0.map.scen,4,BFS,1.0,5405,True,2161.0000,2161.0,22059,17.6685,0.00
maze512-1-0.map,maze512-1-0.map.scen,4,BFS,1.0,5429,True,2168.0000,2168.0,95122,81.0836,0.00
maze512-1-0.map,maze512-1-0.map.scen,4,BFS,1.0,5454,True,2180.0000,2180.0,64049,51.9673,0.00
maze512-1-0.map,maze512-1-0.map.scen,4,BFS,1.0,5478,True,2188.0000,2188.0,112588,94.2658,0.00
maze512-1-0.map,maze512-1-0.map.scen,4,BFS,1.0,5502,True,2203.0000,2203.0,44430,36.9092,0.00
maze512-1-0.map,maze512-1-0.map.scen,4,BFS,1.0,5526,True,2211.0000,2211.0,81163,67.8893,0.00
maze512-1-0.map,maze512-1-0.map.scen,4,BFS,1.0,5550,True,2221.0000,2221.0,57577,47.6383,0.00
maze512-1-0.map,maze512-1-0.map.scen,4,BFS,1.0,5575,True,2230.0000,2230.0,75349,59.7766,0.00
maze512-1-0.map,maze512-1-0.map.scen,4,BFS,1.0,5599,True,2239.0000,2239.0,115390,99.0044,0.00
maze512-1-0.map,maze512-1-0.map.scen,4,BFS,1.0,5623,True,2251.0000,2251.0,78638,65.2771,0.00
maze512-1-0.map,maze512-1-0.map.scen,4,BFS,1.0,5647,True,2256.0000,2256.0,40615,31.8379,0.00
maze512-1-0.map,maze512-1-0.map.scen,4,BFS,1.0,5672,True,2270.0000,2270.0,86759,76.1360,0.00
maze512-1-0.map,maze512-1-0.map.scen,4,BFS,1.0,5696,True,2276.0000,2276.0,36319,28.3730,0.00
maze512-1-0.map,maze512-1-0.map.scen,4,BFS,1.0,5720,True,2291.0000,2291.0,74855,61.0448,0.00
maze512-1-0.map,maze512-1-0.map.scen,4,BFS,1.0,5744,True,2299.0000,2299.0,26556,21.0739,0.00
maze512-1-0.map,maze512-1-0.map.scen,4,BFS,1.0,5769,True,2306.0000,2306.0,71633,56.5404,0.00
maze512-1-0.map,maze512-1-0.map.scen,4,BFS,1.0,5793,True,2319.0000,2319.0,98642,82.3623,0.00
maze512-1-0.map,maze512-1-0.map.scen,4,BFS,1.0,5817,True,2327.0000,2327.0,95801,84.3338,0.00
maze512-1-0.map,maze512-1-0.map.scen,4,BFS,1.0,5841,True,2339.0000,2339.0,57371,46.3821,0.00
maze512-1-0.map,maze512-1-0.map.scen,4,BFS,1.0,5866,True,2347.0000,2347.0,95487,80.7697,0.00
maze512-1-0.map,maze512-1-0.map.scen,4,BFS,1.0,5890,True,2357.0000,2357.0,111512,94.6077,0.00
maze512-1-0.map,maze512-1-0.map.scen,4,BFS,1.0,5914,True,2364.0000,2364.0,24501,19.5316,0.00
maze512-1-0.map,maze512-1-0.map.scen,4,BFS,1.0,5938,True,2374.0000,2374.0,76600,61.8323,0.00
maze512-1-0.map,maze512-1-0.map.scen,4,BFS,1.0,5963,True,2385.0000,2385.0,104684,88.9364,0.00
maze512-1-0.map,maze512-1-0.map.scen,4,BFS,1.0,5987,True,2393.0000,2393.0,99944,83.7907,0.00
maze512-1-0.map,maze512-1-0.map.scen,4,BFS,1.0,6011,True,2405.0000,2405.0,96741,83.3352,0.00
maze512-1-0.map,maze512-1-0.map.scen,4,BFS,1.0,6035,True,2414.0000,2414.0,95534,81.7169,0.00
maze512-1-0.map,maze512-1-0.map.scen,4,BFS,1.0,6060,True,2427.0000,2427.0,111608,93.4596,0.00
maze512-1-0.map,maze512-1-0.map.scen,4,BFS,1.0,6084,True,2433.0000,2433.0,48145,40.5971,0.00
maze512-1-0.map,maze512-1-0.map.scen,4,BFS,1.0,6108,True,2443.0000,2443.0,92739,77.9012,0.00
maze512-1-0.map,maze512-1-0.map.scen,4,BFS,1.0,6132,True,2455.0000,2455.0,82095,66.4963,0.00
maze512-1-0.map,maze512-1-0.map.scen,4,BFS,1.0,6156,True,2463.0000,2463.0,100810,84.6115,0.00
maze512-1-0.map,maze512-1-0.map.scen,4,BFS,1.0,6181,True,2472.0000,2472.0,96132,80.2908,0.00
maze512-1-0.map,maze512-1-0.map.scen,4,BFS,1.0,6205,True,2481.0000,2481.0,101767,85.4085,0.00
maze512-1-0.map,maze512-1-0.map.scen,4,BFS,1.0,6229,True,2489.0000,2489.0,68117,54.5798,0.00
maze512-1-0.map,maze512-1-0.map.scen,4,BFS,1.0,6253,True,2500.0000,2500.0,47049,39.0349,0.00
maze512-1-0.map,maze512-1-0.map.scen,4,BFS,1.0,6278,True,2510.0000,2510.0,24864,20.2887,0.00
maze512-1-0.map,maze512-1-0.map.scen,4,BFS,1.0,6302,True,2523.0000,2523.0,95558,82.3179,0.00
maze512-1-0.map,maze512-1-0.map.scen,4,BFS,1.0,6326,True,2528.0000,2528.0,79240,64.2654,0.00
maze512-1-0.map,maze512-1-0.map.scen,4,BFS,1.0,6350,True,2541.0000,2541.0,70263,56.1318,0.00
maze512-1-0.map,maze512-1-0.map.scen,4,BFS,1.0,6375,True,2550.0000,2550.0,103070,85.6556,0.00
maze512-1-0.map,maze512-1-0.map.scen,4,BFS,1.0,6399,True,2557.0000,2557.0,68852,56.6846,0.00
maze512-1-0.map,maze512-1-0.map.scen,4,BFS,1.0,6423,True,2570.0000,2570.0,104573,88.6101,0.00
maze512-1-0.map,maze512-1-0.map.scen,4,BFS,1.0,6447,True,2579.0000,2579.0,111817,95.7662,0.00
maze512-1-0.map,maze512-1-0.map.scen,4,BFS,1.0,6472,True,2589.0000,2589.0,87613,77.3004,0.00
maze512-1-0.map,maze512-1-0.map.scen,4,BFS,1.0,6496,True,2599.0000,2599.0,96425,80.2243,0.00
maze512-1-0.map,maze512-1-0.map.scen,4,BFS,1.0,6520,True,2610.0000,2610.0,21064,17.2498,0.00
maze512-1-0.map,maze512-1-0.map.scen,4,BFS,1.0,6544,True,2618.0000,2618.0,30312,24.4199,0.00
maze512-1-0.map,maze512-1-0.map.scen,4,BFS,1.0,6569,True,2624.0000,2624.0,24518,20.5677,0.00
maze512-1-0.map,maze512-1-0.map.scen,4,BFS,1.0,6593,True,2636.0000,2636.0,49411,42.6395,0.00
maze512-1-0.map,maze512-1-0.map.scen,4,BFS,1.0,6617,True,2644.0000,2644.0,42666,35.7176,0.00
maze512-1-0.map,maze512-1-0.map.scen,4,BFS,1.0,6641,True,2658.0000,2658.0,100277,87.8371,0.00
maze512-1-0.map,maze512-1-0.map.scen,4,BFS,1.0,6666,True,2665.0000,2665.0,52285,42.6728,0.00
maze512-1-0.map,maze512-1-0.map.scen,4,BFS,1.0,6690,True,2678.0000,2678.0,88934,77.6148,0.00
maze512-1-0.map,maze512-1-0.map.scen,4,BFS,1.0,6714,True,2687.0000,2687.0,81151,67.7497,0.00
maze512-1-0.map,maze512-1-0.map.scen,4,BFS,1.0,6738,True,2694.0000,2694.0,105116,87.5676,0.00
maze512-1-0.map,maze512-1-0.map.scen,4,BFS,1.0,6762,True,2707.0000,2707.0,78109,64.8869,0.00
maze512-1-0.map,maze512-1-0.map.scen,4,BFS,1.0,6787,True,2712.0000,2712.0,85357,75.1292,0.00
maze512-1-0.map,maze512-1-0.map.scen,4,BFS,1.0,6811,True,2726.0000,2726.0,103682,87.4875,0.00
maze512-1-0.map,maze512-1-0.map.scen,4,BFS,1.0,6835,True,2734.0000,2734.0,94118,82.2808,0.00
maze512-1-0.map,maze512-1-0.map.scen,4,BFS,1.0,6859,True,2742.0000,2742.0,86376,74.3301,0.00
maze512-1-0.map,maze512-1-0.map.scen,4,BFS,1.0,6884,True,2755.0000,2755.0,82528,66.0301,0.00
maze512-1-0.map,maze512-1-0.map.scen,4,BFS,1.0,6908,True,2761.0000,2761.0,83539,67.5372,0.00
maze512-1-0.map,maze512-1-0.map.scen,4,BFS,1.0,6932,True,2775.0000,2775.0,28148,23.2318,0.00
maze512-1-0.map,maze512-1-0.map.scen,4,BFS,1.0,6956,True,2782.0000,2782.0,20447,16.2076,0.00
maze512-1-0.map,maze512-1-0.map.scen,4,BFS,1.0,6981,True,2795.0000,2795.0,93931,81.1273,0.00
maze512-1-0.map,maze512-1-0.map.scen,4,BFS,1.0,7005,True,2800.0000,2800.0,35642,29.6143,0.00
maze512-1-0.map,maze512-1-0.map.scen,4,BFS,1.0,7029,True,2810.0000,2810.0,23656,20.2081,0.00
maze512-1-0.map,maze512-1-0.map.scen,4,BFS,1.0,7053,True,2820.0000,2820.0,100076,85.8308,0.00
maze512-1-0.map,maze512-1-0.map.scen,4,BFS,1.0,7078,True,2828.0000,2828.0,23247,18.9635,0.00
maze512-1-0.map,maze512-1-0.map.scen,4,BFS,1.0,7102,True,2843.0000,2843.0,92320,81.6930,0.00
maze512-1-0.map,maze512-1-0.map.scen,4,BFS,1.0,7126,True,2851.0000,2851.0,59063,49.5161,0.00
maze512-1-0.map,maze512-1-0.map.scen,4,BFS,1.0,7150,True,2862.0000,2862.0,108518,92.5067,0.00
maze512-1-0.map,maze512-1-0.map.scen,4,BFS,1.0,7175,True,2870.0000,2870.0,115762,97.2842,0.00
maze512-1-0.map,maze512-1-0.map.scen,4,BFS,1.0,7199,True,2878.0000,2878.0,55027,46.5393,0.00
maze512-1-0.map,maze512-1-0.map.scen,4,BFS,1.0,7223,True,2889.0000,2889.0,113453,98.6298,0.00
maze512-1-0.map,maze512-1-0.map.scen,4,BFS,1.0,7247,True,2898.0000,2898.0,89781,77.9877,0.00
maze512-1-0.map,maze512-1-0.map.scen,4,BFS,1.0,7271,True,2910.0000,2910.0,108542,93.5908,0.00
maze512-1-0.map,maze512-1-0.map.scen,4,BFS,1.0,7296,True,2916.0000,2916.0,120206,101.9496,0.00
maze512-1-0.map,maze512-1-0.map.scen,4,BFS,1.0,7320,True,2929.0000,2929.0,110960,93.3100,0.00
maze512-1-0.map,maze512-1-0.map.scen,4,BFS,1.0,7344,True,2938.0000,2938.0,120258,102.0999,0.00
maze512-1-0.map,maze512-1-0.map.scen,4,BFS,1.0,7368,True,2944.0000,2944.0,110103,91.7589,0.00
maze512-1-0.map,maze512-1-0.map.scen,4,BFS,1.0,7393,True,2957.0000,2957.0,117992,98.0113,0.00
maze512-1-0.map,maze512-1-0.map.scen,4,BFS,1.0,7417,True,2964.0000,2964.0,92420,78.7787,0.00
maze512-1-0.map,maze512-1-0.map.scen,4,BFS,1.0,7441,True,2979.0000,2979.0,31838,25.4621,0.00
maze512-1-0.map,maze512-1-0.map.scen,4,BFS,1.0,7465,True,2985.0000,2985.0,120823,104.8371,0.00
maze512-1-0.map,maze512-1-0.map.scen,4,BFS,1.0,7490,True,2998.0000,2998.0,66696,54.3690,0.00
maze512-1-0.map,maze512-1-0.map.scen,4,BFS,1.0,7514,True,3004.0000,3004.0,112381,96.3103,0.00
maze512-1-0.map,maze512-1-0.map.scen,4,BFS,1.0,7538,True,3013.0000,3013.0,39638,32.2912,0.00
maze512-1-0.map,maze512-1-0.map.scen,4,BFS,1.0,7562,True,3027.0000,3027.0,55228,46.0181,0.00
maze512-1-0.map,maze512-1-0.map.scen,4,BFS,1.0,7587,True,3032.0000,3032.0,60516,50.6141,0.00
maze512-1-0.map,maze512-1-0.map.scen,4,BFS,1.0,7611,True,3045.0000,3045.0,74284,62.3092,0.00
maze512-1-0.map,maze512-1-0.map.scen,4,BFS,1.0,7635,True,3052.0000,3052.0,94682,81.0475,0.00
maze512-1-0.map,maze512-1-0.map.scen,4,BFS,1.0,7659,True,3061.0000,3061.0,108431,93.4919,0.00
maze512-1-0.map,maze512-1-0.map.scen,4,BFS,1.0,7684,True,3074.0000,3074.0,51513,44.4008,0.00
maze512-1-0.map,maze512-1-0.map.scen,4,BFS,1.0,7708,True,3081.0000,3081.0,44436,37.2929,0.00
maze512-1-0.map,maze512-1-0.map.scen,4,BFS,1.0,7732,True,3092.0000,3092.0,110189,94.3340,0.00
maze512-1-0.map,maze512-1-0.map.scen,4,BFS,1.0,7756,True,3101.0000,3101.0,113389,94.2420,0.00
maze512-1-0.map,maze512-1-0.map.scen,4,BFS,1.0,7781,True,3114.0000,3114.0,113070,96.1020,0.00
maze512-1-0.map,maze512-1-0.map.scen,4,BFS,1.0,7805,True,3122.0000,3122.0,53466,45.8531,0.00
maze512-1-0.map,maze512-1-0.map.scen,4,BFS,1.0,7829,True,3129.0000,3129.0,109251,94.2351,0.00
maze512-1-0.map,maze512-1-0.map.scen,4,BFS,1.0,7853,True,3140.0000,3140.0,31557,26.2597,0.00
maze512-1-0.map,maze512-1-0.map.scen,4,BFS,1.0,7877,True,3151.0000,3151.0,38720,32.3397,0.00
maze512-1-0.map,maze512-1-0.map.scen,4,BFS,1.0,7902,True,3163.0000,3163.0,35046,29.4600,0.00
maze512-1-0.map,maze512-1-0.map.scen,4,BFS,1.0,7926,True,3171.0000,3171.0,106202,93.2554,0.00
maze512-1-0.map,maze512-1-0.map.scen,4,BFS,1.0,7950,True,3181.0000,3181.0,51333,44.1530,0.00
maze512-1-0.map,maze512-1-0.map.scen,4,BFS,1.0,7974,True,3188.0000,3188.0,117356,100.6705,0.00
maze512-1-0.map,maze512-1-0.map.scen,4,BFS,1.0,7999,True,3199.0000,3199.0,87839,74.6151,0.00
maze512-1-0.map,maze512-1-0.map.scen,4,BFS,1.0,8023,True,3209.0000,3209.0,118743,99.2068,0.00
maze512-1-0.map,maze512-1-0.map.scen,4,BFS,1.0,8047,True,3219.0000,3219.0,130654,109.7171,0.00
maze512-1-0.map,maze512-1-0.map.scen,4,BFS,1.0,8071,True,3231.0000,3231.0,112170,94.7991,0.00
maze512-1-0.map,maze512-1-0.map.scen,4,BFS,1.0,8096,True,3238.0000,3238.0,66801,56.2102,0.00
maze512-1-0.map,maze512-1-0.map.scen,4,BFS,1.0,8120,True,3250.0000,3250.0,108733,91.2587,0.00
maze512-1-0.map,maze512-1-0.map.scen,4,BFS,1.0,8144,True,3256.0000,3256.0,109688,94.6075,0.00
maze512-1-0.map,maze512-1-0.map.scen,4,BFS,1.0,8168,True,3264.0000,3264.0,79497,66.1327,0.00
maze512-1-0.map,maze512-1-0.map.scen,4,BFS,1.0,8193,True,3278.0000,3278.0,126354,110.2743,0.00
maze512-1-0.map,maze512-1-0.map.scen,4,BFS,1.0,8217,True,3286.0000,3286.0,123662,104.5930,0.00
maze512-1-0.map,maze512-1-0.map.scen,4,BFS,1.0,8241,True,3296.0000,3296.0,118505,100.2482,0.00
maze512-1-0.map,maze512-1-0.map.scen,4,BFS,1.0,8265,True,3305.0000,3305.0,49939,43.5403,0.00
maze512-1-0.map,maze512-1-0.map.scen,4,BFS,1.0,8290,True,3317.0000,3317.0,52179,43.7610,0.00
maze512-1-0.map,maze512-1-0.map.scen,4,BFS,1.0,8314,True,3326.0000,3326.0,80619,68.6265,0.00
maze512-1-0.map,maze512-1-0.map.scen,4,BFS,1.0,8338,True,3333.0000,3333.0,105041,92.9538,0.00
maze512-1-0.map,maze512-1-0.map.scen,4,BFS,1.0,8362,True,3345.0000,3345.0,73926,61.1502,0.00
maze512-1-0.map,maze512-1-0.map.scen,4,BFS,1.0,8387,True,3352.0000,3352.0,126447,109.8855,0.00
maze512-1-0.map,maze512-1-0.map.scen,4,BFS,1.0,8411,True,3364.0000,3364.0,120343,103.6419,0.00
maze512-1-0.map,maze512-1-0.map.scen,4,BFS,1.0,8435,True,3374.0000,3374.0,75317,64.0353,0.00
maze512-1-0.map,maze512-1-0.map.scen,4,BFS,1.0,8459,True,3380.0000,3380.0,46257,41.3544,0.00
maze512-1-0.map,maze512-1-0.map.scen,4,BFS,1.0,8484,True,3393.0000,3393.0,112789,98.4081,0.00
maze512-1-0.map,maze512-1-0.map.scen,4,BFS,1.0,8508,True,3401.0000,3401.0,121922,103.5102,0.00
maze512-1-0.map,maze512-1-0.map.scen,4,BFS,1.0,8532,True,3413.0000,3413.0,78100,66.3785,0.00
maze512-1-0.map,maze512-1-0.map.scen,4,BFS,1.0,8556,True,3423.0000,3423.0,103999,90.5984,0.00
maze512-1-0.map,maze512-1-0.map.scen,4,BFS,1.0,8580,True,3433.0000,3433.0,118459,101.3714,0.00
maze512-1-0.map,maze512-1-0.map.scen,4,BFS,1.0,8605,True,3440.0000,3440.0,126470,107.4537,0.00
maze512-1-0.map,maze512-1-0.map.scen,4,BFS,1.0,8629,True,3448.0000,3448.0,126498,108.6238,0.00
maze512-1-0.map,maze512-1-0.map.scen,4,BFS,1.0,8653,True,3463.0000,3463.0,125001,104.7182,0.00
maze512-1-0.map,maze512-1-0.map.scen,4,BFS,1.0,8677,True,3471.0000,3471.0,125082,105.2575,0.00
maze512-1-0.map,maze512-1-0.map.scen,4,BFS,1.0,8702,True,3483.0000,3483.0,103581,88.6715,0.00
maze512-1-0.map,maze512-1-0.map.scen,4,BFS,1.0,8726,True,3488.0000,3488.0,74809,59.7778,0.00
maze512-1-0.map,maze512-1-0.map.scen,4,BFS,1.0,8750,True,3501.0000,3501.0,111311,99.0576,0.00
maze512-1-0.map,maze512-1-0.map.scen,4,BFS,1.0,8774,True,3510.0000,3510.0,70071,62.2261,0.00
maze512-1-0.map,maze512-1-0.map.scen,4,BFS,1.0,8799,True,3516.0000,3516.0,53298,50.0391,0.00
maze512-1-0.map,maze512-1-0.map.scen,4,BFS,1.0,8823,True,3530.0000,3530.0,102846,96.3301,0.00
maze512-1-0.map,maze512-1-0.map.scen,4,BFS,1.0,8847,True,3539.0000,3539.0,105207,102.8556,0.00
maze512-1-0.map,maze512-1-0.map.scen,4,BFS,1.0,8871,True,3550.0000,3550.0,41965,38.9748,0.00
maze512-1-0.map,maze512-1-0.map.scen,4,BFS,1.0,8896,True,3558.0000,3558.0,105599,98.5025,0.00
maze512-1-0.map,maze512-1-0.map.scen,4,BFS,1.0,8920,True,3569.0000,3569.0,105044,101.1742,0.00
maze512-1-0.map,maze512-1-0.map.scen,4,BFS,1.0,8944,True,3578.0000,3578.0,76173,71.0971,0.00
maze512-1-0.map,maze512-1-0.map.scen,4,BFS,1.0,8968,True,3586.0000,3586.0,120956,112.7220,0.00
maze512-1-0.map,maze512-1-0.map.scen,4,BFS,1.0,8993,True,3599.0000,3599.0,127712,116.8441,0.00
maze512-1-0.map,maze512-1-0.map.scen,4,BFS,1.0,9017,True,3604.0000,3604.0,122253,110.8950,0.00
maze512-1-0.map,maze512-1-0.map.scen,4,BFS,1.0,9041,True,3619.0000,3619.0,81961,73.8084,0.00
maze512-1-0.map,maze512-1-0.map.scen,4,BFS,1.0,9065,True,3624.0000,3624.0,105280,96.2452,0.00
maze512-1-0.map,maze512-1-0.map.scen,4,BFS,1.0,9090,True,3637.0000,3637.0,124488,116.9255,0.00
maze512-1-0.map,maze512-1-0.map.scen,4,BFS,1.0,9114,True,3647.0000,3647.0,124053,112.7234,0.00
maze512-1-0.map,maze512-1-0.map.scen,4,BFS,1.0,9138,True,3654.0000,3654.0,90611,86.0126,0.00
maze512-1-0.map,maze512-1-0.map.scen,4,BFS,1.0,9162,True,3666.0000,3666.0,93310,92.0958,0.00
maze512-1-0.map,maze512-1-0.map.scen,4,BFS,1.0,9186,True,3672.0000,3672.0,102539,98.5577,0.00
maze512-1-0.map,maze512-1-0.map.scen,4,BFS,1.0,9211,True,3685.0000,3685.0,123297,119.4245,0.00
maze512-1-0.map,maze512-1-0.map.scen,4,BFS,1.0,9235,True,3692.0000,3692.0,128933,118.4470,0.00
maze512-1-0.map,maze512-1-0.map.scen,4,BFS,1.0,9259,True,3702.0000,3702.0,92620,87.2209,0.00
maze512-1-0.map,maze512-1-0.map.scen,4,BFS,1.0,9283,True,3715.0000,3715.0,122109,112.0769,0.00
maze512-1-0.map,maze512-1-0.map.scen,4,BFS,1.0,9308,True,3721.0000,3721.0,113133,103.3297,0.00
maze512-1-0.map,maze512-1-0.map.scen,4,BFS,1.0,9332,True,3732.0000,3732.0,102704,97.8082,0.00
maze512-1-0.map,maze512-1-0.map.scen,4,BFS,1.0,9356,True,3743.0000,3743.0,126297,115.2740,0.00
maze512-1-0.map,maze512-1-0.map.scen,4,BFS,1.0,9380,True,3755.0000,3755.0,121002,115.2271,0.00
maze512-1-0.map,maze512-1-0.map.scen,4,BFS,1.0,9405,True,3760.0000,3760.0,77477,70.6080,0.00
maze512-1-0.map,maze512-1-0.map.scen,4,BFS,1.0,9429,True,3771.0000,3771.0,126110,118.1212,0.00
maze512-1-0.map,maze512-1-0.map.scen,4,BFS,1.0,9453,True,3782.0000,3782.0,128312,118.9386,0.00
maze512-1-0.map,maze512-1-0.map.scen,4,BFS,1.0,9477,True,3791.0000,3791.0,128445,117.2664,0.00
maze512-1-0.map,maze512-1-0.map.scen,4,BFS,1.0,9502,True,3800.0000,3800.0,125925,114.6386,0.00
maze512-1-0.map,maze512-1-0.map.scen,4,BFS,1.0,9526,True,3809.0000,3809.0,114016,105.2281,0.00
maze512-1-0.map,maze512-1-0.map.scen,4,BFS,1.0,9550,True,3820.0000,3820.0,104180,97.5053,0.00
maze512-1-0.map,maze512-1-0.map.scen,4,BFS,1.0,9574,True,3829.0000,3829.0,79061,72.7132,0.00
maze512-1-0.map,maze512-1-0.map.scen,4,BFS,1.0,9599,True,3839.0000,3839.0,115224,108.6555,0.00
maze512-1-0.map,maze512-1-0.map.scen,4,BFS,1.0,9623,True,3849.0000,3849.0,66336,59.4548,0.00
maze512-1-0.map,maze512-1-0.map.scen,4,BFS,1.0,9647,True,3858.0000,3858.0,117222,108.3783,0.00
maze512-1-0.map,maze512-1-0.map.scen,4,BFS,1.0,9671,True,3870.0000,3870.0,123254,112.5684,0.00
maze512-1-0.map,maze512-1-0.map.scen,4,BFS,1.0,9696,True,3879.0000,3879.0,125844,114.5332,0.00
maze512-1-0.map,maze512-1-0.map.scen,4,BFS,1.0,9720,True,3888.0000,3888.0,115456,106.3653,0.00
maze512-1-0.map,maze512-1-0.map.scen,4,BFS,1.0,9744,True,3898.0000,3898.0,103822,97.8113,0.00
maze512-1-0.map,maze512-1-0.map.scen,4,BFS,1.0,9768,True,3907.0000,3907.0,127658,117.9780,0.00
maze512-1-0.map,maze512-1-0.map.scen,4,BFS,1.0,9792,True,3917.0000,3917.0,112302,105.0315,0.00
maze512-1-0.map,maze512-1-0.map.scen,4,BFS,1.0,9817,True,3926.0000,3926.0,118151,108.4607,0.00
maze512-1-0.map,maze512-1-0.map.scen,4,BFS,1.0,9841,True,3939.0000,3939.0,115743,109.1102,0.00
maze512-1-0.map,maze512-1-0.map.scen,4,BFS,1.0,9865,True,3946.0000,3946.0,120316,109.4797,0.00
maze512-1-0.map,maze512-1-0.map.scen,4,BFS,1.0,9889,True,3954.0000,3954.0,48603,44.3829,0.00
maze512-1-0.map,maze512-1-0.map.scen,4,BFS,1.0,9914,True,3966.0000,3966.0,113076,107.1032,0.00
maze512-1-0.map,maze512-1-0.map.scen,4,BFS,1.0,9938,True,3972.0000,3972.0,127220,117.2161,0.00
maze512-1-0.map,maze512-1-0.map.scen,4,BFS,1.0,9962,True,3986.0000,3986.0,61139,54.6994,0.00
maze512-1-0.map,maze512-1-0.map.scen,4,BFS,1.0,9986,True,3995.0000,3995.0,114203,106.8720,0.00
maze512-1-0.map,maze512-1-0.map.scen,4,BFS,1.0,10011,True,4005.0000,4005.0,122933,127.2532,0.00
maze512-1-0.map,maze512-1-0.map.scen,4,BFS,1.0,10035,True,4015.0000,4015.0,119931,119.6397,0.00
maze512-1-0.map,maze512-1-0.map.scen,4,BFS,1.0,10059,True,4021.0000,4021.0,84783,77.0936,0.00
maze512-1-0.map,maze512-1-0.map.scen,4,BFS,1.0,10083,True,4032.0000,4032.0,107737,103.3286,0.00
maze512-1-0.map,maze512-1-0.map.scen,4,BFS,1.0,10108,True,4042.0000,4042.0,45677,44.5434,0.00
maze512-1-0.map,maze512-1-0.map.scen,4,BFS,1.0,10132,True,4055.0000,4055.0,80089,80.7394,0.00
maze512-1-0.map,maze512-1-0.map.scen,4,BFS,1.0,10156,True,4062.0000,4062.0,99877,96.1242,0.00
maze512-1-0.map,maze512-1-0.map.scen,4,BFS,1.0,10180,True,4073.0000,4073.0,127788,117.6735,0.00
maze512-1-0.map,maze512-1-0.map.scen,4,BFS,1.0,10205,True,4081.0000,4081.0,128950,117.3865,0.00
maze512-1-0.map,maze512-1-0.map.scen,4,BFS,1.0,10229,True,4090.0000,4090.0,91286,85.4555,0.00
maze512-1-0.map,maze512-1-0.map.scen,4,BFS,1.0,10253,True,4101.0000,4101.0,109467,105.4980,0.00
maze512-1-0.map,maze512-1-0.map.scen,4,BFS,1.0,10277,True,4108.0000,4108.0,129117,121.6834,0.00
maze512-1-0.map,maze512-1-0.map.scen,4,BFS,1.0,10302,True,4120.0000,4120.0,122303,112.8169,0.00
maze512-1-0.map,maze512-1-0.map.scen,4,BFS,1.0,10326,True,4128.0000,4128.0,84053,75.2143,0.00
maze512-1-0.map,maze512-1-0.map.scen,4,BFS,1.0,10350,True,4143.0000,4143.0,113378,107.0053,0.00
maze512-1-0.map,maze512-1-0.map.scen,4,BFS,1.0,10374,True,4148.0000,4148.0,66168,60.2490,0.00
maze512-1-0.map,maze512-1-0.map.scen,4,BFS,1.0,10398,True,4159.0000,4159.0,129343,122.6032,0.00
maze512-1-0.map,maze512-1-0.map.scen,4,BFS,1.0,10423,True,4170.0000,4170.0,124262,115.1008,0.00
maze512-1-0.map,maze512-1-0.map.scen,4,BFS,1.0,10447,True,4176.0000,4176.0,96512,90.5421,0.00
maze512-1-0.map,maze512-1-0.map.scen,4,BFS,1.0,10471,True,4191.0000,4191.0,123749,113.0364,0.00
maze512-1-0.map,maze512-1-0.map.scen,4,BFS,1.0,10495,True,4198.0000,4198.0,123066,115.8006,0.00
maze512-1-0.map,maze512-1-0.map.scen,4,BFS,1.0,10520,True,4210.0000,4210.0,111878,104.1339,0.00
maze512-1-0.map,maze512-1-0.map.scen,4,BFS,1.0,10544,True,4217.0000,4217.0,59761,54.1488,0.00
maze512-1-0.map,maze512-1-0.map.scen,4,BFS,1.0,10568,True,4226.0000,4226.0,129534,118.6516,0.00
maze512-1-0.map,maze512-1-0.map.scen,4,BFS,1.0,10592,True,4238.0000,4238.0,128117,118.3993,0.00
maze512-1-0.map,maze512-1-0.map.scen,4,BFS,1.0,10617,True,4244.0000,4244.0,50796,46.0982,0.00
maze512-1-0.map,maze512-1-0.map.scen,4,BFS,1.0,10641,True,4259.0000,4259.0,122414,113.2383,0.00
maze512-1-0.map,maze512-1-0.map.scen,4,BFS,1.0,10665,True,4266.0000,4266.0,127172,117.8367,0.00
maze512-1-0.map,maze512-1-0.map.scen,4,BFS,1.0,10689,True,4273.0000,4273.0,118803,109.9815,0.00
maze512-1-0.map,maze512-1-0.map.scen,4,BFS,1.0,10714,True,4286.0000,4286.0,85603,81.4107,0.00
maze512-1-0.map,maze512-1-0.map.scen,4,BFS,1.0,10738,True,4294.0000,4294.0,72459,65.3061,0.00
maze512-1-0.map,maze512-1-0.map.scen,4,BFS,1.0,10762,True,4306.0000,4306.0,129343,122.5189,0.00
maze512-1-0.map,maze512-1-0.map.scen,4,BFS,1.0,10786,True,4315.0000,4315.0,111654,104.6775,0.00
maze512-1-0.map,maze512-1-0.map.scen,4,BFS,1.0,10811,True,4325.0000,4325.0,121306,111.9215,0.00
maze512-1-0.map,maze512-1-0.map.scen,4,BFS,1.0,10835,True,4333.0000,4333.0,113501,106.0744,0.00
maze512-1-0.map,maze512-1-0.map.scen,4,BFS,1.0,10859,True,4341.0000,4341.0,59087,53.9336,0.00
maze512-1-0.map,maze512-1-0.map.scen,4,BFS,1.0,10883,True,4352.0000,4352.0,129662,120.0472,0.00
maze512-1-0.map,maze512-1-0.map.scen,4,BFS,1.0,10908,True,4360.0000,4360.0,127755,119.0442,0.00
maze512-1-0.map,maze512-1-0.map.scen,4,BFS,1.0,10932,True,4375.0000,4375.0,71969,66.2571,0.00
maze512-1-0.map,maze512-1-0.map.scen,4,BFS,1.0,10956,True,4381.0000,4381.0,131057,121.7826,0.00
maze512-1-0.map,maze512-1-0.map.scen,4,BFS,1.0,10980,True,4393.0000,4393.0,123208,128.8943,0.00
maze512-1-0.map,maze512-1-0.map.scen,4,BFS,1.0,11004,True,4403.0000,4403.0,120372,117.3289,0.00
maze512-1-0.map,maze512-1-0.map.scen,4,BFS,1.0,11029,True,4408.0000,4408.0,124215,115.4439,0.00
maze512-1-0.map,maze512-1-0.map.scen,4,BFS,1.0,11053,True,4421.0000,4421.0,112506,108.9116,0.00
maze512-1-0.map,maze512-1-0.map.scen,4,BFS,1.0,11077,True,4430.0000,4430.0,69343,68.2241,0.00
maze512-1-0.map,maze512-1-0.map.scen,4,BFS,1.0,11101,True,4441.0000,4441.0,130423,121.8969,0.00
maze512-1-0.map,maze512-1-0.map.scen,4,BFS,1.0,11126,True,4451.0000,4451.0,127971,121.0330,0.00
maze512-1-0.map,maze512-1-0.map.scen,4,BFS,1.0,11150,True,4463.0000,4463.0,131010,121.2570,0.00
maze512-1-0.map,maze512-1-0.map.scen,4,BFS,1.0,11174,True,4471.0000,4471.0,109430,103.2098,0.00
maze512-1-0.map,maze512-1-0.map.scen,4,BFS,1.0,11198,True,4476.0000,4476.0,125783,118.8853,0.00
maze512-1-0.map,maze512-1-0.map.scen,4,BFS,1.0,11223,True,4488.0000,4488.0,103977,98.3770,0.00
maze512-1-0.map,maze512-1-0.map.scen,4,BFS,1.0,11247,True,4498.0000,4498.0,130097,118.2320,0.00
maze512-1-0.map,maze512-1-0.map.scen,4,BFS,1.0,11271,True,4510.0000,4510.0,130397,120.5675,0.00
maze512-1-0.map,maze512-1-0.map.scen,4,BFS,1.0,11295,True,4517.0000,4517.0,126703,117.0147,0.00
maze512-1-0.map,maze512-1-0.map.scen,4,BFS,1.0,11320,True,4529.0000,4529.0,79911,72.2622,0.00
maze512-1-0.map,maze512-1-0.map.scen,4,BFS,1.0,11344,True,4538.0000,4538.0,123614,116.3962,0.00
maze512-1-0.map,maze512-1-0.map.scen,4,BFS,1.0,11368,True,4545.0000,4545.0,102908,97.5181,0.00
maze512-1-0.map,maze512-1-0.map.scen,4,BFS,1.0,11392,True,4557.0000,4557.0,81309,73.7645,0.00
maze512-1-0.map,maze512-1-0.map.scen,4,BFS,1.0,11417,True,4564.0000,4564.0,124865,121.0597,0.00
maze512-1-0.map,maze512-1-0.map.scen,4,BFS,1.0,11441,True,4576.0000,4576.0,127535,118.1280,0.00
maze512-1-0.map,maze512-1-0.map.scen,4,BFS,1.0,11465,True,4586.0000,4586.0,75346,67.9713,0.00
maze512-1-0.map,maze512-1-0.map.scen,4,BFS,1.0,11489,True,4595.0000,4595.0,130445,120.9943,0.00
maze512-1-0.map,maze512-1-0.map.scen,4,BFS,1.0,11514,True,4607.0000,4607.0,126666,119.7636,0.00
maze512-1-0.map,maze512-1-0.map.scen,4,BFS,1.0,11538,True,4613.0000,4613.0,95221,93.6785,0.00
maze512-1-0.map,maze512-1-0.map.scen,4,BFS,1.0,11562,True,4624.0000,4624.0,129776,123.6164,0.00
maze512-1-0.map,maze512-1-0.map.scen,4,BFS,1.0,11586,True,4633.0000,4633.0,130345,121.2287,0.00
maze512-1-0.map,maze512-1-0.map.scen,4,BFS,1.0,11610,True,4644.0000,4644.0,128808,121.3511,0.00
maze512-1-0.map,maze512-1-0.map.scen,4,BFS,1.0,11635,True,4654.0000,4654.0,119543,110.7932,0.00
maze512-1-0.map,maze512-1-0.map.scen,4,BFS,1.0,11659,True,4660.0000,4660.0,130821,121.9016,0.00
maze512-1-0.map,maze512-1-0.map.scen,4,BFS,1.0,11683,True,4674.0000,4674.0,129855,119.0829,0.00
maze512-1-0.map,maze512-1-0.map.scen,4,BFS,1.0,11707,True,4680.0000,4680.0,125957,117.6818,0.00
maze512-1-0.map,maze512-1-0.map.scen,4,BFS,1.0,11732,True,4692.0000,4692.0,108260,100.3210,0.00
maze512-1-0.map,maze512-1-0.map.scen,4,BFS,1.0,11756,True,4700.0000,4700.0,96180,92.5039,0.00
maze512-1-0.map,maze512-1-0.map.scen,4,BFS,1.0,11780,True,4712.0000,4712.0,129839,120.7476,0.00
maze512-1-0.map,maze512-1-0.map.scen,4,BFS,1.0,11804,True,4721.0000,4721.0,101828,95.5946,0.00
maze512-1-0.map,maze512-1-0.map.scen,4,BFS,1.0,11829,True,4729.0000,4729.0,130459,119.9642,0.00
maze512-1-0.map,maze512-1-0.map.scen,4,BFS,1.0,11853,True,4741.0000,4741.0,118368,108.9593,0.00
maze512-1-0.map,maze512-1-0.map.scen,4,BFS,1.0,11877,True,4750.0000,4750.0,120177,109.5531,0.00
maze512-1-0.map,maze512-1-0.map.scen,4,BFS,1.0,11901,True,4762.0000,4762.0,126415,116.8849,0.00
maze512-1-0.map,maze512-1-0.map.scen,4,BFS,1.0,11926,True,4768.0000,4768.0,124110,113.2406,0.00
maze512-1-0.map,maze512-1-0.map.scen,4,BFS,1.0,11950,True,4780.0000,4780.0,130654,122.3221,0.00
maze512-1-0.map,maze512-1-0.map.scen,4,BFS,1.0,11974,True,4790.0000,4790.0,130432,120.6291,0.00
maze512-1-0.map,maze512-1-0.map.scen,4,BFS,1.0,11998,True,4797.0000,4797.0,126364,118.4523,0.00
maze512-1-0.map,maze512-1-0.map.scen,4,BFS,1.0,12023,True,4811.0000,4811.0,129799,122.4324,0.00
maze512-1-0.map,maze512-1-0.map.scen,4,BFS,1.0,12047,True,4819.0000,4819.0,119980,112.3690,0.00
maze512-1-0.map,maze512-1-0.map.scen,4,BFS,1.0,12071,True,4828.0000,4828.0,128170,119.8238,0.00
maze512-1-0.map,maze512-1-0.map.scen,4,BFS,1.0,12095,True,4837.0000,4837.0,127489,118.4037,0.00
maze512-1-0.map,maze512-1-0.map.scen,4,Dijkstra,1.0,0,True,2.0000,2.0,4,0.0143,0.00
maze512-1-0.map,maze512-1-0.map.scen,4,Dijkstra,1.0,24,True,8.0000,8.0,18,0.0304,0.00
maze512-1-0.map,maze512-1-0.map.scen,4,Dijkstra,1.0,48,True,19.0000,19.0,53,0.0717,0.00
maze512-1-0.map,maze512-1-0.map.scen,4,Dijkstra,1.0,72,True,31.0000,31.0,112,0.1663,0.00
maze512-1-0.map,maze512-1-0.map.scen,4,Dijkstra,1.0,96,True,37.0000,37.0,116,0.1507,0.00
maze512-1-0.map,maze512-1-0.map.scen,4,Dijkstra,1.0,121,True,48.0000,48.0,271,0.4103,0.00
maze512-1-0.map,maze512-1-0.map.scen,4,Dijkstra,1.0,145,True,58.0000,58.0,245,0.3587,0.00
maze512-1-0.map,maze512-1-0.map.scen,4,Dijkstra,1.0,169,True,66.0000,66.0,199,0.2832,0.00
maze512-1-0.map,maze512-1-0.map.scen,4,Dijkstra,1.0,193,True,79.0000,79.0,276,0.4069,0.00
maze512-1-0.map,maze512-1-0.map.scen,4,Dijkstra,1.0,218,True,85.0000,85.0,224,0.3078,0.00
maze512-1-0.map,maze512-1-0.map.scen,4,Dijkstra,1.0,242,True,99.0000,99.0,354,0.5609,0.00
maze512-1-0.map,maze512-1-0.map.scen,4,Dijkstra,1.0,266,True,107.0000,107.0,517,0.7331,0.00
maze512-1-0.map,maze512-1-0.map.scen,4,Dijkstra,1.0,290,True,117.0000,117.0,986,1.4139,0.00
maze512-1-0.map,maze512-1-0.map.scen,4,Dijkstra,1.0,315,True,125.0000,125.0,459,0.7011,0.00
maze512-1-0.map,maze512-1-0.map.scen,4,Dijkstra,1.0,339,True,134.0000,134.0,639,0.9226,0.00
maze512-1-0.map,maze512-1-0.map.scen,4,Dijkstra,1.0,363,True,145.0000,145.0,1546,2.3000,0.00
maze512-1-0.map,maze512-1-0.map.scen,4,Dijkstra,1.0,387,True,155.0000,155.0,687,1.0281,0.00
maze512-1-0.map,maze512-1-0.map.scen,4,Dijkstra,1.0,412,True,166.0000,166.0,769,1.0883,0.00
maze512-1-0.map,maze512-1-0.map.scen,4,Dijkstra,1.0,436,True,173.0000,173.0,506,0.7325,0.00
maze512-1-0.map,maze512-1-0.map.scen,4,Dijkstra,1.0,460,True,185.0000,185.0,1614,2.3320,0.00
maze512-1-0.map,maze512-1-0.map.scen,4,Dijkstra,1.0,484,True,194.0000,194.0,546,0.8244,0.00
maze512-1-0.map,maze512-1-0.map.scen,4,Dijkstra,1.0,509,True,203.0000,203.0,663,0.9836,0.00
maze512-1-0.map,maze512-1-0.map.scen,4,Dijkstra,1.0,533,True,214.0000,214.0,703,1.0079,0.00
maze512-1-0.map,maze512-1-0.map.scen,4,Dijkstra,1.0,557,True,220.0000,220.0,957,1.3342,0.00
maze512-1-0.map,maze512-1-0.map.scen,4,Dijkstra,1.0,581,True,232.0000,232.0,2047,2.9700,0.00
maze512-1-0.map,maze512-1-0.map.scen,4,Dijkstra,1.0,606,True,240.0000,240.0,424,0.6343,0.00
maze512-1-0.map,maze512-1-0.map.scen,4,Dijkstra,1.0,630,True,252.0000,252.0,1569,2.2036,0.00
maze512-1-0.map,maze512-1-0.map.scen,4,Dijkstra,1.0,654,True,262.0000,262.0,861,1.2657,0.00
maze512-1-0.map,maze512-1-0.map.scen,4,Dijkstra,1.0,678,True,271.0000,271.0,2007,2.8664,0.00
maze512-1-0.map,maze512-1-0.map.scen,4,Dijkstra,1.0,702,True,280.0000,280.0,1736,2.6009,0.00
maze512-1-0.map,maze512-1-0.map.scen,4,Dijkstra,1.0,727,True,289.0000,289.0,1833,2.6153,0.00
maze512-1-0.map,maze512-1-0.map.scen,4,Dijkstra,1.0,751,True,303.0000,303.0,1406,2.0931,0.00
maze512-1-0.map,maze512-1-0.map.scen,4,Dijkstra,1.0,775,True,311.0000,311.0,1412,2.0420,0.00
maze512-1-0.map,maze512-1-0.map.scen,4,Dijkstra,1.0,799,True,319.0000,319.0,813,1.1653,0.00
maze512-1-0.map,maze512-1-0.map.scen,4,Dijkstra,1.0,824,True,328.0000,328.0,3205,4.5788,0.00
maze512-1-0.map,maze512-1-0.map.scen,4,Dijkstra,1.0,848,True,336.0000,336.0,1058,1.4463,0.00
maze512-1-0.map,maze512-1-0.map.scen,4,Dijkstra,1.0,872,True,351.0000,351.0,1753,2.5147,0.00
maze512-1-0.map,maze512-1-0.map.scen,4,Dijkstra,1.0,896,True,357.0000,357.0,1720,2.4214,0.00
maze512-1-0.map,maze512-1-0.map.scen,4,Dijkstra,1.0,921,True,371.0000,371.0,5184,7.8522,0.00
maze512-1-0.map,maze512-1-0.map.scen,4,Dijkstra,1.0,945,True,378.0000,378.0,893,1.2619,0.00
maze512-1-0.map,maze512-1-0.map.scen,4,Dijkstra,1.0,969,True,384.0000,384.0,1448,1.9694,0.00
maze512-1-0.map,maze512-1-0.map.scen,4,Dijkstra,1.0,993,True,396.0000,396.0,1233,1.8752,0.00
maze512-1-0.map,maze512-1-0.map.scen,4,Dijkstra,1.0,1018,True,406.0000,406.0,5104,7.6553,0.00
maze512-1-0.map,maze512-1-0.map.scen,4,Dijkstra,1.0,1042,True,416.0000,416.0,7829,11.7380,0.00
maze512-1-0.map,maze512-1-0.map.scen,4,Dijkstra,1.0,1066,True,427.0000,427.0,7412,11.0927,0.00
maze512-1-0.map,maze512-1-0.map.scen,4,Dijkstra,1.0,1090,True,437.0000,437.0,6008,9.1049,0.00
maze512-1-0.map,maze512-1-0.map.scen,4,Dijkstra,1.0,1115,True,446.0000,446.0,3340,4.6609,0.00
maze512-1-0.map,maze512-1-0.map.scen,4,Dijkstra,1.0,1139,True,452.0000,452.0,4810,6.9906,0.00
maze512-1-0.map,maze512-1-0.map.scen,4,Dijkstra,1.0,1163,True,467.0000,467.0,3646,5.3580,0.00
maze512-1-0.map,maze512-1-0.map.scen,4,Dijkstra,1.0,1187,True,472.0000,472.0,2492,3.5887,0.00
maze512-1-0.map,maze512-1-0.map.scen,4,Dijkstra,1.0,1212,True,484.0000,484.0,6125,8.9010,0.00
maze512-1-0.map,maze512-1-0.map.scen,4,Dijkstra,1.0,1236,True,492.0000,492.0,5484,7.9794,0.00
maze512-1-0.map,maze512-1-0.map.scen,4,Dijkstra,1.0,1260,True,505.0000,505.0,7708,11.4588,0.00
maze512-1-0.map,maze512-1-0.map.scen,4,Dijkstra,1.0,1284,True,514.0000,514.0,4466,6.4913,0.00
maze512-1-0.map,maze512-1-0.map.scen,4,Dijkstra,1.0,1308,True,521.0000,521.0,2535,3.7127,0.00
maze512-1-0.map,maze512-1-0.map.scen,4,Dijkstra,1.0,1333,True,532.0000,532.0,5271,7.7754,0.00
maze512-1-0.map,maze512-1-0.map.scen,4,Dijkstra,1.0,1357,True,543.0000,543.0,4150,5.9167,0.00
maze512-1-0.map,maze512-1-0.map.scen,4,Dijkstra,1.0,1381,True,552.0000,552.0,9423,14.1636,0.00
maze512-1-0.map,maze512-1-0.map.scen,4,Dijkstra,1.0,1405,True,561.0000,561.0,3282,4.5722,0.00
maze512-1-0.map,maze512-1-0.map.scen,4,Dijkstra,1.0,1430,True,574.0000,574.0,6671,9.8234,0.00
maze512-1-0.map,maze512-1-0.map.scen,4,Dijkstra,1.0,1454,True,581.0000,581.0,2460,3.4880,0.00
maze512-1-0.map,maze512-1-0.map.scen,4,Dijkstra,1.0,1478,True,588.0000,588.0,5745,8.4285,0.00
maze512-1-0.map,maze512-1-0.map.scen,4,Dijkstra,1.0,1502,True,600.0000,600.0,21878,33.5952,0.00
maze512-1-0.map,maze512-1-0.map.scen,4,Dijkstra,1.0,1527,True,608.0000,608.0,5110,7.4803,0.00
maze512-1-0.map,maze512-1-0.map.scen,4,Dijkstra,1.0,1551,True,620.0000,620.0,8720,12.9684,0.00
maze512-1-0.map,maze512-1-0.map.scen,4,Dijkstra,1.0,1575,True,629.0000,629.0,21865,33.4828,0.00
maze512-1-0.map,maze512-1-0.map.scen,4,Dijkstra,1.0,1599,True,638.0000,638.0,9384,13.8198,0.00
maze512-1-0.map,maze512-1-0.map.scen,4,Dijkstra,1.0,1624,True,648.0000,648.0,10760,16.3983,0.00
maze512-1-0.map,maze512-1-0.map.scen,4,Dijkstra,1.0,1648,True,658.0000,658.0,16977,25.3512,0.00
maze512-1-0.map,maze512-1-0.map.scen,4,Dijkstra,1.0,1672,True,671.0000,671.0,10006,14.2840,0.00
maze512-1-0.map,maze512-1-0.map.scen,4,Dijkstra,1.0,1696,True,678.0000,678.0,3549,5.0436,0.00
maze512-1-0.map,maze512-1-0.map.scen,4,Dijkstra,1.0,1721,True,691.0000,691.0,22922,35.0669,0.00
maze512-1-0.map,maze512-1-0.map.scen,4,Dijkstra,1.0,1745,True,697.0000,697.0,12750,18.8427,0.00
maze512-1-0.map,maze512-1-0.map.scen,4,Dijkstra,1.0,1769,True,707.0000,707.0,4433,6.1820,0.00
maze512-1-0.map,maze512-1-0.map.scen,4,Dijkstra,1.0,1793,True,718.0000,718.0,8164,11.8024,0.00
maze512-1-0.map,maze512-1-0.map.scen,4,Dijkstra,1.0,1817,True,727.0000,727.0,3251,4.5793,0.00
maze512-1-0.map,maze512-1-0.map.scen,4,Dijkstra,1.0,1842,True,737.0000,737.0,4237,5.8832,0.00
maze512-1-0.map,maze512-1-0.map.scen,4,Dijkstra,1.0,1866,True,746.0000,746.0,10617,15.9018,0.00
maze512-1-0.map,maze512-1-0.map.scen,4,Dijkstra,1.0,1890,True,757.0000,757.0,29592,44.7164,0.00
maze512-1-0.map,maze512-1-0.map.scen,4,Dijkstra,1.0,1914,True,765.0000,765.0,5831,8.4737,0.00
maze512-1-0.map,maze512-1-0.map.scen,4,Dijkstra,1.0,1939,True,775.0000,775.0,8260,12.0096,0.00
maze512-1-0.map,maze512-1-0.map.scen,4,Dijkstra,1.0,1963,True,784.0000,784.0,12605,18.6019,0.00
maze512-1-0.map,maze512-1-0.map.scen,4,Dijkstra,1.0,1987,True,795.0000,795.0,34117,51.9143,0.00
maze512-1-0.map,maze512-1-0.map.scen,4,Dijkstra,1.0,2011,True,806.0000,806.0,11576,17.1846,0.00
maze512-1-0.map,maze512-1-0.map.scen,4,Dijkstra,1.0,2036,True,812.0000,812.0,23556,36.8865,0.00
maze512-1-0.map,maze512-1-0.map.scen,4,Dijkstra,1.0,2060,True,825.0000,825.0,3165,4.3706,0.00
maze512-1-0.map,maze512-1-0.map.scen,4,Dijkstra,1.0,2084,True,834.0000,834.0,20796,31.4531,0.00
maze512-1-0.map,maze512-1-0.map.scen,4,Dijkstra,1.0,2108,True,842.0000,842.0,26315,39.8090,0.00
maze512-1-0.map,maze512-1-0.map.scen,4,Dijkstra,1.0,2133,True,855.0000,855.0,7663,11.2935,0.00
maze512-1-0.map,maze512-1-0.map.scen,4,Dijkstra,1.0,2157,True,861.0000,861.0,21293,31.9014,0.00
maze512-1-0.map,maze512-1-0.map.scen,4,Dijkstra,1.0,2181,True,874.0000,874.0,12908,19.8230,0.00
maze512-1-0.map,maze512-1-0.map.scen,4,Dijkstra,1.0,2205,True,881.0000,881.0,26135,40.2193,0.00
maze512-1-0.map,maze512-1-0.map.scen,4,Dijkstra,1.0,2230,True,893.0000,893.0,13088,18.7379,0.00
maze512-1-0.map,maze512-1-0.map.scen,4,Dijkstra,1.0,2254,True,903.0000,903.0,18812,26.8629,0.00
maze512-1-0.map,maze512-1-0.map.scen,4,Dijkstra,1.0,2278,True,911.0000,911.0,6658,9.3913,0.00
maze512-1-0.map,maze512-1-0.map.scen,4,Dijkstra,1.0,2302,True,923.0000,923.0,36470,55.0974,0.00
maze512-1-0.map,maze512-1-0.map.scen,4,Dijkstra,1.0,2327,True,930.0000,930.0,17610,25.8647,0.00
maze512-1-0.map,maze512-1-0.map.scen,4,Dijkstra,1.0,2351,True,940.0000,940.0,7643,10.9273,0.00
maze512-1-0.map,maze512-1-0.map.scen,4,Dijkstra,1.0,2375,True,949.0000,949.0,41182,63.3769,0.00
maze512-1-0.map,maze512-1-0.map.scen,4,Dijkstra,1.0,2399,True,958.0000,958.0,54918,85.8213,0.00
maze512-1-0.map,maze512-1-0.map.scen,4,Dijkstra,1.0,2424,True,968.0000,968.0,14063,20.9874,0.00
maze512-1-0.map,maze512-1-0.map.scen,4,Dijkstra,1.0,2448,True,977.0000,977.0,7680,10.9833,0.00
maze512-1-0.map,maze512-1-0.map.scen,4,Dijkstra,1.0,2472,True,990.0000,990.0,49036,78.6435,0.00
maze512-1-0.map,maze512-1-0.map.scen,4,Dijkstra,1.0,2496,True,997.0000,997.0,25491,39.5097,0.00
maze512-1-0.map,maze512-1-0.map.scen,4,Dijkstra,1.0,2520,True,1009.0000,1009.0,12977,19.0385,0.00
maze512-1-0.map,maze512-1-0.map.scen,4,Dijkstra,1.0,2545,True,1017.0000,1017.0,18052,26.7291,0.00
maze512-1-0.map,maze512-1-0.map.scen,4,Dijkstra,1.0,2569,True,1026.0000,1026.0,29248,44.6147,0.00
maze512-1-0.map,maze512-1-0.map.scen,4,Dijkstra,1.0,2593,True,1036.0000,1036.0,24089,37.0353,0.00
maze512-1-0.map,maze512-1-0.map.scen,4,Dijkstra,1.0,2617,True,1047.0000,1047.0,23242,34.7582,0.00
maze512-1-0.map,maze512-1-0.map.scen,4,Dijkstra,1.0,2642,True,1058.0000,1058.0,5077,7.3211,0.00
maze512-1-0.map,maze512-1-0.map.scen,4,Dijkstra,1.0,2666,True,1067.0000,1067.0,20142,30.1004,0.00
maze512-1-0.map,maze512-1-0.map.scen,4,Dijkstra,1.0,2690,True,1076.0000,1076.0,11484,17.2609,0.00
maze512-1-0.map,maze512-1-0.map.scen,4,Dijkstra,1.0,2714,True,1084.0000,1084.0,53418,84.0000,0.00
maze512-1-0.map,maze512-1-0.map.scen,4,Dijkstra,1.0,2739,True,1092.0000,1092.0,28998,43.7100,0.00
maze512-1-0.map,maze512-1-0.map.scen,4,Dijkstra,1.0,2763,True,1106.0000,1106.0,39785,62.8191,0.00
maze512-1-0.map,maze512-1-0.map.scen,4,Dijkstra,1.0,2787,True,1115.0000,1115.0,51830,81.3169,0.00
maze512-1-0.map,maze512-1-0.map.scen,4,Dijkstra,1.0,2811,True,1126.0000,1126.0,27893,41.1528,0.00
maze512-1-0.map,maze512-1-0.map.scen,4,Dijkstra,1.0,2836,True,1133.0000,1133.0,18902,27.2894,0.00
maze512-1-0.map,maze512-1-0.map.scen,4,Dijkstra,1.0,2860,True,1146.0000,1146.0,46772,73.0780,0.00
maze512-1-0.map,maze512-1-0.map.scen,4,Dijkstra,1.0,2884,True,1155.0000,1155.0,7427,10.4390,0.00
maze512-1-0.map,maze512-1-0.map.scen,4,Dijkstra,1.0,2908,True,1163.0000,1163.0,20970,32.1477,0.00
maze512-1-0.map,maze512-1-0.map.scen,4,Dijkstra,1.0,2933,True,1175.0000,1175.0,19738,28.7624,0.00
maze512-1-0.map,maze512-1-0.map.scen,4,Dijkstra,1.0,2957,True,1182.0000,1182.0,56664,88.1776,0.00
maze512-1-0.map,maze512-1-0.map.scen,4,Dijkstra,1.0,2981,True,1195.0000,1195.0,59042,92.6061,0.00
maze512-1-0.map,maze512-1-0.map.scen,4,Dijkstra,1.0,3005,True,1203.0000,1203.0,40733,60.9895,0.00
maze512-1-0.map,maze512-1-0.map.scen,4,Dijkstra,1.0,3030,True,1212.0000,1212.0,43391,68.1863,0.00
maze512-1-0.map,maze512-1-0.map.scen,4,Dijkstra,1.0,3054,True,1220.0000,1220.0,51278,81.2199,0.00
maze512-1-0.map,maze512-1-0.map.scen,4,Dijkstra,1.0,3078,True,1228.0000,1228.0,49662,75.5413,0.00
maze512-1-0.map,maze512-1-0.map.scen,4,Dijkstra,1.0,3102,True,1243.0000,1243.0,15236,21.9736,0.00
maze512-1-0.map,maze512-1-0.map.scen,4,Dijkstra,1.0,3126,True,1250.0000,1250.0,33478,50.6156,0.00
maze512-1-0.map,maze512-1-0.map.scen,4,Dijkstra,1.0,3151,True,1263.0000,1263.0,24952,37.6379,0.00
maze512-1-0.map,maze512-1-0.map.scen,4,Dijkstra,1.0,3175,True,1268.0000,1268.0,19131,27.6387,0.00
maze512-1-0.map,maze512-1-0.map.scen,4,Dijkstra,1.0,3199,True,1277.0000,1277.0,66447,102.8278,0.00
maze512-1-0.map,maze512-1-0.map.scen,4,Dijkstra,1.0,3223,True,1290.0000,1290.0,15675,22.6510,0.00
maze512-1-0.map,maze512-1-0.map.scen,4,Dijkstra,1.0,3248,True,1298.0000,1298.0,7506,10.8811,0.00
maze512-1-0.map,maze512-1-0.map.scen,4,Dijkstra,1.0,3272,True,1309.0000,1309.0,23143,35.0118,0.00
