MapName,Scenario,Connectivity,Algorithm,Weight,TaskID,Success,PathLength,OptimalLength,ExpandedNodes,TimeMS,Suboptimality
maze512-1-0.map,maze512-1-0.map.scen,4,BFS,1.0,0,True,2.0000,2.0,4,0.0320,0.00
maze512-1-0.map,maze512-1-0.map.scen,4,BFS,1.0,6,True,1.0000,1.0,3,0.0129,0.00
maze512-1-0.map,maze512-1-0.map.scen,4,BFS,1.0,12,True,7.0000,7.0,18,0.0554,0.00
maze512-1-0.map,maze512-1-0.map.scen,4,BFS,1.0,18,True,4.0000,4.0,9,0.0248,0.00
maze512-1-0.map,maze512-1-0.map.scen,4,BFS,1.0,24,True,8.0000,8.0,19,0.0515,0.00
maze512-1-0.map,maze512-1-0.map.scen,4,BFS,1.0,30,True,12.0000,12.0,26,0.0671,0.00
maze512-1-0.map,maze512-1-0.map.scen,4,BFS,1.0,36,True,15.0000,15.0,56,0.1774,0.00
maze512-1-0.map,maze512-1-0.map.scen,4,BFS,1.0,42,True,19.0000,19.0,46,0.1188,0.00
maze512-1-0.map,maze512-1-0.map.scen,4,BFS,1.0,48,True,19.0000,19.0,53,0.1476,0.00
maze512-1-0.map,maze512-1-0.map.scen,4,BFS,1.0,54,True,23.0000,23.0,42,0.1103,0.00
maze512-1-0.map,maze512-1-0.map.scen,4,BFS,1.0,60,True,27.0000,27.0,100,0.2707,0.00
maze512-1-0.map,maze512-1-0.map.scen,4,BFS,1.0,66,True,24.0000,24.0,91,0.2340,0.00
maze512-1-0.map,maze512-1-0.map.scen,4,BFS,1.0,72,True,31.0000,31.0,109,0.3004,0.00
maze512-1-0.map,maze512-1-0.map.scen,4,BFS,1.0,78,True,28.0000,28.0,55,0.1422,0.00
maze512-1-0.map,maze512-1-0.map.scen,4,BFS,1.0,84,True,34.0000,34.0,181,0.5028,0.00
maze512-1-0.map,maze512-1-0.map.scen,4,BFS,1.0,90,True,39.0000,39.0,152,0.3930,0.00
maze512-1-0.map,maze512-1-0.map.scen,4,BFS,1.0,96,True,37.0000,37.0,117,0.2608,0.00
maze512-1-0.map,maze512-1-0.map.scen,4,BFS,1.0,103,True,42.0000,42.0,110,0.2685,0.00
maze512-1-0.map,maze512-1-0.map.scen,4,BFS,1.0,109,True,41.0000,41.0,166,0.5015,0.00
maze512-1-0.map,maze512-1-0.map.scen,4,BFS,1.0,115,True,45.0000,45.0,147,0.3628,0.00
maze512-1-0.map,maze512-1-0.map.scen,4,BFS,1.0,121,True,48.0000,48.0,277,0.7010,0.00
maze512-1-0.map,maze512-1-0.map.scen,4,BFS,1.0,127,True,49.0000,49.0,169,0.4429,0.00
maze512-1-0.map,maze512-1-0.map.scen,4,BFS,1.0,133,True,55.0000,55.0,248,0.7024,0.00
maze512-1-0.map,maze512-1-0.map.scen,4,BFS,1.0,139,True,55.0000,55.0,222,0.5596,0.00
maze512-1-0.map,maze512-1-0.map.scen,4,BFS,1.0,145,True,58.0000,58.0,246,0.7168,0.00
maze512-1-0.map,maze512-1-0.map.scen,4,BFS,1.0,151,True,60.0000,60.0,233,0.6858,0.00
maze512-1-0.map,maze512-1-0.map.scen,4,BFS,1.0,157,True,60.0000,60.0,141,0.4902,0.00
maze512-1-0.map,maze512-1-0.map.scen,4,BFS,1.0,163,True,65.0000,65.0,298,0.9511,0.00
maze512-1-0.map,maze512-1-0.map.scen,4,BFS,1.0,169,True,66.0000,66.0,199,0.5480,0.00
maze512-1-0.map,maze512-1-0.map.scen,4,BFS,1.0,175,True,69.0000,69.0,323,1.0192,0.00
maze512-1-0.map,maze512-1-0.map.scen,4,BFS,1.0,181,True,72.0000,72.0,173,0.5039,0.00
maze512-1-0.map,maze512-1-0.map.scen,4,BFS,1.0,187,True,73.0000,73.0,188,0.5268,0.00
maze512-1-0.map,maze512-1-0.map.scen,4,BFS,1.0,193,True,79.0000,79.0,276,0.7514,0.00
maze512-1-0.map,maze512-1-0.map.scen,4,BFS,1.0,199,True,77.0000,77.0,292,0.8154,0.00
maze512-1-0.map,maze512-1-0.map.scen,4,BFS,1.0,206,True,82.0000,82.0,358,1.1214,0.00
maze512-1-0.map,maze512-1-0.map.scen,4,BFS,1.0,212,True,86.0000,86.0,258,0.7803,0.00
maze512-1-0.map,maze512-1-0.map.scen,4,BFS,1.0,218,True,85.0000,85.0,226,0.5942,0.00
maze512-1-0.map,maze512-1-0.map.scen,4,BFS,1.0,224,True,90.0000,90.0,308,0.9278,0.00
maze512-1-0.map,maze512-1-0.map.scen,4,BFS,1.0,230,True,92.0000,92.0,326,0.9723,0.00
maze512-1-0.map,maze512-1-0.map.scen,4,BFS,1.0,236,True,92.0000,92.0,293,0.9769,0.00
maze512-1-0.map,maze512-1-0.map.scen,4,BFS,1.0,242,True,99.0000,99.0,352,1.2076,0.00
maze512-1-0.map,maze512-1-0.map.scen,4,BFS,1.0,248,True,98.0000,98.0,513,1.4083,0.00
maze512-1-0.map,maze512-1-0.map.scen,4,BFS,1.0,254,True,101.0000,101.0,354,1.0230,0.00
maze512-1-0.map,maze512-1-0.map.scen,4,BFS,1.0,260,True,106.0000,106.0,600,1.5122,0.00
maze512-1-0.map,maze512-1-0.map.scen,4,BFS,1.0,266,True,107.0000,107.0,520,1.2707,0.00
maze512-1-0.map,maze512-1-0.map.scen,4,BFS,1.0,272,True,111.0000,111.0,599,1.5653,0.00
maze512-1-0.map,maze512-1-0.map.scen,4,BFS,1.0,278,True,109.0000,109.0,413,1.1368,0.00
maze512-1-0.map,maze512-1-0.map.scen,4,BFS,1.0,284,True,115.0000,115.0,214,0.6138,0.00
maze512-1-0.map,maze512-1-0.map.scen,4,BFS,1.0,290,True,117.0000,117.0,981,2.7659,0.00
maze512-1-0.map,maze512-1-0.map.scen,4,BFS,1.0,296,True,116.0000,116.0,303,0.9840,0.00
maze512-1-0.map,maze512-1-0.map.scen,4,BFS,1.0,303,True,121.0000,121.0,843,2.2764,0.00
maze512-1-0.map,maze512-1-0.map.scen,4,BFS,1.0,309,True,120.0000,120.0,396,1.0968,0.00
maze512-1-0.map,maze512-1-0.map.scen,4,BFS,1.0,315,True,125.0000,125.0,459,1.3100,0.00
maze512-1-0.map,maze512-1-0.map.scen,4,BFS,1.0,321,True,128.0000,128.0,468,1.3407,0.00
maze512-1-0.map,maze512-1-0.map.scen,4,BFS,1.0,327,True,131.0000,131.0,543,1.4247,0.00
maze512-1-0.map,maze512-1-0.map.scen,4,BFS,1.0,333,True,134.0000,134.0,640,1.5873,0.00
maze512-1-0.map,maze512-1-0.map.scen,4,BFS,1.0,339,True,134.0000,134.0,641,1.6310,0.00
maze512-1-0.map,maze512-1-0.map.scen,4,BFS,1.0,345,True,138.0000,138.0,248,0.6731,0.00
maze512-1-0.map,maze512-1-0.map.scen,4,BFS,1.0,351,True,141.0000,141.0,1793,5.1794,0.00
maze512-1-0.map,maze512-1-0.map.scen,4,BFS,1.0,357,True,140.0000,140.0,517,1.3913,0.00
maze512-1-0.map,maze512-1-0.map.scen,4,BFS,1.0,363,True,145.0000,145.0,1542,3.7240,0.00
maze512-1-0.map,maze512-1-0.map.scen,4,BFS,1.0,369,True,145.0000,145.0,402,1.0387,0.00
maze512-1-0.map,maze512-1-0.map.scen,4,BFS,1.0,375,True,150.0000,150.0,459,1.1820,0.00
maze512-1-0.map,maze512-1-0.map.scen,4,BFS,1.0,381,True,155.0000,155.0,897,2.3471,0.00
maze512-1-0.map,maze512-1-0.map.scen,4,BFS,1.0,387,True,155.0000,155.0,684,1.7030,0.00
maze512-1-0.map,maze512-1-0.map.scen,4,BFS,1.0,393,True,159.0000,159.0,1142,3.4945,0.00
maze512-1-0.map,maze512-1-0.map.scen,4,BFS,1.0,399,True,159.0000,159.0,851,2.2084,0.00
maze512-1-0.map,maze512-1-0.map.scen,4,BFS,1.0,406,True,161.0000,161.0,381,1.0649,0.00
maze512-1-0.map,maze512-1-0.map.scen,4,BFS,1.0,412,True,166.0000,166.0,769,2.0050,0.00
maze512-1-0.map,maze512-1-0.map.scen,4,BFS,1.0,418,True,164.0000,164.0,511,1.2331,0.00
maze512-1-0.map,maze512-1-0.map.scen,4,BFS,1.0,424,True,170.0000,170.0,1100,2.6294,0.00
maze512-1-0.map,maze512-1-0.map.scen,4,BFS,1.0,430,True,173.0000,173.0,1531,4.1729,0.00
maze512-1-0.map,maze512-1-0.map.scen,4,BFS,1.0,436,True,173.0000,173.0,508,1.4923,0.00
maze512-1-0.map,maze512-1-0.map.scen,4,BFS,1.0,442,True,176.0000,176.0,1287,2.8856,0.00
maze512-1-0.map,maze512-1-0.map.scen,4,BFS,1.0,448,True,176.0000,176.0,700,1.5821,0.00
maze512-1-0.map,maze512-1-0.map.scen,4,BFS,1.0,454,True,180.0000,180.0,1182,2.6745,0.00
maze512-1-0.map,maze512-1-0.map.scen,4,BFS,1.0,460,True,185.0000,185.0,1616,3.7310,0.00
maze512-1-0.map,maze512-1-0.map.scen,4,BFS,1.0,466,True,187.0000,187.0,713,1.6947,0.00
maze512-1-0.map,maze512-1-0.map.scen,4,BFS,1.0,472,True,188.0000,188.0,703,1.6121,0.00
maze512-1-0.map,maze512-1-0.map.scen,4,BFS,1.0,478,True,188.0000,188.0,1007,2.3605,0.00
maze512-1-0.map,maze512-1-0.map.scen,4,BFS,1.0,484,True,194.0000,194.0,546,1.4417,0.00
maze512-1-0.map,maze512-1-0.map.scen,4,BFS,1.0,490,True,199.0000,199.0,1486,3.3914,0.00
maze512-1-0.map,maze512-1-0.map.scen,4,BFS,1.0,496,True,198.0000,198.0,730,1.6442,0.00
maze512-1-0.map,maze512-1-0.map.scen,4,BFS,1.0,502,True,202.0000,202.0,1413,3.0555,0.00
maze512-1-0.map,maze512-1-0.map.scen,4,BFS,1.0,509,True,203.0000,203.0,663,1.6361,0.00
maze512-1-0.map,maze512-1-0.map.scen,4,BFS,1.0,515,True,205.0000,205.0,867,2.1363,0.00
maze512-1-0.map,maze512-1-0.map.scen,4,BFS,1.0,521,True,210.0000,210.0,2433,5.2982,0.00
maze512-1-0.map,maze512-1-0.map.scen,4,BFS,1.0,527,True,211.0000,211.0,526,1.3302,0.00
maze512-1-0.map,maze512-1-0.map.scen,4,BFS,1.0,533,True,214.0000,214.0,703,1.6775,0.00
maze512-1-0.map,maze512-1-0.map.scen,4,BFS,1.0,539,True,213.0000,213.0,717,1.7483,0.00
maze512-1-0.map,maze512-1-0.map.scen,4,BFS,1.0,545,True,218.0000,218.0,1387,3.0232,0.00
maze512-1-0.map,maze512-1-0.map.scen,4,BFS,1.0,551,True,220.0000,220.0,815,1.8978,0.00
maze512-1-0.map,maze512-1-0.map.scen,4,BFS,1.0,557,True,220.0000,220.0,957,2.1746,0.00
maze512-1-0.map,maze512-1-0.map.scen,4,BFS,1.0,563,True,225.0000,225.0,1170,2.8061,0.00
maze512-1-0.map,maze512-1-0.map.scen,4,BFS,1.0,569,True,224.0000,224.0,1425,2.8509,0.00
maze512-1-0.map,maze512-1-0.map.scen,4,BFS,1.0,575,True,229.0000,229.0,934,1.9988,0.00
maze512-1-0.map,maze512-1-0.map.scen,4,BFS,1.0,581,True,232.0000,232.0,2052,4.0972,0.00
maze512-1-0.map,maze512-1-0.map.scen,4,BFS,1.0,587,True,232.0000,232.0,627,1.6022,0.00
maze512-1-0.map,maze512-1-0.map.scen,4,BFS,1.0,593,True,239.0000,239.0,917,2.1067,0.00
maze512-1-0.map,maze512-1-0.map.scen,4,BFS,1.0,599,True,236.0000,236.0,1005,2.2443,0.00
maze512-1-0.map,maze512-1-0.map.scen,4,BFS,1.0,606,True,240.0000,240.0,424,0.9990,0.00
maze512-1-0.map,maze512-1-0.map.scen,4,BFS,1.0,612,True,244.0000,244.0,465,1.0329,0.00
maze512-1-0.map,maze512-1-0.map.scen,4,BFS,1.0,618,True,246.0000,246.0,877,2.1437,0.00
maze512-1-0.map,maze512-1-0.map.scen,4,BFS,1.0,624,True,250.0000,250.0,1299,3.1329,0.00
maze512-1-0.map,maze512-1-0.map.scen,4,BFS,1.0,630,True,252.0000,252.0,1569,3.0379,0.00
maze512-1-0.map,maze512-1-0.map.scen,4,BFS,1.0,636,True,254.0000,254.0,1217,3.0689,0.00
maze512-1-0.map,maze512-1-0.map.scen,4,BFS,1.0,642,True,259.0000,259.0,2678,5.8268,0.00
maze512-1-0.map,maze512-1-0.map.scen,4,BFS,1.0,648,True,257.0000,257.0,587,1.4307,0.00
maze512-1-0.map,maze512-1-0.map.scen,4,BFS,1.0,654,True,262.0000,262.0,860,2.1813,0.00
maze512-1-0.map,maze512-1-0.map.scen,4,BFS,1.0,660,True,264.0000,264.0,2306,4.6356,0.00
maze512-1-0.map,maze512-1-0.map.scen,4,BFS,1.0,666,True,266.0000,266.0,2258,4.8530,0.00
maze512-1-0.map,maze512-1-0.map.scen,4,BFS,1.0,672,True,268.0000,268.0,972,2.2382,0.00
maze512-1-0.map,maze512-1-0.map.scen,4,BFS,1.0,678,True,271.0000,271.0,2005,4.1935,0.00
maze512-1-0.map,maze512-1-0.map.scen,4,BFS,1.0,684,True,274.0000,274.0,2191,4.6376,0.00
maze512-1-0.map,maze512-1-0.map.scen,4,BFS,1.0,690,True,277.0000,277.0,4252,8.5650,0.00
maze512-1-0.map,maze512-1-0.map.scen,4,BFS,1.0,696,True,277.0000,277.0,1435,3.0555,0.00
maze512-1-0.map,maze512-1-0.map.scen,4,BFS,1.0,702,True,280.0000,280.0,1734,3.4184,0.00
maze512-1-0.map,maze512-1-0.map.scen,4,BFS,1.0,709,True,280.0000,280.0,1026,2.1827,0.00
maze512-1-0.map,maze512-1-0.map.scen,4,BFS,1.0,715,True,287.0000,287.0,867,2.0034,0.00
maze512-1-0.map,maze512-1-0.map.scen,4,BFS,1.0,721,True,288.0000,288.0,3382,6.7558,0.00
maze512-1-0.map,maze512-1-0.map.scen,4,BFS,1.0,727,True,289.0000,289.0,1832,3.5469,0.00
maze512-1-0.map,maze512-1-0.map.scen,4,BFS,1.0,733,True,295.0000,295.0,1783,4.2889,0.00
maze512-1-0.map,maze512-1-0.map.scen,4,BFS,1.0,739,True,294.0000,294.0,1471,3.1494,0.00
maze512-1-0.map,maze512-1-0.map.scen,4,BFS,1.0,745,True,297.0000,297.0,2021,4.1948,0.00
maze512-1-0.map,maze512-1-0.map.scen,4,BFS,1.0,751,True,303.0000,303.0,1405,3.1816,0.00
maze512-1-0.map,maze512-1-0.map.scen,4,BFS,1.0,757,True,301.0000,301.0,1060,2.3431,0.00
maze512-1-0.map,maze512-1-0.map.scen,4,BFS,1.0,763,True,307.0000,307.0,5264,11.0385,0.00
maze512-1-0.map,maze512-1-0.map.scen,4,BFS,1.0,769,True,306.0000,306.0,2064,4.3181,0.00
maze512-1-0.map,maze512-1-0.map.scen,4,BFS,1.0,775,True,311.0000,311.0,1413,3.0742,0.00
maze512-1-0.map,maze512-1-0.map.scen,4,BFS,1.0,781,True,315.0000,315.0,2536,5.4765,0.00
maze512-1-0.map,maze512-1-0.map.scen,4,BFS,1.0,787,True,314.0000,314.0,1013,2.1679,0.00
maze512-1-0.map,maze512-1-0.map.scen,4,BFS,1.0,793,True,318.0000,318.0,2362,4.7589,0.00
maze512-1-0.map,maze512-1-0.map.scen,4,BFS,1.0,799,True,319.0000,319.0,815,1.8599,0.00
maze512-1-0.map,maze512-1-0.map.scen,4,BFS,1.0,805,True,322.0000,322.0,1480,3.2272,0.00
maze512-1-0.map,maze512-1-0.map.scen,4,BFS,1.0,812,True,325.0000,325.0,2680,5.8825,0.00
maze512-1-0.map,maze512-1-0.map.scen,4,BFS,1.0,818,True,325.0000,325.0,2222,4.5338,0.00
maze512-1-0.map,maze512-1-0.map.scen,4,BFS,1.0,824,True,328.0000,328.0,3206,6.4863,0.00
maze512-1-0.map,maze512-1-0.map.scen,4,BFS,1.0,830,True,335.0000,335.0,3391,6.6653,0.00
maze512-1-0.map,maze512-1-0.map.scen,4,BFS,1.0,836,True,333.0000,333.0,1295,2.9435,0.00
maze512-1-0.map,maze512-1-0.map.scen,4,BFS,1.0,842,True,336.0000,336.0,3973,7.6182,0.00
maze512-1-0.map,maze512-1-0.map.scen,4,BFS,1.0,848,True,336.0000,336.0,1058,2.2043,0.00
maze512-1-0.map,maze512-1-0.map.scen,4,BFS,1.0,854,True,342.0000,342.0,944,1.9340,0.00
maze512-1-0.map,maze512-1-0.map.scen,4,BFS,1.0,860,True,346.0000,346.0,3650,7.4876,0.00
maze512-1-0.map,maze512-1-0.map.scen,4,BFS,1.0,866,True,346.0000,346.0,1713,3.5433,0.00
maze512-1-0.map,maze512-1-0.map.scen,4,BFS,1.0,872,True,351.0000,351.0,1751,3.5528,0.00
maze512-1-0.map,maze512-1-0.map.scen,4,BFS,1.0,878,True,351.0000,351.0,1321,2.7425,0.00
maze512-1-0.map,maze512-1-0.map.scen,4,BFS,1.0,884,True,354.0000,354.0,3283,6.7948,0.00
maze512-1-0.map,maze512-1-0.map.scen,4,BFS,1.0,890,True,357.0000,357.0,3409,6.8634,0.00
maze512-1-0.map,maze512-1-0.map.scen,4,BFS,1.0,896,True,357.0000,357.0,1713,3.4913,0.00
maze512-1-0.map,maze512-1-0.map.scen,4,BFS,1.0,902,True,360.0000,360.0,4521,8.8079,0.00
maze512-1-0.map,maze512-1-0.map.scen,4,BFS,1.0,908,True,362.0000,362.0,2467,5.0974,0.00
maze512-1-0.map,maze512-1-0.map.scen,4,BFS,1.0,915,True,367.0000,367.0,4711,9.2691,0.00
maze512-1-0.map,maze512-1-0.map.scen,4,BFS,1.0,921,True,371.0000,371.0,5171,11.1427,0.00
maze512-1-0.map,maze512-1-0.map.scen,4,BFS,1.0,927,True,368.0000,368.0,4590,9.1481,0.00
maze512-1-0.map,maze512-1-0.map.scen,4,BFS,1.0,933,True,375.0000,375.0,3321,6.7029,0.00
maze512-1-0.map,maze512-1-0.map.scen,4,BFS,1.0,939,True,372.0000,372.0,1438,3.0088,0.00
maze512-1-0.map,maze512-1-0.map.scen,4,BFS,1.0,945,True,378.0000,378.0,893,1.9584,0.00
maze512-1-0.map,maze512-1-0.map.scen,4,BFS,1.0,951,True,383.0000,383.0,3297,6.4576,0.00
maze512-1-0.map,maze512-1-0.map.scen,4,BFS,1.0,957,True,383.0000,383.0,2459,5.4813,0.00
maze512-1-0.map,maze512-1-0.map.scen,4,BFS,1.0,963,True,385.0000,385.0,8083,16.1857,0.00
maze512-1-0.map,maze512-1-0.map.scen,4,BFS,1.0,969,True,384.0000,384.0,1448,2.9240,0.00
maze512-1-0.map,maze512-1-0.map.scen,4,BFS,1.0,975,True,391.0000,391.0,2179,4.1988,0.00
maze512-1-0.map,maze512-1-0.map.scen,4,BFS,1.0,981,True,395.0000,395.0,6065,12.6175,0.00
maze512-1-0.map,maze512-1-0.map.scen,4,BFS,1.0,987,True,393.0000,393.0,2390,5.4743,0.00
maze512-1-0.map,maze512-1-0.map.scen,4,BFS,1.0,993,True,396.0000,396.0,1229,3.6914,0.00
maze512-1-0.map,maze512-1-0.map.scen,4,BFS,1.0,999,True,399.0000,399.0,1536,3.8640,0.00
maze512-1-0.map,maze512-1-0.map.scen,4,BFS,1.0,1005,True,400.0000,400.0,9252,21.4270,0.00
maze512-1-0.map,maze512-1-0.map.scen,4,BFS,1.0,1012,True,406.0000,406.0,1360,3.7505,0.00
maze512-1-0.map,maze512-1-0.map.scen,4,BFS,1.0,1018,True,406.0000,406.0,5098,13.0032,0.00
maze512-1-0.map,maze512-1-0.map.scen,4,BFS,1.0,1024,True,408.0000,408.0,2472,6.2922,0.00
maze512-1-0.map,maze512-1-0.map.scen,4,BFS,1.0,1030,True,415.0000,415.0,3499,7.9451,0.00
maze512-1-0.map,maze512-1-0.map.scen,4,BFS,1.0,1036,True,414.0000,414.0,1969,4.8563,0.00
maze512-1-0.map,maze512-1-0.map.scen,4,BFS,1.0,1042,True,416.0000,416.0,7832,17.8029,0.00
maze512-1-0.map,maze512-1-0.map.scen,4,BFS,1.0,1048,True,417.0000,417.0,2196,4.7527,0.00
maze512-1-0.map,maze512-1-0.map.scen,4,BFS,1.0,1054,True,423.0000,423.0,3024,6.8036,0.00
maze512-1-0.map,maze512-1-0.map.scen,4,BFS,1.0,1060,True,426.0000,426.0,6574,15.4470,0.00
maze512-1-0.map,maze512-1-0.map.scen,4,BFS,1.0,1066,True,427.0000,427.0,7410,17.5575,0.00
maze512-1-0.map,maze512-1-0.map.scen,4,BFS,1.0,1072,True,430.0000,430.0,5769,12.9638,0.00
maze512-1-0.map,maze512-1-0.map.scen,4,BFS,1.0,1078,True,430.0000,430.0,5176,12.5571,0.00
maze512-1-0.map,maze512-1-0.map.scen,4,BFS,1.0,1084,True,435.0000,435.0,2581,5.5204,0.00
maze512-1-0.map,maze512-1-0.map.scen,4,BFS,1.0,1090,True,437.0000,437.0,6022,17.4132,0.00
maze512-1-0.map,maze512-1-0.map.scen,4,BFS,1.0,1096,True,439.0000,439.0,2949,7.0846,0.00
maze512-1-0.map,maze512-1-0.map.scen,4,BFS,1.0,1102,True,441.0000,441.0,3770,8.5020,0.00
maze512-1-0.map,maze512-1-0.map.scen,4,BFS,1.0,1108,True,440.0000,440.0,1394,3.9275,0.00
maze512-1-0.map,maze512-1-0.map.scen,4,BFS,1.0,1115,True,446.0000,446.0,3341,7.7007,0.00
maze512-1-0.map,maze512-1-0.map.scen,4,BFS,1.0,1121,True,448.0000,448.0,6243,14.7937,0.00
maze512-1-0.map,maze512-1-0.map.scen,4,BFS,1.0,1127,True,451.0000,451.0,2617,6.5050,0.00
maze512-1-0.map,maze512-1-0.map.scen,4,BFS,1.0,1133,True,452.0000,452.0,9021,19.8280,0.00
maze512-1-0.map,maze512-1-0.map.scen,4,BFS,1.0,1139,True,452.0000,452.0,4801,10.4045,0.00
maze512-1-0.map,maze512-1-0.map.scen,4,BFS,1.0,1145,True,459.0000,459.0,1687,3.6379,0.00
maze512-1-0.map,maze512-1-0.map.scen,4,BFS,1.0,1151,True,462.0000,462.0,3925,10.1747,0.00
maze512-1-0.map,maze512-1-0.map.scen,4,BFS,1.0,1157,True,461.0000,461.0,904,2.8460,0.00
maze512-1-0.map,maze512-1-0.map.scen,4,BFS,1.0,1163,True,467.0000,467.0,3627,8.1832,0.00
maze512-1-0.map,maze512-1-0.map.scen,4,BFS,1.0,1169,True,465.0000,465.0,3874,9.1206,0.00
maze512-1-0.map,maze512-1-0.map.scen,4,BFS,1.0,1175,True,468.0000,468.0,1744,4.1184,0.00
maze512-1-0.map,maze512-1-0.map.scen,4,BFS,1.0,1181,True,473.0000,473.0,9015,19.2882,0.00
maze512-1-0.map,maze512-1-0.map.scen,4,BFS,1.0,1187,True,472.0000,472.0,2487,5.7725,0.00
maze512-1-0.map,maze512-1-0.map.scen,4,BFS,1.0,1193,True,479.0000,479.0,2838,6.2701,0.00
maze512-1-0.map,maze512-1-0.map.scen,4,BFS,1.0,1199,True,479.0000,479.0,8593,18.9694,0.00
maze512-1-0.map,maze512-1-0.map.scen,4,BFS,1.0,1205,True,481.0000,481.0,6319,14.2564,0.00
maze512-1-0.map,maze512-1-0.map.scen,4,BFS,1.0,1212,True,484.0000,484.0,6139,14.3033,0.00
maze512-1-0.map,maze512-1-0.map.scen,4,BFS,1.0,1218,True,485.0000,485.0,1899,4.1166,0.00
maze512-1-0.map,maze512-1-0.map.scen,4,BFS,1.0,1224,True,488.0000,488.0,2263,5.6245,0.00
maze512-1-0.map,maze512-1-0.map.scen,4,BFS,1.0,1230,True,494.0000,494.0,6896,16.1052,0.00
maze512-1-0.map,maze512-1-0.map.scen,4,BFS,1.0,1236,True,492.0000,492.0,5480,12.4563,0.00
maze512-1-0.map,maze512-1-0.map.scen,4,BFS,1.0,1242,True,498.0000,498.0,8082,17.7772,0.00
maze512-1-0.map,maze512-1-0.map.scen,4,BFS,1.0,1248,True,497.0000,497.0,2408,5.2084,0.00
maze512-1-0.map,maze512-1-0.map.scen,4,BFS,1.0,1254,True,501.0000,501.0,1963,4.1970,0.00
maze512-1-0.map,maze512-1-0.map.scen,4,BFS,1.0,1260,True,505.0000,505.0,7722,17.9242,0.00
maze512-1-0.map,maze512-1-0.map.scen,4,BFS,1.0,1266,True,506.0000,506.0,3403,7.3965,0.00
maze512-1-0.map,maze512-1-0.map.scen,4,BFS,1.0,1272,True,509.0000,509.0,9401,21.1330,0.00
maze512-1-0.map,maze512-1-0.map.scen,4,BFS,1.0,1278,True,511.0000,511.0,3925,9.7001,0.00
maze512-1-0.map,maze512-1-0.map.scen,4,BFS,1.0,1284,True,514.0000,514.0,4462,11.0945,0.00
maze512-1-0.map,maze512-1-0.map.scen,4,BFS,1.0,1290,True,517.0000,517.0,8574,20.6656,0.00
maze512-1-0.map,maze512-1-0.map.scen,4,BFS,1.0,1296,True,519.0000,519.0,2103,5.4454,0.00
maze512-1-0.map,maze512-1-0.map.scen,4,BFS,1.0,1302,True,521.0000,521.0,13766,33.7960,0.00
maze512-1-0.map,maze512-1-0.map.scen,4,BFS,1.0,1308,True,521.0000,521.0,2537,5.9982,0.00
maze512-1-0.map,maze512-1-0.map.scen,4,BFS,1.0,1315,True,524.0000,524.0,1647,3.7331,0.00
maze512-1-0.map,maze512-1-0.map.scen,4,BFS,1.0,1321,True,529.0000,529.0,8559,21.9759,0.00
maze512-1-0.map,maze512-1-0.map.scen,4,BFS,1.0,1327,True,530.0000,530.0,3261,6.9950,0.00
maze512-1-0.map,maze512-1-0.map.scen,4,BFS,1.0,1333,True,532.0000,532.0,5263,11.6924,0.00
maze512-1-0.map,maze512-1-0.map.scen,4,BFS,1.0,1339,True,533.0000,533.0,6718,18.3514,0.00
maze512-1-0.map,maze512-1-0.map.scen,4,BFS,1.0,1345,True,538.0000,538.0,4999,11.5587,0.00
maze512-1-0.map,maze512-1-0.map.scen,4,BFS,1.0,1351,True,543.0000,543.0,8168,18.6429,0.00
maze512-1-0.map,maze512-1-0.map.scen,4,BFS,1.0,1357,True,543.0000,543.0,4153,9.0990,0.00
maze512-1-0.map,maze512-1-0.map.scen,4,BFS,1.0,1363,True,547.0000,547.0,4635,9.4256,0.00
maze512-1-0.map,maze512-1-0.map.scen,4,BFS,1.0,1369,True,544.0000,544.0,1767,4.2219,0.00
maze512-1-0.map,maze512-1-0.map.scen,4,BFS,1.0,1375,True,548.0000,548.0,2690,5.8407,0.00
maze512-1-0.map,maze512-1-0.map.scen,4,BFS,1.0,1381,True,552.0000,552.0,9424,20.8640,0.00
maze512-1-0.map,maze512-1-0.map.scen,4,BFS,1.0,1387,True,554.0000,554.0,1611,3.7516,0.00
maze512-1-0.map,maze512-1-0.map.scen,4,BFS,1.0,1393,True,559.0000,559.0,13308,29.4591,0.00
maze512-1-0.map,maze512-1-0.map.scen,4,BFS,1.0,1399,True,559.0000,559.0,2973,7.1359,0.00
maze512-1-0.map,maze512-1-0.map.scen,4,BFS,1.0,1405,True,561.0000,561.0,3279,6.8861,0.00
maze512-1-0.map,maze512-1-0.map.scen,4,BFS,1.0,1411,True,567.0000,567.0,9593,22.2748,0.00
maze512-1-0.map,maze512-1-0.map.scen,4,BFS,1.0,1418,True,566.0000,566.0,7352,16.5592,0.00
maze512-1-0.map,maze512-1-0.map.scen,4,BFS,1.0,1424,True,570.0000,570.0,11355,26.7619,0.00
maze512-1-0.map,maze512-1-0.map.scen,4,BFS,1.0,1430,True,574.0000,574.0,6670,14.1928,0.00
maze512-1-0.map,maze512-1-0.map.scen,4,BFS,1.0,1436,True,572.0000,572.0,3459,7.1049,0.00
maze512-1-0.map,maze512-1-0.map.scen,4,BFS,1.0,1442,True,577.0000,577.0,1846,3.6514,0.00
maze512-1-0.map,maze512-1-0.map.scen,4,BFS,1.0,1448,True,576.0000,576.0,7768,16.4266,0.00
maze512-1-0.map,maze512-1-0.map.scen,4,BFS,1.0,1454,True,581.0000,581.0,2460,5.2602,0.00
maze512-1-0.map,maze512-1-0.map.scen,4,BFS,1.0,1460,True,587.0000,587.0,12403,24.9105,0.00
maze512-1-0.map,maze512-1-0.map.scen,4,BFS,1.0,1466,True,584.0000,584.0,17908,35.8080,0.00
maze512-1-0.map,maze512-1-0.map.scen,4,BFS,1.0,1472,True,591.0000,591.0,2263,4.4398,0.00
maze512-1-0.map,maze512-1-0.map.scen,4,BFS,1.0,1478,True,588.0000,588.0,5716,11.8336,0.00
maze512-1-0.map,maze512-1-0.map.scen,4,BFS,1.0,1484,True,595.0000,595.0,5800,11.2851,0.00
maze512-1-0.map,maze512-1-0.map.scen,4,BFS,1.0,1490,True,597.0000,597.0,3615,7.3805,0.00
maze512-1-0.map,maze512-1-0.map.scen,4,BFS,1.0,1496,True,598.0000,598.0,7446,15.2926,0.00
maze512-1-0.map,maze512-1-0.map.scen,4,BFS,1.0,1502,True,600.0000,600.0,21862,46.4876,0.00
maze512-1-0.map,maze512-1-0.map.scen,4,BFS,1.0,1508,True,602.0000,602.0,9090,18.0935,0.00
maze512-1-0.map,maze512-1-0.map.scen,4,BFS,1.0,1515,True,606.0000,606.0,6394,13.1940,0.00
maze512-1-0.map,maze512-1-0.map.scen,4,BFS,1.0,1521,True,608.0000,608.0,9377,19.0231,0.00
maze512-1-0.map,maze512-1-0.map.scen,4,BFS,1.0,1527,True,608.0000,608.0,5128,10.7110,0.00
maze512-1-0.map,maze512-1-0.map.scen,4,BFS,1.0,1533,True,613.0000,613.0,4104,8.3011,0.00
maze512-1-0.map,maze512-1-0.map.scen,4,BFS,1.0,1539,True,612.0000,612.0,6130,12.5788,0.00
maze512-1-0.map,maze512-1-0.map.scen,4,BFS,1.0,1545,True,617.0000,617.0,12682,27.3732,0.00
maze512-1-0.map,maze512-1-0.map.scen,4,BFS,1.0,1551,True,620.0000,620.0,8721,17.7291,0.00
maze512-1-0.map,maze512-1-0.map.scen,4,BFS,1.0,1557,True,621.0000,621.0,5552,11.6077,0.00
maze512-1-0.map,maze512-1-0.map.scen,4,BFS,1.0,1563,True,626.0000,626.0,2508,5.3193,0.00
maze512-1-0.map,maze512-1-0.map.scen,4,BFS,1.0,1569,True,624.0000,624.0,6319,12.7858,0.00
maze512-1-0.map,maze512-1-0.map.scen,4,BFS,1.0,1575,True,629.0000,629.0,21854,47.8497,0.00
maze512-1-0.map,maze512-1-0.map.scen,4,BFS,1.0,1581,True,632.0000,632.0,7373,15.4805,0.00
maze512-1-0.map,maze512-1-0.map.scen,4,BFS,1.0,1587,True,632.0000,632.0,15687,31.2947,0.00
maze512-1-0.map,maze512-1-0.map.scen,4,BFS,1.0,1593,True,639.0000,639.0,4188,8.8018,0.00
maze512-1-0.map,maze512-1-0.map.scen,4,BFS,1.0,1599,True,638.0000,638.0,9375,19.5143,0.00
maze512-1-0.map,maze512-1-0.map.scen,4,BFS,1.0,1605,True,640.0000,640.0,10505,21.8874,0.00
maze512-1-0.map,maze512-1-0.map.scen,4,BFS,1.0,1611,True,646.0000,646.0,3222,6.6927,0.00
maze512-1-0.map,maze512-1-0.map.scen,4,BFS,1.0,1618,True,644.0000,644.0,6216,13.1291,0.00
maze512-1-0.map,maze512-1-0.map.scen,4,BFS,1.0,1624,True,648.0000,648.0,10765,22.4678,0.00
maze512-1-0.map,maze512-1-0.map.scen,4,BFS,1.0,1630,True,653.0000,653.0,14262,29.6691,0.00
maze512-1-0.map,maze512-1-0.map.scen,4,BFS,1.0,1636,True,652.0000,652.0,3335,6.7808,0.00
maze512-1-0.map,maze512-1-0.map.scen,4,BFS,1.0,1642,True,659.0000,659.0,22713,48.5338,0.00
maze512-1-0.map,maze512-1-0.map.scen,4,BFS,1.0,1648,True,658.0000,658.0,16995,34.8679,0.00
maze512-1-0.map,maze512-1-0.map.scen,4,BFS,1.0,1654,True,660.0000,660.0,7630,15.3724,0.00
maze512-1-0.map,maze512-1-0.map.scen,4,BFS,1.0,1660,True,664.0000,664.0,12241,25.9339,0.00
maze512-1-0.map,maze512-1-0.map.scen,4,BFS,1.0,1666,True,664.0000,664.0,5734,11.9619,0.00
maze512-1-0.map,maze512-1-0.map.scen,4,BFS,1.0,1672,True,671.0000,671.0,10002,20.1637,0.00
maze512-1-0.map,maze512-1-0.map.scen,4,BFS,1.0,1678,True,670.0000,670.0,7549,14.7838,0.00
maze512-1-0.map,maze512-1-0.map.scen,4,BFS,1.0,1684,True,674.0000,674.0,8107,16.4799,0.00
maze512-1-0.map,maze512-1-0.map.scen,4,BFS,1.0,1690,True,679.0000,679.0,12440,25.7493,0.00
maze512-1-0.map,maze512-1-0.map.scen,4,BFS,1.0,1696,True,678.0000,678.0,3549,7.2552,0.00
maze512-1-0.map,maze512-1-0.map.scen,4,BFS,1.0,1702,True,680.0000,680.0,11354,23.2120,0.00
maze512-1-0.map,maze512-1-0.map.scen,4,BFS,1.0,1708,True,683.0000,683.0,3785,7.6121,0.00
maze512-1-0.map,maze512-1-0.map.scen,4,BFS,1.0,1714,True,685.0000,685.0,27239,55.8586,0.00
maze512-1-0.map,maze512-1-0.map.scen,4,BFS,1.0,1721,True,691.0000,691.0,22922,49.3561,0.00
maze512-1-0.map,maze512-1-0.map.scen,4,BFS,1.0,1727,True,689.0000,689.0,5623,11.9821,0.00
maze512-1-0.map,maze512-1-0.map.scen,4,BFS,1.0,1733,True,693.0000,693.0,18127,35.2221,0.00
maze512-1-0.map,maze512-1-0.map.scen,4,BFS,1.0,1739,True,693.0000,693.0,2449,5.1066,0.00
maze512-1-0.map,maze512-1-0.map.scen,4,BFS,1.0,1745,True,697.0000,697.0,12727,25.6503,0.00
maze512-1-0.map,maze512-1-0.map.scen,4,BFS,1.0,1751,True,700.0000,700.0,12177,25.8213,0.00
maze512-1-0.map,maze512-1-0.map.scen,4,BFS,1.0,1757,True,702.0000,702.0,11008,22.4554,0.00
maze512-1-0.map,maze512-1-0.map.scen,4,BFS,1.0,1763,True,704.0000,704.0,10897,22.8229,0.00
maze512-1-0.map,maze512-1-0.map.scen,4,BFS,1.0,1769,True,707.0000,707.0,4428,9.0676,0.00
maze512-1-0.map,maze512-1-0.map.scen,4,BFS,1.0,1775,True,710.0000,710.0,8286,16.6609,0.00
maze512-1-0.map,maze512-1-0.map.scen,4,BFS,1.0,1781,True,714.0000,714.0,3510,7.3291,0.00
maze512-1-0.map,maze512-1-0.map.scen,4,BFS,1.0,1787,True,715.0000,715.0,7238,14.8318,0.00
maze512-1-0.map,maze512-1-0.map.scen,4,BFS,1.0,1793,True,718.0000,718.0,8161,16.5430,0.00
maze512-1-0.map,maze512-1-0.map.scen,4,BFS,1.0,1799,True,718.0000,718.0,4707,9.4650,0.00
maze512-1-0.map,maze512-1-0.map.scen,4,BFS,1.0,1805,True,720.0000,720.0,8097,16.3655,0.00
maze512-1-0.map,maze512-1-0.map.scen,4,BFS,1.0,1811,True,727.0000,727.0,26764,58.4604,0.00
maze512-1-0.map,maze512-1-0.map.scen,4,BFS,1.0,1817,True,727.0000,727.0,3255,6.7247,0.00
maze512-1-0.map,maze512-1-0.map.scen,4,BFS,1.0,1824,True,730.0000,730.0,14768,30.1574,0.00
maze512-1-0.map,maze512-1-0.map.scen,4,BFS,1.0,1830,True,732.0000,732.0,5378,10.9136,0.00
maze512-1-0.map,maze512-1-0.map.scen,4,BFS,1.0,1836,True,734.0000,734.0,6133,12.7848,0.00
maze512-1-0.map,maze512-1-0.map.scen,4,BFS,1.0,1842,True,737.0000,737.0,4242,8.2158,0.00
maze512-1-0.map,maze512-1-0.map.scen,4,BFS,1.0,1848,True,739.0000,739.0,5713,12.0500,0.00
maze512-1-0.map,maze512-1-0.map.scen,4,BFS,1.0,1854,True,741.0000,741.0,2282,4.5156,0.00
maze512-1-0.map,maze512-1-0.map.scen,4,BFS,1.0,1860,True,745.0000,745.0,12872,26.2957,0.00
maze512-1-0.map,maze512-1-0.map.scen,4,BFS,1.0,1866,True,746.0000,746.0,10591,21.8884,0.00
maze512-1-0.map,maze512-1-0.map.scen,4,BFS,1.0,1872,True,749.0000,749.0,17353,34.9872,0.00
maze512-1-0.map,maze512-1-0.map.scen,4,BFS,1.0,1878,True,748.0000,748.0,6667,13.8101,0.00
maze512-1-0.map,maze512-1-0.map.scen,4,BFS,1.0,1884,True,753.0000,753.0,1890,3.6304,0.00
maze512-1-0.map,maze512-1-0.map.scen,4,BFS,1.0,1890,True,757.0000,757.0,29572,62.1605,0.00
maze512-1-0.map,maze512-1-0.map.scen,4,BFS,1.0,1896,True,759.0000,759.0,1855,4.0595,0.00
maze512-1-0.map,maze512-1-0.map.scen,4,BFS,1.0,1902,True,761.0000,761.0,7454,15.6569,0.00
maze512-1-0.map,maze512-1-0.map.scen,4,BFS,1.0,1908,True,763.0000,763.0,2477,5.4695,0.00
maze512-1-0.map,maze512-1-0.map.scen,4,BFS,1.0,1914,True,765.0000,765.0,5819,12.3093,0.00
maze512-1-0.map,maze512-1-0.map.scen,4,BFS,1.0,1921,True,770.0000,770.0,20872,43.7625,0.00
maze512-1-0.map,maze512-1-0.map.scen,4,BFS,1.0,1927,True,771.0000,771.0,4752,9.8144,0.00
maze512-1-0.map,maze512-1-0.map.scen,4,BFS,1.0,1933,True,774.0000,774.0,8164,16.3272,0.00
maze512-1-0.map,maze512-1-0.map.scen,4,BFS,1.0,1939,True,775.0000,775.0,8264,16.8274,0.00
maze512-1-0.map,maze512-1-0.map.scen,4,BFS,1.0,1945,True,778.0000,778.0,12533,25.5518,0.00
maze512-1-0.map,maze512-1-0.map.scen,4,BFS,1.0,1951,True,780.0000,780.0,2041,3.9029,0.00
maze512-1-0.map,maze512-1-0.map.scen,4,BFS,1.0,1957,True,781.0000,781.0,3028,6.9172,0.00
maze512-1-0.map,maze512-1-0.map.scen,4,BFS,1.0,1963,True,784.0000,784.0,12609,26.7801,0.00
maze512-1-0.map,maze512-1-0.map.scen,4,BFS,1.0,1969,True,785.0000,785.0,12390,26.3153,0.00
maze512-1-0.map,maze512-1-0.map.scen,4,BFS,1.0,1975,True,790.0000,790.0,12423,24.6421,0.00
maze512-1-0.map,maze512-1-0.map.scen,4,BFS,1.0,1981,True,795.0000,795.0,20291,39.9426,0.00
maze512-1-0.map,maze512-1-0.map.scen,4,BFS,1.0,1987,True,795.0000,795.0,34113,68.6628,0.00
maze512-1-0.map,maze512-1-0.map.scen,4,BFS,1.0,1993,True,798.0000,798.0,31344,64.1401,0.00
maze512-1-0.map,maze512-1-0.map.scen,4,BFS,1.0,1999,True,798.0000,798.0,4748,9.2108,0.00
maze512-1-0.map,maze512-1-0.map.scen,4,BFS,1.0,2005,True,800.0000,800.0,18438,37.6084,0.00
maze512-1-0.map,maze512-1-0.map.scen,4,BFS,1.0,2011,True,806.0000,806.0,11576,23.5495,0.00
maze512-1-0.map,maze512-1-0.map.scen,4,BFS,1.0,2017,True,805.0000,805.0,3395,6.6622,0.00
maze512-1-0.map,maze512-1-0.map.scen,4,BFS,1.0,2024,True,810.0000,810.0,32046,67.1832,0.00
maze512-1-0.map,maze512-1-0.map.scen,4,BFS,1.0,2030,True,815.0000,815.0,18174,36.6815,0.00
maze512-1-0.map,maze512-1-0.map.scen,4,BFS,1.0,2036,True,812.0000,812.0,23547,49.9056,0.00
maze512-1-0.map,maze512-1-0.map.scen,4,BFS,1.0,2042,True,819.0000,819.0,13200,27.4587,0.00
maze512-1-0.map,maze512-1-0.map.scen,4,BFS,1.0,2048,True,818.0000,818.0,9031,20.5989,0.00
maze512-1-0.map,maze512-1-0.map.scen,4,BFS,1.0,2054,True,820.0000,820.0,19430,49.7094,0.00
maze512-1-0.map,maze512-1-0.map.scen,4,BFS,1.0,2060,True,825.0000,825.0,3164,7.1281,0.00
maze512-1-0.map,maze512-1-0.map.scen,4,BFS,1.0,2066,True,826.0000,826.0,38995,88.1950,0.00
maze512-1-0.map,maze512-1-0.map.scen,4,BFS,1.0,2072,True,829.0000,829.0,22361,50.1700,0.00
maze512-1-0.map,maze512-1-0.map.scen,4,BFS,1.0,2078,True,828.0000,828.0,12476,25.9056,0.00
maze512-1-0.map,maze512-1-0.map.scen,4,BFS,1.0,2084,True,834.0000,834.0,20815,46.6148,0.00
maze512-1-0.map,maze512-1-0.map.scen,4,BFS,1.0,2090,True,837.0000,837.0,32097,79.2531,0.00
maze512-1-0.map,maze512-1-0.map.scen,4,BFS,1.0,2096,True,837.0000,837.0,3890,8.2817,0.00
maze512-1-0.map,maze512-1-0.map.scen,4,BFS,1.0,2102,True,840.0000,840.0,22386,46.8173,0.00
maze512-1-0.map,maze512-1-0.map.scen,4,BFS,1.0,2108,True,842.0000,842.0,26327,56.4281,0.00
maze512-1-0.map,maze512-1-0.map.scen,4,BFS,1.0,2114,True,846.0000,846.0,3241,6.7484,0.00
maze512-1-0.map,maze512-1-0.map.scen,4,BFS,1.0,2121,True,849.0000,849.0,6617,13.3865,0.00
maze512-1-0.map,maze512-1-0.map.scen,4,BFS,1.0,2127,True,848.0000,848.0,10625,21.1898,0.00
maze512-1-0.map,maze512-1-0.map.scen,4,BFS,1.0,2133,True,855.0000,855.0,7664,15.5274,0.00
maze512-1-0.map,maze512-1-0.map.scen,4,BFS,1.0,2139,True,852.0000,852.0,3302,7.8710,0.00
maze512-1-0.map,maze512-1-0.map.scen,4,BFS,1.0,2145,True,859.0000,859.0,22394,49.9969,0.00
maze512-1-0.map,maze512-1-0.map.scen,4,BFS,1.0,2151,True,863.0000,863.0,13455,28.2745,0.00
maze512-1-0.map,maze512-1-0.map.scen,4,BFS,1.0,2157,True,861.0000,861.0,21276,45.4363,0.00
maze512-1-0.map,maze512-1-0.map.scen,4,BFS,1.0,2163,True,867.0000,867.0,31777,66.4541,0.00
maze512-1-0.map,maze512-1-0.map.scen,4,BFS,1.0,2169,True,865.0000,865.0,10667,21.8388,0.00
maze512-1-0.map,maze512-1-0.map.scen,4,BFS,1.0,2175,True,868.0000,868.0,46376,102.9019,0.00
maze512-1-0.map,maze512-1-0.map.scen,4,BFS,1.0,2181,True,874.0000,874.0,12887,27.8399,0.00
maze512-1-0.map,maze512-1-0.map.scen,4,BFS,1.0,2187,True,875.0000,875.0,3293,7.1150,0.00
maze512-1-0.map,maze512-1-0.map.scen,4,BFS,1.0,2193,True,879.0000,879.0,3302,6.7440,0.00
maze512-1-0.map,maze512-1-0.map.scen,4,BFS,1.0,2199,True,877.0000,877.0,2522,5.2703,0.00
maze512-1-0.map,maze512-1-0.map.scen,4,BFS,1.0,2205,True,881.0000,881.0,26111,55.6638,0.00
maze512-1-0.map,maze512-1-0.map.scen,4,BFS,1.0,2211,True,886.0000,886.0,12630,26.5415,0.00
maze512-1-0.map,maze512-1-0.map.scen,4,BFS,1.0,2217,True,887.0000,887.0,31930,66.6128,0.00
maze512-1-0.map,maze512-1-0.map.scen,4,BFS,1.0,2224,True,888.0000,888.0,30142,64.6027,0.00
maze512-1-0.map,maze512-1-0.map.scen,4,BFS,1.0,2230,True,893.0000,893.0,13105,26.6402,0.00
maze512-1-0.map,maze512-1-0.map.scen,4,BFS,1.0,2236,True,893.0000,893.0,38608,83.2401,0.00
maze512-1-0.map,maze512-1-0.map.scen,4,BFS,1.0,2242,True,896.0000,896.0,21574,46.3080,0.00
maze512-1-0.map,maze512-1-0.map.scen,4,BFS,1.0,2248,True,898.0000,898.0,18689,37.9997,0.00
maze512-1-0.map,maze512-1-0.map.scen,4,BFS,1.0,2254,True,903.0000,903.0,18828,37.1540,0.00
maze512-1-0.map,maze512-1-0.map.scen,4,BFS,1.0,2260,True,905.0000,905.0,37384,77.3369,0.00
maze512-1-0.map,maze512-1-0.map.scen,4,BFS,1.0,2266,True,905.0000,905.0,12283,26.4747,0.00
maze512-1-0.map,maze512-1-0.map.scen,4,BFS,1.0,2272,True,911.0000,911.0,11517,24.6878,0.00
maze512-1-0.map,maze512-1-0.map.scen,4,BFS,1.0,2278,True,911.0000,911.0,6660,13.0949,0.00
maze512-1-0.map,maze512-1-0.map.scen,4,BFS,1.0,2284,True,914.0000,914.0,10230,20.9872,0.00
maze512-1-0.map,maze512-1-0.map.scen,4,BFS,1.0,2290,True,917.0000,917.0,17450,38.6784,0.00
maze512-1-0.map,maze512-1-0.map.scen,4,BFS,1.0,2296,True,918.0000,918.0,49135,113.8773,0.00
maze512-1-0.map,maze512-1-0.map.scen,4,BFS,1.0,2302,True,923.0000,923.0,36462,79.2427,0.00
maze512-1-0.map,maze512-1-0.map.scen,4,BFS,1.0,2308,True,921.0000,921.0,27066,56.5944,0.00
maze512-1-0.map,maze512-1-0.map.scen,4,BFS,1.0,2314,True,925.0000,925.0,10661,22.5179,0.00
maze512-1-0.map,maze512-1-0.map.scen,4,BFS,1.0,2320,True,928.0000,928.0,14336,27.6049,0.00
maze512-1-0.map,maze512-1-0.map.scen,4,BFS,1.0,2327,True,930.0000,930.0,17583,34.8877,0.00
maze512-1-0.map,maze512-1-0.map.scen,4,BFS,1.0,2333,True,932.0000,932.0,19587,39.5856,0.00
maze512-1-0.map,maze512-1-0.map.scen,4,BFS,1.0,2339,True,933.0000,933.0,21331,45.3921,0.00
maze512-1-0.map,maze512-1-0.map.scen,4,BFS,1.0,2345,True,937.0000,937.0,13503,26.7779,0.00
maze512-1-0.map,maze512-1-0.map.scen,4,BFS,1.0,2351,True,940.0000,940.0,7642,15.3638,0.00
maze512-1-0.map,maze512-1-0.map.scen,4,BFS,1.0,2357,True,942.0000,942.0,13103,25.8120,0.00
maze512-1-0.map,maze512-1-0.map.scen,4,BFS,1.0,2363,True,947.0000,947.0,22352,49.3569,0.00
maze512-1-0.map,maze512-1-0.map.scen,4,BFS,1.0,2369,True,944.0000,944.0,15692,31.3345,0.00
maze512-1-0.map,maze512-1-0.map.scen,4,BFS,1.0,2375,True,949.0000,949.0,41170,88.6872,0.00
maze512-1-0.map,maze512-1-0.map.scen,4,BFS,1.0,2381,True,952.0000,952.0,27701,58.5723,0.00
maze512-1-0.map,maze512-1-0.map.scen,4,BFS,1.0,2387,True,955.0000,955.0,21054,45.8213,0.00
maze512-1-0.map,maze512-1-0.map.scen,4,BFS,1.0,2393,True,959.0000,959.0,19922,39.6022,0.00
maze512-1-0.map,maze512-1-0.map.scen,4,BFS,1.0,2399,True,958.0000,958.0,54930,116.3151,0.00
maze512-1-0.map,maze512-1-0.map.scen,4,BFS,1.0,2405,True,963.0000,963.0,33239,67.7622,0.00
maze512-1-0.map,maze512-1-0.map.scen,4,BFS,1.0,2411,True,965.0000,965.0,23217,47.3569,0.00
maze512-1-0.map,maze512-1-0.map.scen,4,BFS,1.0,2417,True,967.0000,967.0,12569,26.0905,0.00
maze512-1-0.map,maze512-1-0.map.scen,4,BFS,1.0,2424,True,968.0000,968.0,14073,28.6934,0.00
maze512-1-0.map,maze512-1-0.map.scen,4,BFS,1.0,2430,True,974.0000,974.0,15242,31.2322,0.00
maze512-1-0.map,maze512-1-0.map.scen,4,BFS,1.0,2436,True,972.0000,972.0,14933,29.1621,0.00
maze512-1-0.map,maze512-1-0.map.scen,4,BFS,1.0,2442,True,978.0000,978.0,23629,48.2302,0.00
maze512-1-0.map,maze512-1-0.map.scen,4,BFS,1.0,2448,True,977.0000,977.0,7682,15.7245,0.00
maze512-1-0.map,maze512-1-0.map.scen,4,BFS,1.0,2454,True,983.0000,983.0,19836,38.1020,0.00
maze512-1-0.map,maze512-1-0.map.scen,4,BFS,1.0,2460,True,987.0000,987.0,39310,79.4341,0.00
maze512-1-0.map,maze512-1-0.map.scen,4,BFS,1.0,2466,True,984.0000,984.0,25890,54.2854,0.00
maze512-1-0.map,maze512-1-0.map.scen,4,BFS,1.0,2472,True,990.0000,990.0,49046,102.5659,0.00
maze512-1-0.map,maze512-1-0.map.scen,4,BFS,1.0,2478,True,989.0000,989.0,23285,49.9770,0.00
maze512-1-0.map,maze512-1-0.map.scen,4,BFS,1.0,2484,True,995.0000,995.0,25486,56.0644,0.00
maze512-1-0.map,maze512-1-0.map.scen,4,BFS,1.0,2490,True,997.0000,997.0,10943,22.5620,0.00
maze512-1-0.map,maze512-1-0.map.scen,4,BFS,1.0,2496,True,997.0000,997.0,25485,56.0902,0.00
maze512-1-0.map,maze512-1-0.map.scen,4,BFS,1.0,2502,True,1000.0000,1000.0,14719,29.3808,0.00
maze512-1-0.map,maze512-1-0.map.scen,4,BFS,1.0,2508,True,1002.0000,1002.0,40352,86.3245,0.00
maze512-1-0.map,maze512-1-0.map.scen,4,BFS,1.0,2514,True,1007.0000,1007.0,14023,30.0768,0.00
maze512-1-0.map,maze512-1-0.map.scen,4,BFS,1.0,2520,True,1009.0000,1009.0,12966,26.6509,0.00
maze512-1-0.map,maze512-1-0.map.scen,4,BFS,1.0,2527,True,1008.0000,1008.0,12465,25.0402,0.00
maze512-1-0.map,maze512-1-0.map.scen,4,BFS,1.0,2533,True,1014.0000,1014.0,16069,31.9218,0.00
maze512-1-0.map,maze512-1-0.map.scen,4,BFS,1.0,2539,True,1013.0000,1013.0,27390,58.6123,0.00
maze512-1-0.map,maze512-1-0.map.scen,4,BFS,1.0,2545,True,1017.0000,1017.0,18023,35.9605,0.00
maze512-1-0.map,maze512-1-0.map.scen,4,BFS,1.0,2551,True,1022.0000,1022.0,49386,108.5098,0.00
maze512-1-0.map,maze512-1-0.map.scen,4,BFS,1.0,2557,True,1020.0000,1020.0,9774,21.1588,0.00
maze512-1-0.map,maze512-1-0.map.scen,4,BFS,1.0,2563,True,1024.0000,1024.0,17459,36.2460,0.00
maze512-1-0.map,maze512-1-0.map.scen,4,BFS,1.0,2569,True,1026.0000,1026.0,29249,61.8555,0.00
maze512-1-0.map,maze512-1-0.map.scen,4,BFS,1.0,2575,True,1031.0000,1031.0,48169,103.2170,0.00
maze512-1-0.map,maze512-1-0.map.scen,4,BFS,1.0,2581,True,1035.0000,1035.0,7728,17.8712,0.00
maze512-1-0.map,maze512-1-0.map.scen,4,BFS,1.0,2587,True,1034.0000,1034.0,60775,186.7325,0.00
maze512-1-0.map,maze512-1-0.map.scen,4,BFS,1.0,2593,True,1036.0000,1036.0,24110,54.3983,0.00
maze512-1-0.map,maze512-1-0.map.scen,4,BFS,1.0,2599,True,1036.0000,1036.0,19015,39.4114,0.00
maze512-1-0.map,maze512-1-0.map.scen,4,BFS,1.0,2605,True,1041.0000,1041.0,13805,28.7163,0.00
maze512-1-0.map,maze512-1-0.map.scen,4,BFS,1.0,2611,True,1047.0000,1047.0,24103,53.4886,0.00
maze512-1-0.map,maze512-1-0.map.scen,4,BFS,1.0,2617,True,1047.0000,1047.0,23245,47.5911,0.00
maze512-1-0.map,maze512-1-0.map.scen,4,BFS,1.0,2623,True,1048.0000,1048.0,35361,76.1047,0.00
maze512-1-0.map,maze512-1-0.map.scen,4,BFS,1.0,2630,True,1052.0000,1052.0,7195,14.9793,0.00
maze512-1-0.map,maze512-1-0.map.scen,4,BFS,1.0,2636,True,1054.0000,1054.0,22216,48.0328,0.00
maze512-1-0.map,maze512-1-0.map.scen,4,BFS,1.0,2642,True,1058.0000,1058.0,5084,11.4071,0.00
maze512-1-0.map,maze512-1-0.map.scen,4,BFS,1.0,2648,True,1057.0000,1057.0,3586,7.8087,0.00
maze512-1-0.map,maze512-1-0.map.scen,4,BFS,1.0,2654,True,1062.0000,1062.0,31963,70.2631,0.00
maze512-1-0.map,maze512-1-0.map.scen,4,BFS,1.0,2660,True,1065.0000,1065.0,39387,86.5486,0.00
maze512-1-0.map,maze512-1-0.map.scen,4,BFS,1.0,2666,True,1067.0000,1067.0,20142,40.7421,0.00
maze512-1-0.map,maze512-1-0.map.scen,4,BFS,1.0,2672,True,1069.0000,1069.0,21416,49.8097,0.00
maze512-1-0.map,maze512-1-0.map.scen,4,BFS,1.0,2678,True,1068.0000,1068.0,30649,73.7935,0.00
maze512-1-0.map,maze512-1-0.map.scen,4,BFS,1.0,2684,True,1074.0000,1074.0,26051,59.7225,0.00
maze512-1-0.map,maze512-1-0.map.scen,4,BFS,1.0,2690,True,1076.0000,1076.0,11477,25.3527,0.00
maze512-1-0.map,maze512-1-0.map.scen,4,BFS,1.0,2696,True,1077.0000,1077.0,21798,47.0519,0.00
maze512-1-0.map,maze512-1-0.map.scen,4,BFS,1.0,2702,True,1080.0000,1080.0,7756,16.5168,0.00
maze512-1-0.map,maze512-1-0.map.scen,4,BFS,1.0,2708,True,1082.0000,1082.0,64450,158.5231,0.00
maze512-1-0.map,maze512-1-0.map.scen,4,BFS,1.0,2714,True,1084.0000,1084.0,53426,125.2646,0.00
maze512-1-0.map,maze512-1-0.map.scen,4,BFS,1.0,2720,True,1088.0000,1088.0,23207,52.1964,0.00
maze512-1-0.map,maze512-1-0.map.scen,4,BFS,1.0,2727,True,1088.0000,1088.0,63024,146.7860,0.00
maze512-1-0.map,maze512-1-0.map.scen,4,BFS,1.0,2733,True,1093.0000,1093.0,56936,135.4440,0.00
maze512-1-0.map,maze512-1-0.map.scen,4,BFS,1.0,2739,True,1092.0000,1092.0,29014,70.1298,0.00
maze512-1-0.map,maze512-1-0.map.scen,4,BFS,1.0,2745,True,1097.0000,1097.0,53249,126.1770,0.00
maze512-1-0.map,maze512-1-0.map.scen,4,BFS,1.0,2751,True,1101.0000,1101.0,11955,26.2714,0.00
maze512-1-0.map,maze512-1-0.map.scen,4,BFS,1.0,2757,True,1102.0000,1102.0,20422,45.4097,0.00
maze512-1-0.map,maze512-1-0.map.scen,4,BFS,1.0,2763,True,1106.0000,1106.0,39753,118.1792,0.00
maze512-1-0.map,maze512-1-0.map.scen,4,BFS,1.0,2769,True,1105.0000,1105.0,8625,18.9321,0.00
maze512-1-0.map,maze512-1-0.map.scen,4,BFS,1.0,2775,True,1111.0000,1111.0,29079,62.9869,0.00
maze512-1-0.map,maze512-1-0.map.scen,4,BFS,1.0,2781,True,1113.0000,1113.0,7961,16.7632,0.00
maze512-1-0.map,maze512-1-0.map.scen,4,BFS,1.0,2787,True,1115.0000,1115.0,51873,116.7240,0.00
maze512-1-0.map,maze512-1-0.map.scen,4,BFS,1.0,2793,True,1117.0000,1117.0,16737,36.0967,0.00
maze512-1-0.map,maze512-1-0.map.scen,4,BFS,1.0,2799,True,1116.0000,1116.0,10972,24.4749,0.00
maze512-1-0.map,maze512-1-0.map.scen,4,BFS,1.0,2805,True,1120.0000,1120.0,20155,40.9179,0.00
maze512-1-0.map,maze512-1-0.map.scen,4,BFS,1.0,2811,True,1126.0000,1126.0,27861,57.5616,0.00
maze512-1-0.map,maze512-1-0.map.scen,4,BFS,1.0,2817,True,1126.0000,1126.0,37704,79.8769,0.00
maze512-1-0.map,maze512-1-0.map.scen,4,BFS,1.0,2823,True,1128.0000,1128.0,8242,17.6360,0.00
maze512-1-0.map,maze512-1-0.map.scen,4,BFS,1.0,2830,True,1132.0000,1132.0,8303,17.4922,0.00
maze512-1-0.map,maze512-1-0.map.scen,4,BFS,1.0,2836,True,1133.0000,1133.0,18857,38.0280,0.00
maze512-1-0.map,maze512-1-0.map.scen,4,BFS,1.0,2842,True,1136.0000,1136.0,13046,27.3164,0.00
maze512-1-0.map,maze512-1-0.map.scen,4,BFS,1.0,2848,True,1139.0000,1139.0,51464,111.9795,0.00
maze512-1-0.map,maze512-1-0.map.scen,4,BFS,1.0,2854,True,1142.0000,1142.0,30582,66.6298,0.00
maze512-1-0.map,maze512-1-0.map.scen,4,BFS,1.0,2860,True,1146.0000,1146.0,46803,104.3364,0.00
maze512-1-0.map,maze512-1-0.map.scen,4,BFS,1.0,2866,True,1144.0000,1144.0,37764,86.8246,0.00
maze512-1-0.map,maze512-1-0.map.scen,4,BFS,1.0,2872,True,1151.0000,1151.0,29641,66.1172,0.00
maze512-1-0.map,maze512-1-0.map.scen,4,BFS,1.0,2878,True,1151.0000,1151.0,55771,122.2054,0.00
maze512-1-0.map,maze512-1-0.map.scen,4,BFS,1.0,2884,True,1155.0000,1155.0,7436,15.5991,0.00
maze512-1-0.map,maze512-1-0.map.scen,4,BFS,1.0,2890,True,1158.0000,1158.0,33990,70.7670,0.00
maze512-1-0.map,maze512-1-0.map.scen,4,BFS,1.0,2896,True,1158.0000,1158.0,45646,98.6078,0.00
maze512-1-0.map,maze512-1-0.map.scen,4,BFS,1.0,2902,True,1161.0000,1161.0,14484,31.6066,0.00
maze512-1-0.map,maze512-1-0.map.scen,4,BFS,1.0,2908,True,1163.0000,1163.0,20983,45.1272,0.00
maze512-1-0.map,maze512-1-0.map.scen,4,BFS,1.0,2914,True,1166.0000,1166.0,21890,46.6388,0.00
maze512-1-0.map,maze512-1-0.map.scen,4,BFS,1.0,2920,True,1169.0000,1169.0,28934,61.0125,0.00
maze512-1-0.map,maze512-1-0.map.scen,4,BFS,1.0,2926,True,1168.0000,1168.0,26601,55.2671,0.00
maze512-1-0.map,maze512-1-0.map.scen,4,BFS,1.0,2933,True,1175.0000,1175.0,19768,42.0892,0.00
maze512-1-0.map,maze512-1-0.map.scen,4,BFS,1.0,2939,True,1174.0000,1174.0,22134,46.9608,0.00
maze512-1-0.map,maze512-1-0.map.scen,4,BFS,1.0,2945,True,1179.0000,1179.0,56781,126.4339,0.00
maze512-1-0.map,maze512-1-0.map.scen,4,BFS,1.0,2951,True,1183.0000,1183.0,32290,72.3764,0.00
maze512-1-0.map,maze512-1-0.map.scen,4,BFS,1.0,2957,True,1182.0000,1182.0,56673,125.6588,0.00
maze512-1-0.map,maze512-1-0.map.scen,4,BFS,1.0,2963,True,1184.0000,1184.0,26000,54.0079,0.00
maze512-1-0.map,maze512-1-0.map.scen,4,BFS,1.0,2969,True,1185.0000,1185.0,29965,60.6988,0.00
maze512-1-0.map,maze512-1-0.map.scen,4,BFS,1.0,2975,True,1188.0000,1188.0,31517,63.9059,0.00
maze512-1-0.map,maze512-1-0.map.scen,4,BFS,1.0,2981,True,1195.0000,1195.0,59042,142.9296,0.00
maze512-1-0.map,maze512-1-0.map.scen,4,BFS,1.0,2987,True,1195.0000,1195.0,49480,121.7354,0.00
maze512-1-0.map,maze512-1-0.map.scen,4,BFS,1.0,2993,True,1198.0000,1198.0,57242,123.5185,0.00
maze512-1-0.map,maze512-1-0.map.scen,4,BFS,1.0,2999,True,1198.0000,1198.0,13896,29.8842,0.00
maze512-1-0.map,maze512-1-0.map.scen,4,BFS,1.0,3005,True,1203.0000,1203.0,40797,83.3623,0.00
maze512-1-0.map,maze512-1-0.map.scen,4,BFS,1.0,3011,True,1207.0000,1207.0,37454,80.9049,0.00
maze512-1-0.map,maze512-1-0.map.scen,4,BFS,1.0,3017,True,1207.0000,1207.0,30932,66.6980,0.00
maze512-1-0.map,maze512-1-0.map.scen,4,BFS,1.0,3023,True,1211.0000,1211.0,47132,108.5432,0.00
maze512-1-0.map,maze512-1-0.map.scen,4,BFS,1.0,3030,True,1212.0000,1212.0,43373,100.1311,0.00
maze512-1-0.map,maze512-1-0.map.scen,4,BFS,1.0,3036,True,1215.0000,1215.0,64107,144.5900,0.00
maze512-1-0.map,maze512-1-0.map.scen,4,BFS,1.0,3042,True,1218.0000,1218.0,30054,71.7181,0.00
maze512-1-0.map,maze512-1-0.map.scen,4,BFS,1.0,3048,True,1219.0000,1219.0,6532,14.9110,0.00
maze512-1-0.map,maze512-1-0.map.scen,4,BFS,1.0,3054,True,1220.0000,1220.0,51336,116.0902,0.00
maze512-1-0.map,maze512-1-0.map.scen,4,BFS,1.0,3060,True,1225.0000,1225.0,27397,57.1962,0.00
maze512-1-0.map,maze512-1-0.map.scen,4,BFS,1.0,3066,True,1226.0000,1226.0,50649,112.7522,0.00
maze512-1-0.map,maze512-1-0.map.scen,4,BFS,1.0,3072,True,1230.0000,1230.0,22576,48.1498,0.00
maze512-1-0.map,maze512-1-0.map.scen,4,BFS,1.0,3078,True,1228.0000,1228.0,49659,109.7854,0.00
maze512-1-0.map,maze512-1-0.map.scen,4,BFS,1.0,3084,True,1235.0000,1235.0,33509,72.0657,0.00
maze512-1-0.map,maze512-1-0.map.scen,4,BFS,1.0,3090,True,1237.0000,1237.0,67010,145.5769,0.00
maze512-1-0.map,maze512-1-0.map.scen,4,BFS,1.0,3096,True,1236.0000,1236.0,27016,56.9027,0.00
maze512-1-0.map,maze512-1-0.map.scen,4,BFS,1.0,3102,True,1243.0000,1243.0,15229,31.0289,0.00
maze512-1-0.map,maze512-1-0.map.scen,4,BFS,1.0,3108,True,1241.0000,1241.0,66546,148.4418,0.00
maze512-1-0.map,maze512-1-0.map.scen,4,BFS,1.0,3114,True,1245.0000,1245.0,61784,134.1556,0.00
maze512-1-0.map,maze512-1-0.map.scen,4,BFS,1.0,3120,True,1250.0000,1250.0,31370,66.7821,0.00
maze512-1-0.map,maze512-1-0.map.scen,4,BFS,1.0,3126,True,1250.0000,1250.0,33485,71.3625,0.00
maze512-1-0.map,maze512-1-0.map.scen,4,BFS,1.0,3133,True,1255.0000,1255.0,31768,66.7835,0.00
maze512-1-0.map,maze512-1-0.map.scen,4,BFS,1.0,3139,True,1252.0000,1252.0,32413,67.7051,0.00
maze512-1-0.map,maze512-1-0.map.scen,4,BFS,1.0,3145,True,1259.0000,1259.0,10931,25.9464,0.00
maze512-1-0.map,maze512-1-0.map.scen,4,BFS,1.0,3151,True,1263.0000,1263.0,24982,56.5085,0.00
maze512-1-0.map,maze512-1-0.map.scen,4,BFS,1.0,3157,True,1260.0000,1260.0,7912,16.3253,0.00
maze512-1-0.map,maze512-1-0.map.scen,4,BFS,1.0,3163,True,1267.0000,1267.0,51436,111.7244,0.00
maze512-1-0.map,maze512-1-0.map.scen,4,BFS,1.0,3169,True,1266.0000,1266.0,67124,151.8393,0.00
maze512-1-0.map,maze512-1-0.map.scen,4,BFS,1.0,3175,True,1268.0000,1268.0,19132,41.5973,0.00
maze512-1-0.map,maze512-1-0.map.scen,4,BFS,1.0,3181,True,1273.0000,1273.0,57860,125.7237,0.00
maze512-1-0.map,maze512-1-0.map.scen,4,BFS,1.0,3187,True,1275.0000,1275.0,25955,58.8746,0.00
maze512-1-0.map,maze512-1-0.map.scen,4,BFS,1.0,3193,True,1279.0000,1279.0,41520,92.2300,0.00
maze512-1-0.map,maze512-1-0.map.scen,4,BFS,1.0,3199,True,1277.0000,1277.0,66444,146.1968,0.00
maze512-1-0.map,maze512-1-0.map.scen,4,BFS,1.0,3205,True,1281.0000,1281.0,54438,119.5512,0.00
maze512-1-0.map,maze512-1-0.map.scen,4,BFS,1.0,3211,True,1284.0000,1284.0,68365,147.4274,0.00
maze512-1-0.map,maze512-1-0.map.scen,4,BFS,1.0,3217,True,1287.0000,1287.0,14391,31.1309,0.00
maze512-1-0.map,maze512-1-0.map.scen,4,BFS,1.0,3223,True,1290.0000,1290.0,15689,32.8199,0.00
maze512-1-0.map,maze512-1-0.map.scen,4,BFS,1.0,3229,True,1291.0000,1291.0,9730,20.2455,0.00
maze512-1-0.map,maze512-1-0.map.scen,4,BFS,1.0,3236,True,1293.0000,1293.0,4709,9.5051,0.00
maze512-1-0.map,maze512-1-0.map.scen,4,BFS,1.0,3242,True,1296.0000,1296.0,35524,73.3270,0.00
maze512-1-0.map,maze512-1-0.map.scen,4,BFS,1.0,3248,True,1298.0000,1298.0,7509,16.6712,0.00
maze512-1-0.map,maze512-1-0.map.scen,4,BFS,1.0,3254,True,1302.0000,1302.0,5141,10.7818,0.00
maze512-1-0.map,maze512-1-0.map.scen,4,BFS,1.0,3260,True,1306.0000,1306.0,33390,71.1422,0.00
maze512-1-0.map,maze512-1-0.map.scen,4,BFS,1.0,3266,True,1304.0000,1304.0,10362,23.2816,0.00
maze512-1-0.map,maze512-1-0.map.scen,4,BFS,1.0,3272,True,1309.0000,1309.0,23140,49.4641,0.00
maze512-1-0.map,maze512-1-0.map.scen,4,BFS,1.0,3278,True,1311.0000,1311.0,43951,117.5927,0.00
maze512-1-0.map,maze512-1-0.map.scen,4,BFS,1.0,3284,True,1315.0000,1315.0,38778,86.3454,0.00
maze512-1-0.map,maze512-1-0.map.scen,4,BFS,1.0,3290,True,1319.0000,1319.0,20434,41.3385,0.00
maze512-1-0.map,maze512-1-0.map.scen,4,BFS,1.0,3296,True,1318.0000,1318.0,31855,66.9532,0.00
maze512-1-0.map,maze512-1-0.map.scen,4,BFS,1.0,3302,True,1322.0000,1322.0,10360,21.0143,0.00
maze512-1-0.map,maze512-1-0.map.scen,4,BFS,1.0,3308,True,1322.0000,1322.0,54065,123.3451,0.00
maze512-1-0.map,maze512-1-0.map.scen,4,BFS,1.0,3314,True,1327.0000,1327.0,40484,88.0810,0.00
maze512-1-0.map,maze512-1-0.map.scen,4,BFS,1.0,3320,True,1331.0000,1331.0,55218,124.0140,0.00
maze512-1-0.map,maze512-1-0.map.scen,4,BFS,1.0,3326,True,1328.0000,1328.0,12323,26.6478,0.00
maze512-1-0.map,maze512-1-0.map.scen,4,BFS,1.0,3333,True,1332.0000,1332.0,47103,103.0148,0.00
maze512-1-0.map,maze512-1-0.map.scen,4,BFS,1.0,3339,True,1335.0000,1335.0,46489,104.1269,0.00
maze512-1-0.map,maze512-1-0.map.scen,4,BFS,1.0,3345,True,1336.0000,1336.0,37292,82.0127,0.00
maze512-1-0.map,maze512-1-0.map.scen,4,BFS,1.0,3351,True,1343.0000,1343.0,62828,143.7545,0.00
maze512-1-0.map,maze512-1-0.map.scen,4,BFS,1.0,3357,True,1343.0000,1343.0,40905,84.2828,0.00
maze512-1-0.map,maze512-1-0.map.scen,4,BFS,1.0,3363,True,1345.0000,1345.0,8375,18.7558,0.00
maze512-1-0.map,maze512-1-0.map.scen,4,BFS,1.0,3369,True,1345.0000,1345.0,40834,92.1403,0.00
maze512-1-0.map,maze512-1-0.map.scen,4,BFS,1.0,3375,True,1348.0000,1348.0,18208,41.2733,0.00
maze512-1-0.map,maze512-1-0.map.scen,4,BFS,1.0,3381,True,1354.0000,1354.0,16832,35.8312,0.00
maze512-1-0.map,maze512-1-0.map.scen,4,BFS,1.0,3387,True,1355.0000,1355.0,60217,133.1816,0.00
maze512-1-0.map,maze512-1-0.map.scen,4,BFS,1.0,3393,True,1357.0000,1357.0,60402,132.7565,0.00
maze512-1-0.map,maze512-1-0.map.scen,4,BFS,1.0,3399,True,1359.0000,1359.0,23121,50.5808,0.00
maze512-1-0.map,maze512-1-0.map.scen,4,BFS,1.0,3405,True,1362.0000,1362.0,51042,110.6709,0.00
maze512-1-0.map,maze512-1-0.map.scen,4,BFS,1.0,3411,True,1367.0000,1367.0,83525,191.2637,0.00
maze512-1-0.map,maze512-1-0.map.scen,4,BFS,1.0,3417,True,1364.0000,1364.0,31654,67.7076,0.00
maze512-1-0.map,maze512-1-0.map.scen,4,BFS,1.0,3423,True,1368.0000,1368.0,11769,24.3729,0.00
maze512-1-0.map,maze512-1-0.map.scen,4,BFS,1.0,3429,True,1369.0000,1369.0,17240,33.9083,0.00
maze512-1-0.map,maze512-1-0.map.scen,4,BFS,1.0,3436,True,1374.0000,1374.0,49008,106.7161,0.00
maze512-1-0.map,maze512-1-0.map.scen,4,BFS,1.0,3442,True,1379.0000,1379.0,49088,112.1811,0.00
maze512-1-0.map,maze512-1-0.map.scen,4,BFS,1.0,3448,True,1378.0000,1378.0,52754,121.0872,0.00
maze512-1-0.map,maze512-1-0.map.scen,4,BFS,1.0,3454,True,1383.0000,1383.0,18801,40.9577,0.00
maze512-1-0.map,maze512-1-0.map.scen,4,BFS,1.0,3460,True,1385.0000,1385.0,24719,51.7082,0.00
maze512-1-0.map,maze512-1-0.map.scen,4,BFS,1.0,3466,True,1384.0000,1384.0,59242,130.6887,0.00
maze512-1-0.map,maze512-1-0.map.scen,4,BFS,1.0,3472,True,1388.0000,1388.0,30219,63.7981,0.00
maze512-1-0.map,maze512-1-0.map.scen,4,BFS,1.0,3478,True,1390.0000,1390.0,21640,44.5977,0.00
maze512-1-0.map,maze512-1-0.map.scen,4,BFS,1.0,3484,True,1392.0000,1392.0,51125,109.4531,0.00
maze512-1-0.map,maze512-1-0.map.scen,4,BFS,1.0,3490,True,1396.0000,1396.0,56338,125.4956,0.00
maze512-1-0.map,maze512-1-0.map.scen,4,BFS,1.0,3496,True,1398.0000,1398.0,43189,98.5325,0.00
maze512-1-0.map,maze512-1-0.map.scen,4,BFS,1.0,3502,True,1400.0000,1400.0,23745,50.2876,0.00
maze512-1-0.map,maze512-1-0.map.scen,4,BFS,1.0,3508,True,1403.0000,1403.0,58401,125.3140,0.00
maze512-1-0.map,maze512-1-0.map.scen,4,BFS,1.0,3514,True,1404.0000,1404.0,84948,187.4443,0.00
maze512-1-0.map,maze512-1-0.map.scen,4,BFS,1.0,3520,True,1409.0000,1409.0,57955,126.7773,0.00
maze512-1-0.map,maze512-1-0.map.scen,4,BFS,1.0,3526,True,1408.0000,1408.0,31656,68.6352,0.00
maze512-1-0.map,maze512-1-0.map.scen,4,BFS,1.0,3532,True,1413.0000,1413.0,30159,65.7473,0.00
maze512-1-0.map,maze512-1-0.map.scen,4,BFS,1.0,3539,True,1415.0000,1415.0,62751,138.4058,0.00
maze512-1-0.map,maze512-1-0.map.scen,4,BFS,1.0,3545,True,1416.0000,1416.0,25854,54.8022,0.00
maze512-1-0.map,maze512-1-0.map.scen,4,BFS,1.0,3551,True,1423.0000,1423.0,74173,168.3665,0.00
maze512-1-0.map,maze512-1-0.map.scen,4,BFS,1.0,3557,True,1420.0000,1420.0,31899,72.1773,0.00
maze512-1-0.map,maze512-1-0.map.scen,4,BFS,1.0,3563,True,1426.0000,1426.0,52031,113.3847,0.00
maze512-1-0.map,maze512-1-0.map.scen,4,BFS,1.0,3569,True,1427.0000,1427.0,31106,69.7917,0.00
maze512-1-0.map,maze512-1-0.map.scen,4,BFS,1.0,3575,True,1429.0000,1429.0,36522,78.2387,0.00
maze512-1-0.map,maze512-1-0.map.scen,4,BFS,1.0,3581,True,1432.0000,1432.0,77585,168.3124,0.00
maze512-1-0.map,maze512-1-0.map.scen,4,BFS,1.0,3587,True,1435.0000,1435.0,56325,122.4270,0.00
maze512-1-0.map,maze512-1-0.map.scen,4,BFS,1.0,3593,True,1436.0000,1436.0,36788,78.2662,0.00
maze512-1-0.map,maze512-1-0.map.scen,4,BFS,1.0,3599,True,1437.0000,1437.0,58011,125.8588,0.00
maze512-1-0.map,maze512-1-0.map.scen,4,BFS,1.0,3605,True,1443.0000,1443.0,63163,136.7197,0.00
maze512-1-0.map,maze512-1-0.map.scen,4,BFS,1.0,3611,True,1446.0000,1446.0,38596,83.0637,0.00
maze512-1-0.map,maze512-1-0.map.scen,4,BFS,1.0,3617,True,1445.0000,1445.0,21369,46.2891,0.00
maze512-1-0.map,maze512-1-0.map.scen,4,BFS,1.0,3623,True,1448.0000,1448.0,31682,67.5332,0.00
maze512-1-0.map,maze512-1-0.map.scen,4,BFS,1.0,3629,True,1450.0000,1450.0,47827,105.0101,0.00
maze512-1-0.map,maze512-1-0.map.scen,4,BFS,1.0,3635,True,1453.0000,1453.0,28352,62.3060,0.00
maze512-1-0.map,maze512-1-0.map.scen,4,BFS,1.0,3642,True,1457.0000,1457.0,82117,183.2731,0.00
maze512-1-0.map,maze512-1-0.map.scen,4,BFS,1.0,3648,True,1458.0000,1458.0,61464,134.4377,0.00
maze512-1-0.map,maze512-1-0.map.scen,4,BFS,1.0,3654,True,1463.0000,1463.0,88086,206.6164,0.00
maze512-1-0.map,maze512-1-0.map.scen,4,BFS,1.0,3660,True,1465.0000,1465.0,19579,51.9125,0.00
maze512-1-0.map,maze512-1-0.map.scen,4,BFS,1.0,3666,True,1464.0000,1464.0,19075,44.8790,0.00
maze512-1-0.map,maze512-1-0.map.scen,4,BFS,1.0,3672,True,1470.0000,1470.0,36396,83.5875,0.00
maze512-1-0.map,maze512-1-0.map.scen,4,BFS,1.0,3678,True,1470.0000,1470.0,45683,105.5180,0.00
maze512-1-0.map,maze512-1-0.map.scen,4,BFS,1.0,3684,True,1472.0000,1472.0,28511,60.4874,0.00
maze512-1-0.map,maze512-1-0.map.scen,4,BFS,1.0,3690,True,1479.0000,1479.0,61797,142.7908,0.00
maze512-1-0.map,maze512-1-0.map.scen,4,BFS,1.0,3696,True,1477.0000,1477.0,20869,46.4509,0.00
maze512-1-0.map,maze512-1-0.map.scen,4,BFS,1.0,3702,True,1480.0000,1480.0,57389,122.7866,0.00
maze512-1-0.map,maze512-1-0.map.scen,4,BFS,1.0,3708,True,1480.0000,1480.0,58109,124.1724,0.00
maze512-1-0.map,maze512-1-0.map.scen,4,BFS,1.0,3714,True,1485.0000,1485.0,21718,45.7480,0.00
maze512-1-0.map,maze512-1-0.map.scen,4,BFS,1.0,3720,True,1490.0000,1490.0,41525,88.7303,0.00
maze512-1-0.map,maze512-1-0.map.scen,4,BFS,1.0,3726,True,1488.0000,1488.0,45731,101.5023,0.00
maze512-1-0.map,maze512-1-0.map.scen,4,BFS,1.0,3732,True,1492.0000,1492.0,66614,141.6808,0.00
maze512-1-0.map,maze512-1-0.map.scen,4,BFS,1.0,3739,True,1493.0000,1493.0,59453,130.5801,0.00
maze512-1-0.map,maze512-1-0.map.scen,4,BFS,1.0,3745,True,1499.0000,1499.0,35019,72.7338,0.00
maze512-1-0.map,maze512-1-0.map.scen,4,BFS,1.0,3751,True,1502.0000,1502.0,20955,44.6788,0.00
maze512-1-0.map,maze512-1-0.map.scen,4,BFS,1.0,3757,True,1503.0000,1503.0,85079,189.6495,0.00
maze512-1-0.map,maze512-1-0.map.scen,4,BFS,1.0,3763,True,1506.0000,1506.0,50761,111.3538,0.00
maze512-1-0.map,maze512-1-0.map.scen,4,BFS,1.0,3769,True,1506.0000,1506.0,18535,38.2335,0.00
maze512-1-0.map,maze512-1-0.map.scen,4,BFS,1.0,3775,True,1509.0000,1509.0,25238,55.8588,0.00
maze512-1-0.map,maze512-1-0.map.scen,4,BFS,1.0,3781,True,1513.0000,1513.0,57799,134.4249,0.00
maze512-1-0.map,maze512-1-0.map.scen,4,BFS,1.0,3787,True,1512.0000,1512.0,28114,59.7976,0.00
maze512-1-0.map,maze512-1-0.map.scen,4,BFS,1.0,3793,True,1516.0000,1516.0,52242,112.0971,0.00
maze512-1-0.map,maze512-1-0.map.scen,4,BFS,1.0,3799,True,1517.0000,1517.0,44941,101.2368,0.00
maze512-1-0.map,maze512-1-0.map.scen,4,BFS,1.0,3805,True,1521.0000,1521.0,78828,174.6610,0.00
maze512-1-0.map,maze512-1-0.map.scen,4,BFS,1.0,3811,True,1525.0000,1525.0,50454,107.5652,0.00
maze512-1-0.map,maze512-1-0.map.scen,4,BFS,1.0,3817,True,1525.0000,1525.0,46743,100.7887,0.00
maze512-1-0.map,maze512-1-0.map.scen,4,BFS,1.0,3823,True,1530.0000,1530.0,45135,107.4597,0.00
maze512-1-0.map,maze512-1-0.map.scen,4,BFS,1.0,3829,True,1530.0000,1530.0,71727,167.2916,0.00
maze512-1-0.map,maze512-1-0.map.scen,4,BFS,1.0,3835,True,1532.0000,1532.0,53692,124.0507,0.00
maze512-1-0.map,maze512-1-0.map.scen,4,BFS,1.0,3842,True,1538.0000,1538.0,38036,79.6640,0.00
maze512-1-0.map,maze512-1-0.map.scen,4,BFS,1.0,3848,True,1539.0000,1539.0,30682,64.4234,0.00
maze512-1-0.map,maze512-1-0.map.scen,4,BFS,1.0,3854,True,1541.0000,1541.0,55624,119.7602,0.00
maze512-1-0.map,maze512-1-0.map.scen,4,BFS,1.0,3860,True,1547.0000,1547.0,31156,67.4676,0.00
maze512-1-0.map,maze512-1-0.map.scen,4,BFS,1.0,3866,True,1545.0000,1545.0,73284,156.6570,0.00
maze512-1-0.map,maze512-1-0.map.scen,4,BFS,1.0,3872,True,1550.0000,1550.0,35732,75.0217,0.00
maze512-1-0.map,maze512-1-0.map.scen,4,BFS,1.0,3878,True,1549.0000,1549.0,42514,92.5339,0.00
maze512-1-0.map,maze512-1-0.map.scen,4,BFS,1.0,3884,True,1554.0000,1554.0,11133,24.4545,0.00
maze512-1-0.map,maze512-1-0.map.scen,4,BFS,1.0,3890,True,1558.0000,1558.0,61628,134.8241,0.00
maze512-1-0.map,maze512-1-0.map.scen,4,BFS,1.0,3896,True,1557.0000,1557.0,67887,143.7294,0.00
maze512-1-0.map,maze512-1-0.map.scen,4,BFS,1.0,3902,True,1563.0000,1563.0,8657,18.6689,0.00
maze512-1-0.map,maze512-1-0.map.scen,4,BFS,1.0,3908,True,1561.0000,1561.0,22830,48.8054,0.00
maze512-1-0.map,maze512-1-0.map.scen,4,BFS,1.0,3914,True,1566.0000,1566.0,8397,17.3226,0.00
maze512-1-0.map,maze512-1-0.map.scen,4,BFS,1.0,3920,True,1568.0000,1568.0,29663,61.8020,0.00
maze512-1-0.map,maze512-1-0.map.scen,4,BFS,1.0,3926,True,1569.0000,1569.0,24010,49.2923,0.00
maze512-1-0.map,maze512-1-0.map.scen,4,BFS,1.0,3932,True,1575.0000,1575.0,86633,210.6768,0.00
maze512-1-0.map,maze512-1-0.map.scen,4,BFS,1.0,3938,True,1575.0000,1575.0,64835,144.8628,0.00
maze512-1-0.map,maze512-1-0.map.scen,4,BFS,1.0,3945,True,1576.0000,1576.0,64171,138.4376,0.00
maze512-1-0.map,maze512-1-0.map.scen,4,BFS,1.0,3951,True,1581.0000,1581.0,23709,50.6737,0.00
maze512-1-0.map,maze512-1-0.map.scen,4,BFS,1.0,3957,True,1583.0000,1583.0,19396,38.8159,0.00
