MapName,Scenario,Connectivity,Algorithm,Weight,TaskID,Success,PathLength,OptimalLength,ExpandedNodes,TimeMS,Suboptimality
maze512-1-0.map,maze512-1-0.map.scen,4,BFS,1.0,0,True,2.0000,2.0,4,0.0230,0.00
maze512-1-0.map,maze512-1-0.map.scen,4,BFS,1.0,1,True,2.0000,2.0,5,0.0142,0.00
maze512-1-0.map,maze512-1-0.map.scen,4,BFS,1.0,2,True,3.0000,3.0,7,0.0148,0.00
maze512-1-0.map,maze512-1-0.map.scen,4,BFS,1.0,3,True,2.0000,2.0,5,0.0113,0.00
maze512-1-0.map,maze512-1-0.map.scen,4,BFS,1.0,4,True,1.0000,1.0,3,0.0075,0.00
maze512-1-0.map,maze512-1-0.map.scen,4,BFS,1.0,5,True,2.0000,2.0,5,0.0119,0.00
maze512-1-0.map,maze512-1-0.map.scen,4,BFS,1.0,6,True,1.0000,1.0,3,0.0083,0.00
maze512-1-0.map,maze512-1-0.map.scen,4,BFS,1.0,7,True,3.0000,3.0,6,0.0145,0.00
maze512-1-0.map,maze512-1-0.map.scen,4,BFS,1.0,8,True,0.0000,0.0,1,0.0020,0.00
maze512-1-0.map,maze512-1-0.map.scen,4,BFS,1.0,9,True,1.0000,1.0,3,0.0096,0.00
maze512-1-0.map,maze512-1-0.map.scen,4,BFS,1.0,10,True,5.0000,5.0,13,0.0305,0.00
maze512-1-0.map,maze512-1-0.map.scen,4,BFS,1.0,11,True,7.0000,7.0,21,0.0509,0.00
maze512-1-0.map,maze512-1-0.map.scen,4,BFS,1.0,12,True,7.0000,7.0,18,0.0473,0.00
maze512-1-0.map,maze512-1-0.map.scen,4,BFS,1.0,13,True,5.0000,5.0,10,0.0242,0.00
maze512-1-0.map,maze512-1-0.map.scen,4,BFS,1.0,14,True,5.0000,5.0,11,0.0269,0.00
maze512-1-0.map,maze512-1-0.map.scen,4,BFS,1.0,15,True,5.0000,5.0,10,0.0227,0.00
maze512-1-0.map,maze512-1-0.map.scen,4,BFS,1.0,16,True,6.0000,6.0,12,0.0279,0.00
maze512-1-0.map,maze512-1-0.map.scen,4,BFS,1.0,17,True,7.0000,7.0,18,0.0438,0.00
maze512-1-0.map,maze512-1-0.map.scen,4,BFS,1.0,18,True,4.0000,4.0,9,0.0222,0.00
maze512-1-0.map,maze512-1-0.map.scen,4,BFS,1.0,19,True,7.0000,7.0,14,0.0329,0.00
maze512-1-0.map,maze512-1-0.map.scen,4,BFS,1.0,20,True,11.0000,11.0,23,0.0565,0.00
maze512-1-0.map,maze512-1-0.map.scen,4,BFS,1.0,21,True,11.0000,11.0,32,0.0772,0.00
maze512-1-0.map,maze512-1-0.map.scen,4,BFS,1.0,22,True,10.0000,10.0,22,0.0473,0.00
maze512-1-0.map,maze512-1-0.map.scen,4,BFS,1.0,23,True,10.0000,10.0,26,0.0542,0.00
maze512-1-0.map,maze512-1-0.map.scen,4,BFS,1.0,24,True,8.0000,8.0,19,0.0444,0.00
maze512-1-0.map,maze512-1-0.map.scen,4,BFS,1.0,25,True,11.0000,11.0,33,0.0751,0.00
maze512-1-0.map,maze512-1-0.map.scen,4,BFS,1.0,26,True,11.0000,11.0,29,0.0668,0.00
maze512-1-0.map,maze512-1-0.map.scen,4,BFS,1.0,27,True,9.0000,9.0,27,0.0578,0.00
maze512-1-0.map,maze512-1-0.map.scen,4,BFS,1.0,28,True,8.0000,8.0,27,0.0618,0.00
maze512-1-0.map,maze512-1-0.map.scen,4,BFS,1.0,29,True,8.0000,8.0,20,0.0435,0.00
maze512-1-0.map,maze512-1-0.map.scen,4,BFS,1.0,30,True,12.0000,12.0,26,0.0565,0.00
maze512-1-0.map,maze512-1-0.map.scen,4,BFS,1.0,31,True,15.0000,15.0,38,0.0835,0.00
maze512-1-0.map,maze512-1-0.map.scen,4,BFS,1.0,32,True,15.0000,15.0,39,0.0847,0.00
maze512-1-0.map,maze512-1-0.map.scen,4,BFS,1.0,33,True,13.0000,13.0,26,0.0593,0.00
maze512-1-0.map,maze512-1-0.map.scen,4,BFS,1.0,34,True,13.0000,13.0,40,0.0877,0.00
maze512-1-0.map,maze512-1-0.map.scen,4,BFS,1.0,35,True,15.0000,15.0,42,0.0870,0.00
maze512-1-0.map,maze512-1-0.map.scen,4,BFS,1.0,36,True,15.0000,15.0,56,0.1290,0.00
maze512-1-0.map,maze512-1-0.map.scen,4,BFS,1.0,37,True,12.0000,12.0,33,0.0751,0.00
maze512-1-0.map,maze512-1-0.map.scen,4,BFS,1.0,38,True,14.0000,14.0,47,0.0937,0.00
maze512-1-0.map,maze512-1-0.map.scen,4,BFS,1.0,39,True,14.0000,14.0,32,0.0656,0.00
maze512-1-0.map,maze512-1-0.map.scen,4,BFS,1.0,40,True,18.0000,18.0,59,0.1286,0.00
maze512-1-0.map,maze512-1-0.map.scen,4,BFS,1.0,41,True,16.0000,16.0,38,0.0795,0.00
maze512-1-0.map,maze512-1-0.map.scen,4,BFS,1.0,42,True,19.0000,19.0,46,0.0949,0.00
maze512-1-0.map,maze512-1-0.map.scen,4,BFS,1.0,43,True,18.0000,18.0,61,0.1369,0.00
maze512-1-0.map,maze512-1-0.map.scen,4,BFS,1.0,44,True,18.0000,18.0,51,0.1046,0.00
maze512-1-0.map,maze512-1-0.map.scen,4,BFS,1.0,45,True,19.0000,19.0,62,0.1364,0.00
maze512-1-0.map,maze512-1-0.map.scen,4,BFS,1.0,46,True,18.0000,18.0,47,0.1024,0.00
maze512-1-0.map,maze512-1-0.map.scen,4,BFS,1.0,47,True,18.0000,18.0,44,0.0971,0.00
maze512-1-0.map,maze512-1-0.map.scen,4,BFS,1.0,48,True,19.0000,19.0,53,0.1113,0.00
maze512-1-0.map,maze512-1-0.map.scen,4,BFS,1.0,49,True,16.0000,16.0,24,0.0513,0.00
maze512-1-0.map,maze512-1-0.map.scen,4,BFS,1.0,50,True,20.0000,20.0,69,0.1544,0.00
maze512-1-0.map,maze512-1-0.map.scen,4,BFS,1.0,51,True,21.0000,21.0,41,0.0910,0.00
maze512-1-0.map,maze512-1-0.map.scen,4,BFS,1.0,52,True,23.0000,23.0,109,0.2354,0.00
maze512-1-0.map,maze512-1-0.map.scen,4,BFS,1.0,53,True,20.0000,20.0,55,0.1180,0.00
maze512-1-0.map,maze512-1-0.map.scen,4,BFS,1.0,54,True,23.0000,23.0,42,0.0895,0.00
maze512-1-0.map,maze512-1-0.map.scen,4,BFS,1.0,55,True,21.0000,21.0,52,0.1009,0.00
maze512-1-0.map,maze512-1-0.map.scen,4,BFS,1.0,56,True,22.0000,22.0,102,0.2179,0.00
maze512-1-0.map,maze512-1-0.map.scen,4,BFS,1.0,57,True,20.0000,20.0,61,0.1304,0.00
maze512-1-0.map,maze512-1-0.map.scen,4,BFS,1.0,58,True,22.0000,22.0,55,0.1128,0.00
maze512-1-0.map,maze512-1-0.map.scen,4,BFS,1.0,59,True,23.0000,23.0,75,0.1520,0.00
maze512-1-0.map,maze512-1-0.map.scen,4,BFS,1.0,60,True,27.0000,27.0,100,0.1879,0.00
maze512-1-0.map,maze512-1-0.map.scen,4,BFS,1.0,61,True,26.0000,26.0,55,0.1024,0.00
maze512-1-0.map,maze512-1-0.map.scen,4,BFS,1.0,62,True,26.0000,26.0,77,0.1540,0.00
maze512-1-0.map,maze512-1-0.map.scen,4,BFS,1.0,63,True,27.0000,27.0,74,0.1600,0.00
maze512-1-0.map,maze512-1-0.map.scen,4,BFS,1.0,64,True,27.0000,27.0,88,0.1688,0.00
maze512-1-0.map,maze512-1-0.map.scen,4,BFS,1.0,65,True,24.0000,24.0,89,0.1908,0.00
maze512-1-0.map,maze512-1-0.map.scen,4,BFS,1.0,66,True,24.0000,24.0,91,0.1897,0.00
maze512-1-0.map,maze512-1-0.map.scen,4,BFS,1.0,67,True,24.0000,24.0,100,0.2139,0.00
maze512-1-0.map,maze512-1-0.map.scen,4,BFS,1.0,68,True,25.0000,25.0,92,0.2068,0.00
maze512-1-0.map,maze512-1-0.map.scen,4,BFS,1.0,69,True,25.0000,25.0,54,0.1185,0.00
maze512-1-0.map,maze512-1-0.map.scen,4,BFS,1.0,70,True,28.0000,28.0,69,0.1394,0.00
maze512-1-0.map,maze512-1-0.map.scen,4,BFS,1.0,71,True,28.0000,28.0,71,0.1604,0.00
maze512-1-0.map,maze512-1-0.map.scen,4,BFS,1.0,72,True,31.0000,31.0,109,0.2458,0.00
maze512-1-0.map,maze512-1-0.map.scen,4,BFS,1.0,73,True,30.0000,30.0,87,0.1778,0.00
maze512-1-0.map,maze512-1-0.map.scen,4,BFS,1.0,74,True,31.0000,31.0,121,0.2602,0.00
maze512-1-0.map,maze512-1-0.map.scen,4,BFS,1.0,75,True,28.0000,28.0,72,0.1756,0.00
maze512-1-0.map,maze512-1-0.map.scen,4,BFS,1.0,76,True,28.0000,28.0,90,0.1965,0.00
maze512-1-0.map,maze512-1-0.map.scen,4,BFS,1.0,77,True,31.0000,31.0,133,0.3123,0.00
maze512-1-0.map,maze512-1-0.map.scen,4,BFS,1.0,78,True,28.0000,28.0,55,0.1139,0.00
maze512-1-0.map,maze512-1-0.map.scen,4,BFS,1.0,79,True,28.0000,28.0,89,0.1983,0.00
maze512-1-0.map,maze512-1-0.map.scen,4,BFS,1.0,80,True,35.0000,35.0,78,0.1564,0.00
maze512-1-0.map,maze512-1-0.map.scen,4,BFS,1.0,81,True,35.0000,35.0,92,0.1708,0.00
maze512-1-0.map,maze512-1-0.map.scen,4,BFS,1.0,82,True,33.0000,33.0,135,0.3228,0.00
maze512-1-0.map,maze512-1-0.map.scen,4,BFS,1.0,83,True,34.0000,34.0,76,0.1792,0.00
maze512-1-0.map,maze512-1-0.map.scen,4,BFS,1.0,84,True,34.0000,34.0,181,0.4619,0.00
maze512-1-0.map,maze512-1-0.map.scen,4,BFS,1.0,85,True,32.0000,32.0,80,0.1802,0.00
maze512-1-0.map,maze512-1-0.map.scen,4,BFS,1.0,86,True,33.0000,33.0,97,0.2119,0.00
maze512-1-0.map,maze512-1-0.map.scen,4,BFS,1.0,87,True,34.0000,34.0,80,0.1804,0.00
maze512-1-0.map,maze512-1-0.map.scen,4,BFS,1.0,88,True,32.0000,32.0,116,0.2299,0.00
maze512-1-0.map,maze512-1-0.map.scen,4,BFS,1.0,89,True,32.0000,32.0,156,0.3331,0.00
maze512-1-0.map,maze512-1-0.map.scen,4,BFS,1.0,90,True,39.0000,39.0,152,0.3381,0.00
maze512-1-0.map,maze512-1-0.map.scen,4,BFS,1.0,91,True,39.0000,39.0,198,0.4451,0.00
maze512-1-0.map,maze512-1-0.map.scen,4,BFS,1.0,92,True,38.0000,38.0,127,0.3062,0.00
maze512-1-0.map,maze512-1-0.map.scen,4,BFS,1.0,93,True,37.0000,37.0,164,0.3484,0.00
maze512-1-0.map,maze512-1-0.map.scen,4,BFS,1.0,94,True,38.0000,38.0,77,0.1687,0.00
maze512-1-0.map,maze512-1-0.map.scen,4,BFS,1.0,95,True,38.0000,38.0,146,0.3328,0.00
maze512-1-0.map,maze512-1-0.map.scen,4,BFS,1.0,96,True,37.0000,37.0,117,0.2453,0.00
maze512-1-0.map,maze512-1-0.map.scen,4,BFS,1.0,97,True,39.0000,39.0,140,0.2871,0.00
maze512-1-0.map,maze512-1-0.map.scen,4,BFS,1.0,98,True,36.0000,36.0,140,0.2932,0.00
maze512-1-0.map,maze512-1-0.map.scen,4,BFS,1.0,99,True,38.0000,38.0,158,0.3050,0.00
maze512-1-0.map,maze512-1-0.map.scen,4,BFS,1.0,100,True,43.0000,43.0,163,0.3543,0.00
maze512-1-0.map,maze512-1-0.map.scen,4,BFS,1.0,101,True,41.0000,41.0,164,0.3736,0.00
maze512-1-0.map,maze512-1-0.map.scen,4,BFS,1.0,102,True,43.0000,43.0,175,0.3804,0.00
maze512-1-0.map,maze512-1-0.map.scen,4,BFS,1.0,103,True,42.0000,42.0,110,0.2610,0.00
maze512-1-0.map,maze512-1-0.map.scen,4,BFS,1.0,104,True,43.0000,43.0,153,0.3893,0.00
maze512-1-0.map,maze512-1-0.map.scen,4,BFS,1.0,105,True,40.0000,40.0,85,0.2013,0.00
maze512-1-0.map,maze512-1-0.map.scen,4,BFS,1.0,106,True,40.0000,40.0,187,0.4707,0.00
maze512-1-0.map,maze512-1-0.map.scen,4,BFS,1.0,107,True,41.0000,41.0,151,0.3591,0.00
maze512-1-0.map,maze512-1-0.map.scen,4,BFS,1.0,108,True,42.0000,42.0,107,0.2278,0.00
maze512-1-0.map,maze512-1-0.map.scen,4,BFS,1.0,109,True,41.0000,41.0,166,0.3650,0.00
maze512-1-0.map,maze512-1-0.map.scen,4,BFS,1.0,110,True,45.0000,45.0,116,0.2147,0.00
maze512-1-0.map,maze512-1-0.map.scen,4,BFS,1.0,111,True,45.0000,45.0,101,0.1982,0.00
maze512-1-0.map,maze512-1-0.map.scen,4,BFS,1.0,112,True,44.0000,44.0,110,0.2189,0.00
maze512-1-0.map,maze512-1-0.map.scen,4,BFS,1.0,113,True,45.0000,45.0,236,0.6082,0.00
maze512-1-0.map,maze512-1-0.map.scen,4,BFS,1.0,114,True,45.0000,45.0,142,0.3229,0.00
maze512-1-0.map,maze512-1-0.map.scen,4,BFS,1.0,115,True,45.0000,45.0,147,0.3326,0.00
maze512-1-0.map,maze512-1-0.map.scen,4,BFS,1.0,116,True,46.0000,46.0,102,0.2194,0.00
maze512-1-0.map,maze512-1-0.map.scen,4,BFS,1.0,117,True,47.0000,47.0,98,0.2554,0.00
maze512-1-0.map,maze512-1-0.map.scen,4,BFS,1.0,118,True,47.0000,47.0,141,0.3193,0.00
maze512-1-0.map,maze512-1-0.map.scen,4,BFS,1.0,119,True,45.0000,45.0,122,0.2567,0.00
maze512-1-0.map,maze512-1-0.map.scen,4,BFS,1.0,120,True,49.0000,49.0,221,0.5386,0.00
maze512-1-0.map,maze512-1-0.map.scen,4,BFS,1.0,121,True,48.0000,48.0,277,0.7490,0.00
maze512-1-0.map,maze512-1-0.map.scen,4,BFS,1.0,122,True,49.0000,49.0,125,0.2837,0.00
maze512-1-0.map,maze512-1-0.map.scen,4,BFS,1.0,123,True,51.0000,51.0,162,0.3772,0.00
maze512-1-0.map,maze512-1-0.map.scen,4,BFS,1.0,124,True,50.0000,50.0,175,0.4136,0.00
maze512-1-0.map,maze512-1-0.map.scen,4,BFS,1.0,125,True,50.0000,50.0,184,0.4756,0.00
maze512-1-0.map,maze512-1-0.map.scen,4,BFS,1.0,126,True,48.0000,48.0,121,0.2675,0.00
maze512-1-0.map,maze512-1-0.map.scen,4,BFS,1.0,127,True,49.0000,49.0,169,0.2347,0.00
maze512-1-0.map,maze512-1-0.map.scen,4,BFS,1.0,128,True,50.0000,50.0,163,0.2106,0.00
maze512-1-0.map,maze512-1-0.map.scen,4,BFS,1.0,129,True,50.0000,50.0,226,0.2913,0.00
maze512-1-0.map,maze512-1-0.map.scen,4,BFS,1.0,130,True,53.0000,53.0,213,0.3418,0.00
maze512-1-0.map,maze512-1-0.map.scen,4,BFS,1.0,131,True,54.0000,54.0,169,0.4051,0.00
maze512-1-0.map,maze512-1-0.map.scen,4,BFS,1.0,132,True,55.0000,55.0,199,0.5157,0.00
maze512-1-0.map,maze512-1-0.map.scen,4,BFS,1.0,133,True,55.0000,55.0,248,0.5777,0.00
maze512-1-0.map,maze512-1-0.map.scen,4,BFS,1.0,134,True,52.0000,52.0,134,0.3302,0.00
maze512-1-0.map,maze512-1-0.map.scen,4,BFS,1.0,135,True,52.0000,52.0,134,0.2974,0.00
maze512-1-0.map,maze512-1-0.map.scen,4,BFS,1.0,136,True,55.0000,55.0,180,0.4256,0.00
maze512-1-0.map,maze512-1-0.map.scen,4,BFS,1.0,137,True,53.0000,53.0,252,0.6143,0.00
maze512-1-0.map,maze512-1-0.map.scen,4,BFS,1.0,138,True,55.0000,55.0,160,0.3773,0.00
maze512-1-0.map,maze512-1-0.map.scen,4,BFS,1.0,139,True,55.0000,55.0,222,0.5163,0.00
maze512-1-0.map,maze512-1-0.map.scen,4,BFS,1.0,140,True,56.0000,56.0,229,0.5703,0.00
maze512-1-0.map,maze512-1-0.map.scen,4,BFS,1.0,141,True,58.0000,58.0,196,0.4377,0.00
maze512-1-0.map,maze512-1-0.map.scen,4,BFS,1.0,142,True,59.0000,59.0,231,0.5723,0.00
maze512-1-0.map,maze512-1-0.map.scen,4,BFS,1.0,143,True,59.0000,59.0,213,0.5049,0.00
maze512-1-0.map,maze512-1-0.map.scen,4,BFS,1.0,144,True,56.0000,56.0,179,0.4064,0.00
maze512-1-0.map,maze512-1-0.map.scen,4,BFS,1.0,145,True,58.0000,58.0,246,0.5665,0.00
maze512-1-0.map,maze512-1-0.map.scen,4,BFS,1.0,146,True,56.0000,56.0,214,0.4850,0.00
maze512-1-0.map,maze512-1-0.map.scen,4,BFS,1.0,147,True,56.0000,56.0,246,0.5662,0.00
maze512-1-0.map,maze512-1-0.map.scen,4,BFS,1.0,148,True,56.0000,56.0,317,0.8044,0.00
maze512-1-0.map,maze512-1-0.map.scen,4,BFS,1.0,149,True,57.0000,57.0,204,0.5195,0.00
maze512-1-0.map,maze512-1-0.map.scen,4,BFS,1.0,150,True,60.0000,60.0,279,0.7075,0.00
maze512-1-0.map,maze512-1-0.map.scen,4,BFS,1.0,151,True,60.0000,60.0,233,0.5368,0.00
maze512-1-0.map,maze512-1-0.map.scen,4,BFS,1.0,152,True,60.0000,60.0,219,0.5190,0.00
maze512-1-0.map,maze512-1-0.map.scen,4,BFS,1.0,153,True,60.0000,60.0,231,0.6445,0.00
maze512-1-0.map,maze512-1-0.map.scen,4,BFS,1.0,154,True,63.0000,63.0,202,0.5229,0.00
maze512-1-0.map,maze512-1-0.map.scen,4,BFS,1.0,155,True,61.0000,61.0,204,0.5615,0.00
maze512-1-0.map,maze512-1-0.map.scen,4,BFS,1.0,156,True,63.0000,63.0,259,0.5933,0.00
maze512-1-0.map,maze512-1-0.map.scen,4,BFS,1.0,157,True,60.0000,60.0,141,0.3479,0.00
maze512-1-0.map,maze512-1-0.map.scen,4,BFS,1.0,158,True,61.0000,61.0,224,0.5375,0.00
maze512-1-0.map,maze512-1-0.map.scen,4,BFS,1.0,159,True,62.0000,62.0,284,0.6567,0.00
maze512-1-0.map,maze512-1-0.map.scen,4,BFS,1.0,160,True,66.0000,66.0,364,0.9702,0.00
maze512-1-0.map,maze512-1-0.map.scen,4,BFS,1.0,161,True,65.0000,65.0,219,0.5536,0.00
maze512-1-0.map,maze512-1-0.map.scen,4,BFS,1.0,162,True,64.0000,64.0,222,0.5195,0.00
maze512-1-0.map,maze512-1-0.map.scen,4,BFS,1.0,163,True,65.0000,65.0,298,0.6002,0.00
maze512-1-0.map,maze512-1-0.map.scen,4,BFS,1.0,164,True,64.0000,64.0,301,0.3954,0.00
maze512-1-0.map,maze512-1-0.map.scen,4,BFS,1.0,165,True,64.0000,64.0,242,0.3420,0.00
maze512-1-0.map,maze512-1-0.map.scen,4,BFS,1.0,166,True,65.0000,65.0,243,0.3105,0.00
maze512-1-0.map,maze512-1-0.map.scen,4,BFS,1.0,167,True,66.0000,66.0,205,0.2603,0.00
maze512-1-0.map,maze512-1-0.map.scen,4,BFS,1.0,168,True,65.0000,65.0,229,0.3241,0.00
maze512-1-0.map,maze512-1-0.map.scen,4,BFS,1.0,169,True,66.0000,66.0,199,0.2518,0.00
maze512-1-0.map,maze512-1-0.map.scen,4,BFS,1.0,170,True,70.0000,70.0,205,0.2619,0.00
maze512-1-0.map,maze512-1-0.map.scen,4,BFS,1.0,171,True,71.0000,71.0,237,0.3449,0.00
maze512-1-0.map,maze512-1-0.map.scen,4,BFS,1.0,172,True,69.0000,69.0,252,0.3470,0.00
maze512-1-0.map,maze512-1-0.map.scen,4,BFS,1.0,173,True,70.0000,70.0,209,0.2502,0.00
maze512-1-0.map,maze512-1-0.map.scen,4,BFS,1.0,174,True,69.0000,69.0,271,0.3504,0.00
maze512-1-0.map,maze512-1-0.map.scen,4,BFS,1.0,175,True,69.0000,69.0,323,0.4419,0.00
maze512-1-0.map,maze512-1-0.map.scen,4,BFS,1.0,176,True,68.0000,68.0,270,0.3409,0.00
maze512-1-0.map,maze512-1-0.map.scen,4,BFS,1.0,177,True,71.0000,71.0,296,0.3942,0.00
maze512-1-0.map,maze512-1-0.map.scen,4,BFS,1.0,178,True,71.0000,71.0,417,0.5212,0.00
maze512-1-0.map,maze512-1-0.map.scen,4,BFS,1.0,179,True,69.0000,69.0,183,0.2525,0.00
maze512-1-0.map,maze512-1-0.map.scen,4,BFS,1.0,180,True,74.0000,74.0,270,0.3648,0.00
maze512-1-0.map,maze512-1-0.map.scen,4,BFS,1.0,181,True,72.0000,72.0,173,0.3166,0.00
maze512-1-0.map,maze512-1-0.map.scen,4,BFS,1.0,182,True,72.0000,72.0,230,0.4304,0.00
maze512-1-0.map,maze512-1-0.map.scen,4,BFS,1.0,183,True,73.0000,73.0,178,0.3705,0.00
maze512-1-0.map,maze512-1-0.map.scen,4,BFS,1.0,184,True,75.0000,75.0,314,0.4013,0.00
maze512-1-0.map,maze512-1-0.map.scen,4,BFS,1.0,185,True,75.0000,75.0,211,0.2836,0.00
maze512-1-0.map,maze512-1-0.map.scen,4,BFS,1.0,186,True,72.0000,72.0,351,0.4680,0.00
maze512-1-0.map,maze512-1-0.map.scen,4,BFS,1.0,187,True,73.0000,73.0,188,0.2564,0.00
maze512-1-0.map,maze512-1-0.map.scen,4,BFS,1.0,188,True,74.0000,74.0,315,0.4934,0.00
maze512-1-0.map,maze512-1-0.map.scen,4,BFS,1.0,189,True,75.0000,75.0,347,0.4526,0.00
maze512-1-0.map,maze512-1-0.map.scen,4,BFS,1.0,190,True,79.0000,79.0,442,0.5309,0.00
maze512-1-0.map,maze512-1-0.map.scen,4,BFS,1.0,191,True,76.0000,76.0,260,0.3726,0.00
maze512-1-0.map,maze512-1-0.map.scen,4,BFS,1.0,192,True,76.0000,76.0,269,0.3589,0.00
maze512-1-0.map,maze512-1-0.map.scen,4,BFS,1.0,193,True,79.0000,79.0,276,0.3620,0.00
maze512-1-0.map,maze512-1-0.map.scen,4,BFS,1.0,194,True,78.0000,78.0,220,0.2769,0.00
maze512-1-0.map,maze512-1-0.map.scen,4,BFS,1.0,195,True,77.0000,77.0,391,0.5033,0.00
maze512-1-0.map,maze512-1-0.map.scen,4,BFS,1.0,196,True,78.0000,78.0,193,0.2796,0.00
maze512-1-0.map,maze512-1-0.map.scen,4,BFS,1.0,197,True,77.0000,77.0,325,0.4325,0.00
maze512-1-0.map,maze512-1-0.map.scen,4,BFS,1.0,198,True,77.0000,77.0,296,0.3945,0.00
maze512-1-0.map,maze512-1-0.map.scen,4,BFS,1.0,199,True,77.0000,77.0,292,0.3963,0.00
maze512-1-0.map,maze512-1-0.map.scen,4,BFS,1.0,200,True,80.0000,80.0,256,0.3529,0.00
maze512-1-0.map,maze512-1-0.map.scen,4,BFS,1.0,201,True,82.0000,82.0,315,0.4060,0.00
maze512-1-0.map,maze512-1-0.map.scen,4,BFS,1.0,202,True,80.0000,80.0,255,0.3470,0.00
maze512-1-0.map,maze512-1-0.map.scen,4,BFS,1.0,203,True,82.0000,82.0,153,0.1973,0.00
maze512-1-0.map,maze512-1-0.map.scen,4,BFS,1.0,204,True,80.0000,80.0,524,0.6285,0.00
maze512-1-0.map,maze512-1-0.map.scen,4,BFS,1.0,205,True,80.0000,80.0,421,0.5398,0.00
maze512-1-0.map,maze512-1-0.map.scen,4,BFS,1.0,206,True,82.0000,82.0,358,0.4727,0.00
maze512-1-0.map,maze512-1-0.map.scen,4,BFS,1.0,207,True,82.0000,82.0,389,0.4875,0.00
maze512-1-0.map,maze512-1-0.map.scen,4,BFS,1.0,208,True,81.0000,81.0,296,0.3798,0.00
maze512-1-0.map,maze512-1-0.map.scen,4,BFS,1.0,209,True,80.0000,80.0,233,0.3105,0.00
maze512-1-0.map,maze512-1-0.map.scen,4,BFS,1.0,210,True,87.0000,87.0,482,0.6079,0.00
maze512-1-0.map,maze512-1-0.map.scen,4,BFS,1.0,211,True,84.0000,84.0,425,0.5296,0.00
maze512-1-0.map,maze512-1-0.map.scen,4,BFS,1.0,212,True,86.0000,86.0,258,0.3522,0.00
maze512-1-0.map,maze512-1-0.map.scen,4,BFS,1.0,213,True,87.0000,87.0,330,0.4414,0.00
maze512-1-0.map,maze512-1-0.map.scen,4,BFS,1.0,214,True,86.0000,86.0,384,0.4739,0.00
maze512-1-0.map,maze512-1-0.map.scen,4,BFS,1.0,215,True,86.0000,86.0,227,0.3317,0.00
maze512-1-0.map,maze512-1-0.map.scen,4,BFS,1.0,216,True,86.0000,86.0,382,0.5147,0.00
maze512-1-0.map,maze512-1-0.map.scen,4,BFS,1.0,217,True,86.0000,86.0,373,0.4679,0.00
maze512-1-0.map,maze512-1-0.map.scen,4,BFS,1.0,218,True,85.0000,85.0,226,0.2901,0.00
maze512-1-0.map,maze512-1-0.map.scen,4,BFS,1.0,219,True,85.0000,85.0,250,0.3053,0.00
maze512-1-0.map,maze512-1-0.map.scen,4,BFS,1.0,220,True,88.0000,88.0,345,0.4207,0.00
maze512-1-0.map,maze512-1-0.map.scen,4,BFS,1.0,221,True,88.0000,88.0,627,0.8031,0.00
maze512-1-0.map,maze512-1-0.map.scen,4,BFS,1.0,222,True,88.0000,88.0,171,0.2510,0.00
maze512-1-0.map,maze512-1-0.map.scen,4,BFS,1.0,223,True,91.0000,91.0,327,0.4326,0.00
maze512-1-0.map,maze512-1-0.map.scen,4,BFS,1.0,224,True,90.0000,90.0,308,0.4104,0.00
maze512-1-0.map,maze512-1-0.map.scen,4,BFS,1.0,225,True,91.0000,91.0,274,0.3778,0.00
maze512-1-0.map,maze512-1-0.map.scen,4,BFS,1.0,226,True,89.0000,89.0,260,0.3356,0.00
maze512-1-0.map,maze512-1-0.map.scen,4,BFS,1.0,227,True,89.0000,89.0,218,0.3096,0.00
maze512-1-0.map,maze512-1-0.map.scen,4,BFS,1.0,228,True,88.0000,88.0,433,0.5387,0.00
maze512-1-0.map,maze512-1-0.map.scen,4,BFS,1.0,229,True,88.0000,88.0,338,0.4450,0.00
maze512-1-0.map,maze512-1-0.map.scen,4,BFS,1.0,230,True,92.0000,92.0,326,0.4269,0.00
maze512-1-0.map,maze512-1-0.map.scen,4,BFS,1.0,231,True,93.0000,93.0,220,0.3310,0.00
maze512-1-0.map,maze512-1-0.map.scen,4,BFS,1.0,232,True,92.0000,92.0,235,0.3232,0.00
maze512-1-0.map,maze512-1-0.map.scen,4,BFS,1.0,233,True,93.0000,93.0,336,0.4491,0.00
maze512-1-0.map,maze512-1-0.map.scen,4,BFS,1.0,234,True,95.0000,95.0,298,0.3913,0.00
maze512-1-0.map,maze512-1-0.map.scen,4,BFS,1.0,235,True,92.0000,92.0,495,0.6114,0.00
maze512-1-0.map,maze512-1-0.map.scen,4,BFS,1.0,236,True,92.0000,92.0,293,0.3920,0.00
maze512-1-0.map,maze512-1-0.map.scen,4,BFS,1.0,237,True,92.0000,92.0,321,0.4219,0.00
maze512-1-0.map,maze512-1-0.map.scen,4,BFS,1.0,238,True,92.0000,92.0,364,0.4630,0.00
maze512-1-0.map,maze512-1-0.map.scen,4,BFS,1.0,239,True,93.0000,93.0,415,0.5145,0.00
maze512-1-0.map,maze512-1-0.map.scen,4,BFS,1.0,240,True,97.0000,97.0,518,0.6364,0.00
maze512-1-0.map,maze512-1-0.map.scen,4,BFS,1.0,241,True,96.0000,96.0,269,0.3546,0.00
maze512-1-0.map,maze512-1-0.map.scen,4,BFS,1.0,242,True,99.0000,99.0,352,0.4831,0.00
maze512-1-0.map,maze512-1-0.map.scen,4,BFS,1.0,243,True,98.0000,98.0,440,0.5338,0.00
maze512-1-0.map,maze512-1-0.map.scen,4,BFS,1.0,244,True,97.0000,97.0,275,0.3703,0.00
maze512-1-0.map,maze512-1-0.map.scen,4,BFS,1.0,245,True,96.0000,96.0,422,0.5344,0.00
maze512-1-0.map,maze512-1-0.map.scen,4,BFS,1.0,246,True,97.0000,97.0,242,0.2936,0.00
maze512-1-0.map,maze512-1-0.map.scen,4,BFS,1.0,247,True,96.0000,96.0,278,0.3632,0.00
maze512-1-0.map,maze512-1-0.map.scen,4,BFS,1.0,248,True,98.0000,98.0,513,0.5715,0.00
maze512-1-0.map,maze512-1-0.map.scen,4,BFS,1.0,249,True,98.0000,98.0,407,0.5082,0.00
maze512-1-0.map,maze512-1-0.map.scen,4,BFS,1.0,250,True,103.0000,103.0,383,0.4425,0.00
maze512-1-0.map,maze512-1-0.map.scen,4,BFS,1.0,251,True,101.0000,101.0,345,0.4406,0.00
maze512-1-0.map,maze512-1-0.map.scen,4,BFS,1.0,252,True,102.0000,102.0,247,0.3181,0.00
maze512-1-0.map,maze512-1-0.map.scen,4,BFS,1.0,253,True,101.0000,101.0,771,0.8884,0.00
maze512-1-0.map,maze512-1-0.map.scen,4,BFS,1.0,254,True,101.0000,101.0,354,0.4611,0.00
maze512-1-0.map,maze512-1-0.map.scen,4,BFS,1.0,255,True,100.0000,100.0,643,0.7617,0.00
maze512-1-0.map,maze512-1-0.map.scen,4,BFS,1.0,256,True,102.0000,102.0,347,0.4383,0.00
maze512-1-0.map,maze512-1-0.map.scen,4,BFS,1.0,257,True,102.0000,102.0,654,0.7653,0.00
maze512-1-0.map,maze512-1-0.map.scen,4,BFS,1.0,258,True,103.0000,103.0,337,0.3996,0.00
maze512-1-0.map,maze512-1-0.map.scen,4,BFS,1.0,259,True,103.0000,103.0,374,0.4340,0.00
maze512-1-0.map,maze512-1-0.map.scen,4,BFS,1.0,260,True,106.0000,106.0,600,0.7229,0.00
maze512-1-0.map,maze512-1-0.map.scen,4,BFS,1.0,261,True,104.0000,104.0,626,0.7847,0.00
maze512-1-0.map,maze512-1-0.map.scen,4,BFS,1.0,262,True,104.0000,104.0,485,0.5870,0.00
maze512-1-0.map,maze512-1-0.map.scen,4,BFS,1.0,263,True,105.0000,105.0,623,0.7452,0.00
maze512-1-0.map,maze512-1-0.map.scen,4,BFS,1.0,264,True,107.0000,107.0,586,0.7311,0.00
maze512-1-0.map,maze512-1-0.map.scen,4,BFS,1.0,265,True,107.0000,107.0,349,0.4751,0.00
maze512-1-0.map,maze512-1-0.map.scen,4,BFS,1.0,266,True,107.0000,107.0,520,0.6244,0.00
maze512-1-0.map,maze512-1-0.map.scen,4,BFS,1.0,267,True,105.0000,105.0,462,0.5758,0.00
maze512-1-0.map,maze512-1-0.map.scen,4,BFS,1.0,268,True,105.0000,105.0,377,0.4771,0.00
maze512-1-0.map,maze512-1-0.map.scen,4,BFS,1.0,269,True,107.0000,107.0,503,0.5814,0.00
maze512-1-0.map,maze512-1-0.map.scen,4,BFS,1.0,270,True,111.0000,111.0,536,0.6515,0.00
maze512-1-0.map,maze512-1-0.map.scen,4,BFS,1.0,271,True,111.0000,111.0,1020,1.4553,0.00
maze512-1-0.map,maze512-1-0.map.scen,4,BFS,1.0,272,True,111.0000,111.0,599,0.8366,0.00
maze512-1-0.map,maze512-1-0.map.scen,4,BFS,1.0,273,True,108.0000,108.0,518,0.6297,0.00
maze512-1-0.map,maze512-1-0.map.scen,4,BFS,1.0,274,True,111.0000,111.0,562,0.7367,0.00
maze512-1-0.map,maze512-1-0.map.scen,4,BFS,1.0,275,True,108.0000,108.0,509,0.7474,0.00
maze512-1-0.map,maze512-1-0.map.scen,4,BFS,1.0,276,True,111.0000,111.0,287,0.5118,0.00
maze512-1-0.map,maze512-1-0.map.scen,4,BFS,1.0,277,True,110.0000,110.0,377,0.7232,0.00
maze512-1-0.map,maze512-1-0.map.scen,4,BFS,1.0,278,True,109.0000,109.0,413,0.5604,0.00
maze512-1-0.map,maze512-1-0.map.scen,4,BFS,1.0,279,True,110.0000,110.0,514,0.6449,0.00
maze512-1-0.map,maze512-1-0.map.scen,4,BFS,1.0,280,True,113.0000,113.0,465,0.6319,0.00
maze512-1-0.map,maze512-1-0.map.scen,4,BFS,1.0,281,True,115.0000,115.0,1207,1.5118,0.00
maze512-1-0.map,maze512-1-0.map.scen,4,BFS,1.0,282,True,114.0000,114.0,733,0.9223,0.00
maze512-1-0.map,maze512-1-0.map.scen,4,BFS,1.0,283,True,112.0000,112.0,1141,1.4862,0.00
maze512-1-0.map,maze512-1-0.map.scen,4,BFS,1.0,284,True,115.0000,115.0,214,0.3125,0.00
maze512-1-0.map,maze512-1-0.map.scen,4,BFS,1.0,285,True,112.0000,112.0,1014,1.2640,0.00
maze512-1-0.map,maze512-1-0.map.scen,4,BFS,1.0,286,True,113.0000,113.0,466,0.5695,0.00
maze512-1-0.map,maze512-1-0.map.scen,4,BFS,1.0,287,True,113.0000,113.0,284,0.3866,0.00
maze512-1-0.map,maze512-1-0.map.scen,4,BFS,1.0,288,True,113.0000,113.0,753,0.8885,0.00
maze512-1-0.map,maze512-1-0.map.scen,4,BFS,1.0,289,True,115.0000,115.0,372,0.4830,0.00
maze512-1-0.map,maze512-1-0.map.scen,4,BFS,1.0,290,True,117.0000,117.0,981,1.1413,0.00
maze512-1-0.map,maze512-1-0.map.scen,4,BFS,1.0,291,True,117.0000,117.0,292,0.3908,0.00
maze512-1-0.map,maze512-1-0.map.scen,4,BFS,1.0,292,True,119.0000,119.0,633,0.7677,0.00
maze512-1-0.map,maze512-1-0.map.scen,4,BFS,1.0,293,True,119.0000,119.0,277,0.4107,0.00
maze512-1-0.map,maze512-1-0.map.scen,4,BFS,1.0,294,True,117.0000,117.0,170,0.2300,0.00
maze512-1-0.map,maze512-1-0.map.scen,4,BFS,1.0,295,True,116.0000,116.0,452,0.5351,0.00
maze512-1-0.map,maze512-1-0.map.scen,4,BFS,1.0,296,True,116.0000,116.0,303,0.3986,0.00
maze512-1-0.map,maze512-1-0.map.scen,4,BFS,1.0,297,True,116.0000,116.0,309,0.4020,0.00
maze512-1-0.map,maze512-1-0.map.scen,4,BFS,1.0,298,True,119.0000,119.0,349,0.4552,0.00
maze512-1-0.map,maze512-1-0.map.scen,4,BFS,1.0,299,True,117.0000,117.0,356,0.4793,0.00
maze512-1-0.map,maze512-1-0.map.scen,4,BFS,1.0,300,True,122.0000,122.0,794,0.9586,0.00
maze512-1-0.map,maze512-1-0.map.scen,4,BFS,1.0,301,True,120.0000,120.0,495,0.6376,0.00
maze512-1-0.map,maze512-1-0.map.scen,4,BFS,1.0,302,True,123.0000,123.0,319,0.4302,0.00
maze512-1-0.map,maze512-1-0.map.scen,4,BFS,1.0,303,True,121.0000,121.0,843,1.0119,0.00
maze512-1-0.map,maze512-1-0.map.scen,4,BFS,1.0,304,True,123.0000,123.0,490,0.6173,0.00
maze512-1-0.map,maze512-1-0.map.scen,4,BFS,1.0,305,True,122.0000,122.0,474,0.6053,0.00
maze512-1-0.map,maze512-1-0.map.scen,4,BFS,1.0,306,True,121.0000,121.0,569,0.6977,0.00
maze512-1-0.map,maze512-1-0.map.scen,4,BFS,1.0,307,True,121.0000,121.0,530,0.6574,0.00
maze512-1-0.map,maze512-1-0.map.scen,4,BFS,1.0,308,True,122.0000,122.0,600,0.7830,0.00
maze512-1-0.map,maze512-1-0.map.scen,4,BFS,1.0,309,True,120.0000,120.0,396,0.5060,0.00
maze512-1-0.map,maze512-1-0.map.scen,4,BFS,1.0,310,True,127.0000,127.0,653,0.7865,0.00
maze512-1-0.map,maze512-1-0.map.scen,4,BFS,1.0,311,True,124.0000,124.0,266,0.3752,0.00
maze512-1-0.map,maze512-1-0.map.scen,4,BFS,1.0,312,True,126.0000,126.0,375,0.5141,0.00
maze512-1-0.map,maze512-1-0.map.scen,4,BFS,1.0,313,True,126.0000,126.0,684,0.8312,0.00
maze512-1-0.map,maze512-1-0.map.scen,4,BFS,1.0,314,True,124.0000,124.0,596,0.7505,0.00
maze512-1-0.map,maze512-1-0.map.scen,4,BFS,1.0,315,True,125.0000,125.0,459,0.5980,0.00
maze512-1-0.map,maze512-1-0.map.scen,4,BFS,1.0,316,True,124.0000,124.0,417,0.5273,0.00
maze512-1-0.map,maze512-1-0.map.scen,4,BFS,1.0,317,True,124.0000,124.0,413,0.5428,0.00
maze512-1-0.map,maze512-1-0.map.scen,4,BFS,1.0,318,True,124.0000,124.0,552,0.6766,0.00
maze512-1-0.map,maze512-1-0.map.scen,4,BFS,1.0,319,True,124.0000,124.0,583,0.7307,0.00
maze512-1-0.map,maze512-1-0.map.scen,4,BFS,1.0,320,True,131.0000,131.0,595,0.7476,0.00
maze512-1-0.map,maze512-1-0.map.scen,4,BFS,1.0,321,True,128.0000,128.0,468,0.5709,0.00
maze512-1-0.map,maze512-1-0.map.scen,4,BFS,1.0,322,True,130.0000,130.0,252,0.3269,0.00
maze512-1-0.map,maze512-1-0.map.scen,4,BFS,1.0,323,True,129.0000,129.0,398,0.4840,0.00
maze512-1-0.map,maze512-1-0.map.scen,4,BFS,1.0,324,True,128.0000,128.0,890,1.0540,0.00
maze512-1-0.map,maze512-1-0.map.scen,4,BFS,1.0,325,True,129.0000,129.0,638,0.8085,0.00
maze512-1-0.map,maze512-1-0.map.scen,4,BFS,1.0,326,True,131.0000,131.0,951,1.1451,0.00
maze512-1-0.map,maze512-1-0.map.scen,4,BFS,1.0,327,True,131.0000,131.0,543,0.6766,0.00
maze512-1-0.map,maze512-1-0.map.scen,4,BFS,1.0,328,True,128.0000,128.0,1316,1.5738,0.00
maze512-1-0.map,maze512-1-0.map.scen,4,BFS,1.0,329,True,128.0000,128.0,436,0.5529,0.00
maze512-1-0.map,maze512-1-0.map.scen,4,BFS,1.0,330,True,132.0000,132.0,687,0.8320,0.00
maze512-1-0.map,maze512-1-0.map.scen,4,BFS,1.0,331,True,133.0000,133.0,693,0.8588,0.00
maze512-1-0.map,maze512-1-0.map.scen,4,BFS,1.0,332,True,134.0000,134.0,551,0.7063,0.00
maze512-1-0.map,maze512-1-0.map.scen,4,BFS,1.0,333,True,134.0000,134.0,640,0.7735,0.00
maze512-1-0.map,maze512-1-0.map.scen,4,BFS,1.0,334,True,134.0000,134.0,520,0.6310,0.00
maze512-1-0.map,maze512-1-0.map.scen,4,BFS,1.0,335,True,135.0000,135.0,899,1.0570,0.00
maze512-1-0.map,maze512-1-0.map.scen,4,BFS,1.0,336,True,135.0000,135.0,635,0.7518,0.00
maze512-1-0.map,maze512-1-0.map.scen,4,BFS,1.0,337,True,132.0000,132.0,402,0.4867,0.00
maze512-1-0.map,maze512-1-0.map.scen,4,BFS,1.0,338,True,135.0000,135.0,573,0.6892,0.00
maze512-1-0.map,maze512-1-0.map.scen,4,BFS,1.0,339,True,134.0000,134.0,641,0.7452,0.00
maze512-1-0.map,maze512-1-0.map.scen,4,BFS,1.0,340,True,139.0000,139.0,865,1.0105,0.00
maze512-1-0.map,maze512-1-0.map.scen,4,BFS,1.0,341,True,136.0000,136.0,1727,1.9345,0.00
maze512-1-0.map,maze512-1-0.map.scen,4,BFS,1.0,342,True,139.0000,139.0,217,0.3292,0.00
maze512-1-0.map,maze512-1-0.map.scen,4,BFS,1.0,343,True,136.0000,136.0,800,0.9175,0.00
maze512-1-0.map,maze512-1-0.map.scen,4,BFS,1.0,344,True,136.0000,136.0,794,0.9301,0.00
maze512-1-0.map,maze512-1-0.map.scen,4,BFS,1.0,345,True,138.0000,138.0,248,0.3300,0.00
maze512-1-0.map,maze512-1-0.map.scen,4,BFS,1.0,346,True,138.0000,138.0,964,1.1080,0.00
maze512-1-0.map,maze512-1-0.map.scen,4,BFS,1.0,347,True,138.0000,138.0,412,0.5805,0.00
maze512-1-0.map,maze512-1-0.map.scen,4,BFS,1.0,348,True,137.0000,137.0,759,1.1957,0.00
maze512-1-0.map,maze512-1-0.map.scen,4,BFS,1.0,349,True,137.0000,137.0,916,1.2352,0.00
maze512-1-0.map,maze512-1-0.map.scen,4,BFS,1.0,350,True,143.0000,143.0,502,0.6565,0.00
maze512-1-0.map,maze512-1-0.map.scen,4,BFS,1.0,351,True,141.0000,141.0,1793,2.0126,0.00
maze512-1-0.map,maze512-1-0.map.scen,4,BFS,1.0,352,True,143.0000,143.0,822,1.0142,0.00
maze512-1-0.map,maze512-1-0.map.scen,4,BFS,1.0,353,True,140.0000,140.0,523,0.6443,0.00
maze512-1-0.map,maze512-1-0.map.scen,4,BFS,1.0,354,True,142.0000,142.0,765,0.9253,0.00
maze512-1-0.map,maze512-1-0.map.scen,4,BFS,1.0,355,True,142.0000,142.0,430,0.5730,0.00
maze512-1-0.map,maze512-1-0.map.scen,4,BFS,1.0,356,True,142.0000,142.0,663,0.8198,0.00
maze512-1-0.map,maze512-1-0.map.scen,4,BFS,1.0,357,True,140.0000,140.0,517,0.6522,0.00
maze512-1-0.map,maze512-1-0.map.scen,4,BFS,1.0,358,True,142.0000,142.0,556,0.6826,0.00
maze512-1-0.map,maze512-1-0.map.scen,4,BFS,1.0,359,True,142.0000,142.0,507,0.6083,0.00
maze512-1-0.map,maze512-1-0.map.scen,4,BFS,1.0,360,True,144.0000,144.0,1236,1.5472,0.00
maze512-1-0.map,maze512-1-0.map.scen,4,BFS,1.0,361,True,144.0000,144.0,884,1.0611,0.00
maze512-1-0.map,maze512-1-0.map.scen,4,BFS,1.0,362,True,145.0000,145.0,669,0.8802,0.00
maze512-1-0.map,maze512-1-0.map.scen,4,BFS,1.0,363,True,145.0000,145.0,1542,1.7529,0.00
maze512-1-0.map,maze512-1-0.map.scen,4,BFS,1.0,364,True,144.0000,144.0,281,0.3878,0.00
maze512-1-0.map,maze512-1-0.map.scen,4,BFS,1.0,365,True,145.0000,145.0,547,0.6595,0.00
maze512-1-0.map,maze512-1-0.map.scen,4,BFS,1.0,366,True,146.0000,146.0,697,0.8494,0.00
maze512-1-0.map,maze512-1-0.map.scen,4,BFS,1.0,367,True,146.0000,146.0,406,0.5539,0.00
maze512-1-0.map,maze512-1-0.map.scen,4,BFS,1.0,368,True,144.0000,144.0,290,0.3974,0.00
maze512-1-0.map,maze512-1-0.map.scen,4,BFS,1.0,369,True,145.0000,145.0,402,0.4886,0.00
maze512-1-0.map,maze512-1-0.map.scen,4,BFS,1.0,370,True,150.0000,150.0,950,1.1295,0.00
maze512-1-0.map,maze512-1-0.map.scen,4,BFS,1.0,371,True,150.0000,150.0,534,0.6938,0.00
maze512-1-0.map,maze512-1-0.map.scen,4,BFS,1.0,372,True,150.0000,150.0,1165,1.3623,0.00
maze512-1-0.map,maze512-1-0.map.scen,4,BFS,1.0,373,True,148.0000,148.0,762,0.9780,0.00
maze512-1-0.map,maze512-1-0.map.scen,4,BFS,1.0,374,True,151.0000,151.0,1135,1.3793,0.00
maze512-1-0.map,maze512-1-0.map.scen,4,BFS,1.0,375,True,150.0000,150.0,459,0.5775,0.00
maze512-1-0.map,maze512-1-0.map.scen,4,BFS,1.0,376,True,148.0000,148.0,699,0.8718,0.00
maze512-1-0.map,maze512-1-0.map.scen,4,BFS,1.0,377,True,151.0000,151.0,474,0.6137,0.00
maze512-1-0.map,maze512-1-0.map.scen,4,BFS,1.0,378,True,151.0000,151.0,991,1.1555,0.00
maze512-1-0.map,maze512-1-0.map.scen,4,BFS,1.0,379,True,150.0000,150.0,273,0.3836,0.00
maze512-1-0.map,maze512-1-0.map.scen,4,BFS,1.0,380,True,152.0000,152.0,629,0.7722,0.00
maze512-1-0.map,maze512-1-0.map.scen,4,BFS,1.0,381,True,155.0000,155.0,897,1.0549,0.00
maze512-1-0.map,maze512-1-0.map.scen,4,BFS,1.0,382,True,155.0000,155.0,661,0.8011,0.00
maze512-1-0.map,maze512-1-0.map.scen,4,BFS,1.0,383,True,152.0000,152.0,370,0.4870,0.00
maze512-1-0.map,maze512-1-0.map.scen,4,BFS,1.0,384,True,155.0000,155.0,319,0.4562,0.00
maze512-1-0.map,maze512-1-0.map.scen,4,BFS,1.0,385,True,154.0000,154.0,686,0.8043,0.00
maze512-1-0.map,maze512-1-0.map.scen,4,BFS,1.0,386,True,152.0000,152.0,688,0.8486,0.00
maze512-1-0.map,maze512-1-0.map.scen,4,BFS,1.0,387,True,155.0000,155.0,684,0.8281,0.00
maze512-1-0.map,maze512-1-0.map.scen,4,BFS,1.0,388,True,155.0000,155.0,657,0.9099,0.00
maze512-1-0.map,maze512-1-0.map.scen,4,BFS,1.0,389,True,152.0000,152.0,563,0.7157,0.00
maze512-1-0.map,maze512-1-0.map.scen,4,BFS,1.0,390,True,156.0000,156.0,1004,1.3041,0.00
maze512-1-0.map,maze512-1-0.map.scen,4,BFS,1.0,391,True,158.0000,158.0,1497,1.7706,0.00
maze512-1-0.map,maze512-1-0.map.scen,4,BFS,1.0,392,True,159.0000,159.0,415,0.5593,0.00
maze512-1-0.map,maze512-1-0.map.scen,4,BFS,1.0,393,True,159.0000,159.0,1142,1.3880,0.00
maze512-1-0.map,maze512-1-0.map.scen,4,BFS,1.0,394,True,158.0000,158.0,590,0.7579,0.00
maze512-1-0.map,maze512-1-0.map.scen,4,BFS,1.0,395,True,156.0000,156.0,1222,1.4327,0.00
maze512-1-0.map,maze512-1-0.map.scen,4,BFS,1.0,396,True,156.0000,156.0,1132,1.4118,0.00
maze512-1-0.map,maze512-1-0.map.scen,4,BFS,1.0,397,True,156.0000,156.0,629,0.8139,0.00
maze512-1-0.map,maze512-1-0.map.scen,4,BFS,1.0,398,True,157.0000,157.0,542,0.6948,0.00
maze512-1-0.map,maze512-1-0.map.scen,4,BFS,1.0,399,True,159.0000,159.0,851,1.0239,0.00
maze512-1-0.map,maze512-1-0.map.scen,4,BFS,1.0,400,True,160.0000,160.0,1654,1.8882,0.00
maze512-1-0.map,maze512-1-0.map.scen,4,BFS,1.0,401,True,160.0000,160.0,347,0.4984,0.00
maze512-1-0.map,maze512-1-0.map.scen,4,BFS,1.0,402,True,161.0000,161.0,543,0.6603,0.00
maze512-1-0.map,maze512-1-0.map.scen,4,BFS,1.0,403,True,160.0000,160.0,363,0.4665,0.00
maze512-1-0.map,maze512-1-0.map.scen,4,BFS,1.0,404,True,162.0000,162.0,305,0.3963,0.00
maze512-1-0.map,maze512-1-0.map.scen,4,BFS,1.0,405,True,160.0000,160.0,444,0.5410,0.00
maze512-1-0.map,maze512-1-0.map.scen,4,BFS,1.0,406,True,161.0000,161.0,381,0.4826,0.00
maze512-1-0.map,maze512-1-0.map.scen,4,BFS,1.0,407,True,162.0000,162.0,394,0.5113,0.00
maze512-1-0.map,maze512-1-0.map.scen,4,BFS,1.0,408,True,162.0000,162.0,1101,1.3160,0.00
maze512-1-0.map,maze512-1-0.map.scen,4,BFS,1.0,409,True,160.0000,160.0,723,0.9406,0.00
maze512-1-0.map,maze512-1-0.map.scen,4,BFS,1.0,410,True,165.0000,165.0,1689,1.8849,0.00
maze512-1-0.map,maze512-1-0.map.scen,4,BFS,1.0,411,True,166.0000,166.0,557,0.7362,0.00
maze512-1-0.map,maze512-1-0.map.scen,4,BFS,1.0,412,True,166.0000,166.0,769,0.9104,0.00
maze512-1-0.map,maze512-1-0.map.scen,4,BFS,1.0,413,True,164.0000,164.0,798,0.9431,0.00
maze512-1-0.map,maze512-1-0.map.scen,4,BFS,1.0,414,True,167.0000,167.0,522,0.6487,0.00
maze512-1-0.map,maze512-1-0.map.scen,4,BFS,1.0,415,True,165.0000,165.0,537,0.6381,0.00
maze512-1-0.map,maze512-1-0.map.scen,4,BFS,1.0,416,True,165.0000,165.0,500,0.5915,0.00
maze512-1-0.map,maze512-1-0.map.scen,4,BFS,1.0,417,True,165.0000,165.0,777,0.9709,0.00
maze512-1-0.map,maze512-1-0.map.scen,4,BFS,1.0,418,True,164.0000,164.0,511,0.6199,0.00
maze512-1-0.map,maze512-1-0.map.scen,4,BFS,1.0,419,True,165.0000,165.0,823,0.9358,0.00
maze512-1-0.map,maze512-1-0.map.scen,4,BFS,1.0,420,True,168.0000,168.0,1203,1.3763,0.00
maze512-1-0.map,maze512-1-0.map.scen,4,BFS,1.0,421,True,170.0000,170.0,1020,1.2076,0.00
maze512-1-0.map,maze512-1-0.map.scen,4,BFS,1.0,422,True,171.0000,171.0,956,1.1120,0.00
maze512-1-0.map,maze512-1-0.map.scen,4,BFS,1.0,423,True,171.0000,171.0,1264,1.5375,0.00
maze512-1-0.map,maze512-1-0.map.scen,4,BFS,1.0,424,True,170.0000,170.0,1100,1.2652,0.00
maze512-1-0.map,maze512-1-0.map.scen,4,BFS,1.0,425,True,168.0000,168.0,713,0.8639,0.00
maze512-1-0.map,maze512-1-0.map.scen,4,BFS,1.0,426,True,170.0000,170.0,873,1.0566,0.00
maze512-1-0.map,maze512-1-0.map.scen,4,BFS,1.0,427,True,169.0000,169.0,919,1.0692,0.00
maze512-1-0.map,maze512-1-0.map.scen,4,BFS,1.0,428,True,170.0000,170.0,1620,1.7717,0.00
maze512-1-0.map,maze512-1-0.map.scen,4,BFS,1.0,429,True,169.0000,169.0,1391,1.6302,0.00
maze512-1-0.map,maze512-1-0.map.scen,4,BFS,1.0,430,True,173.0000,173.0,1531,1.7620,0.00
maze512-1-0.map,maze512-1-0.map.scen,4,BFS,1.0,431,True,172.0000,172.0,510,0.6485,0.00
maze512-1-0.map,maze512-1-0.map.scen,4,BFS,1.0,432,True,173.0000,173.0,969,1.0868,0.00
maze512-1-0.map,maze512-1-0.map.scen,4,BFS,1.0,433,True,173.0000,173.0,675,0.8453,0.00
maze512-1-0.map,maze512-1-0.map.scen,4,BFS,1.0,434,True,173.0000,173.0,1066,1.1775,0.00
maze512-1-0.map,maze512-1-0.map.scen,4,BFS,1.0,435,True,172.0000,172.0,1379,1.5336,0.00
maze512-1-0.map,maze512-1-0.map.scen,4,BFS,1.0,436,True,173.0000,173.0,508,0.6243,0.00
maze512-1-0.map,maze512-1-0.map.scen,4,BFS,1.0,437,True,175.0000,175.0,984,1.1251,0.00
maze512-1-0.map,maze512-1-0.map.scen,4,BFS,1.0,438,True,172.0000,172.0,621,0.8109,0.00
maze512-1-0.map,maze512-1-0.map.scen,4,BFS,1.0,439,True,174.0000,174.0,838,1.0229,0.00
maze512-1-0.map,maze512-1-0.map.scen,4,BFS,1.0,440,True,177.0000,177.0,786,0.9709,0.00
maze512-1-0.map,maze512-1-0.map.scen,4,BFS,1.0,441,True,178.0000,178.0,496,0.6071,0.00
maze512-1-0.map,maze512-1-0.map.scen,4,BFS,1.0,442,True,176.0000,176.0,1287,1.4724,0.00
maze512-1-0.map,maze512-1-0.map.scen,4,BFS,1.0,443,True,179.0000,179.0,422,0.5317,0.00
maze512-1-0.map,maze512-1-0.map.scen,4,BFS,1.0,444,True,178.0000,178.0,867,0.9914,0.00
maze512-1-0.map,maze512-1-0.map.scen,4,BFS,1.0,445,True,179.0000,179.0,1277,1.4612,0.00
maze512-1-0.map,maze512-1-0.map.scen,4,BFS,1.0,446,True,177.0000,177.0,717,0.9144,0.00
maze512-1-0.map,maze512-1-0.map.scen,4,BFS,1.0,447,True,178.0000,178.0,671,0.8147,0.00
maze512-1-0.map,maze512-1-0.map.scen,4,BFS,1.0,448,True,176.0000,176.0,700,0.8196,0.00
maze512-1-0.map,maze512-1-0.map.scen,4,BFS,1.0,449,True,177.0000,177.0,664,0.8017,0.00
maze512-1-0.map,maze512-1-0.map.scen,4,BFS,1.0,450,True,182.0000,182.0,1886,2.0466,0.00
maze512-1-0.map,maze512-1-0.map.scen,4,BFS,1.0,451,True,183.0000,183.0,1165,1.4107,0.00
maze512-1-0.map,maze512-1-0.map.scen,4,BFS,1.0,452,True,183.0000,183.0,946,1.0819,0.00
maze512-1-0.map,maze512-1-0.map.scen,4,BFS,1.0,453,True,182.0000,182.0,467,0.5491,0.00
maze512-1-0.map,maze512-1-0.map.scen,4,BFS,1.0,454,True,180.0000,180.0,1182,1.3544,0.00
maze512-1-0.map,maze512-1-0.map.scen,4,BFS,1.0,455,True,180.0000,180.0,361,0.4459,0.00
maze512-1-0.map,maze512-1-0.map.scen,4,BFS,1.0,456,True,180.0000,180.0,452,0.5514,0.00
maze512-1-0.map,maze512-1-0.map.scen,4,BFS,1.0,457,True,180.0000,180.0,1191,1.3319,0.00
maze512-1-0.map,maze512-1-0.map.scen,4,BFS,1.0,458,True,182.0000,182.0,773,0.9294,0.00
maze512-1-0.map,maze512-1-0.map.scen,4,BFS,1.0,459,True,180.0000,180.0,833,0.9367,0.00
maze512-1-0.map,maze512-1-0.map.scen,4,BFS,1.0,460,True,185.0000,185.0,1616,1.7440,0.00
maze512-1-0.map,maze512-1-0.map.scen,4,BFS,1.0,461,True,184.0000,184.0,391,0.4957,0.00
maze512-1-0.map,maze512-1-0.map.scen,4,BFS,1.0,462,True,185.0000,185.0,1416,1.5541,0.00
maze512-1-0.map,maze512-1-0.map.scen,4,BFS,1.0,463,True,184.0000,184.0,1351,1.5043,0.00
maze512-1-0.map,maze512-1-0.map.scen,4,BFS,1.0,464,True,184.0000,184.0,1036,1.2221,0.00
maze512-1-0.map,maze512-1-0.map.scen,4,BFS,1.0,465,True,185.0000,185.0,1501,1.7068,0.00
maze512-1-0.map,maze512-1-0.map.scen,4,BFS,1.0,466,True,187.0000,187.0,713,0.9091,0.00
maze512-1-0.map,maze512-1-0.map.scen,4,BFS,1.0,467,True,185.0000,185.0,881,1.0549,0.00
maze512-1-0.map,maze512-1-0.map.scen,4,BFS,1.0,468,True,184.0000,184.0,968,1.1316,0.00
maze512-1-0.map,maze512-1-0.map.scen,4,BFS,1.0,469,True,186.0000,186.0,1421,1.6215,0.00
maze512-1-0.map,maze512-1-0.map.scen,4,BFS,1.0,470,True,190.0000,190.0,624,0.7660,0.00
maze512-1-0.map,maze512-1-0.map.scen,4,BFS,1.0,471,True,189.0000,189.0,487,0.5824,0.00
maze512-1-0.map,maze512-1-0.map.scen,4,BFS,1.0,472,True,188.0000,188.0,703,0.8668,0.00
maze512-1-0.map,maze512-1-0.map.scen,4,BFS,1.0,473,True,188.0000,188.0,795,0.9505,0.00
maze512-1-0.map,maze512-1-0.map.scen,4,BFS,1.0,474,True,190.0000,190.0,835,1.0045,0.00
maze512-1-0.map,maze512-1-0.map.scen,4,BFS,1.0,475,True,188.0000,188.0,1536,1.7574,0.00
maze512-1-0.map,maze512-1-0.map.scen,4,BFS,1.0,476,True,190.0000,190.0,1007,1.2065,0.00
maze512-1-0.map,maze512-1-0.map.scen,4,BFS,1.0,477,True,191.0000,191.0,668,0.8643,0.00
maze512-1-0.map,maze512-1-0.map.scen,4,BFS,1.0,478,True,188.0000,188.0,1007,1.1833,0.00
maze512-1-0.map,maze512-1-0.map.scen,4,BFS,1.0,479,True,189.0000,189.0,827,1.0227,0.00
maze512-1-0.map,maze512-1-0.map.scen,4,BFS,1.0,480,True,195.0000,195.0,1686,1.8975,0.00
maze512-1-0.map,maze512-1-0.map.scen,4,BFS,1.0,481,True,194.0000,194.0,645,0.8573,0.00
maze512-1-0.map,maze512-1-0.map.scen,4,BFS,1.0,482,True,193.0000,193.0,501,0.7895,0.00
maze512-1-0.map,maze512-1-0.map.scen,4,BFS,1.0,483,True,193.0000,193.0,590,0.7704,0.00
maze512-1-0.map,maze512-1-0.map.scen,4,BFS,1.0,484,True,194.0000,194.0,546,0.6886,0.00
maze512-1-0.map,maze512-1-0.map.scen,4,BFS,1.0,485,True,192.0000,192.0,1407,1.5789,0.00
maze512-1-0.map,maze512-1-0.map.scen,4,BFS,1.0,486,True,192.0000,192.0,784,0.9835,0.00
maze512-1-0.map,maze512-1-0.map.scen,4,BFS,1.0,487,True,192.0000,192.0,676,0.8570,0.00
maze512-1-0.map,maze512-1-0.map.scen,4,BFS,1.0,488,True,192.0000,192.0,1023,1.2039,0.00
maze512-1-0.map,maze512-1-0.map.scen,4,BFS,1.0,489,True,192.0000,192.0,910,1.1577,0.00
maze512-1-0.map,maze512-1-0.map.scen,4,BFS,1.0,490,True,199.0000,199.0,1486,1.7177,0.00
maze512-1-0.map,maze512-1-0.map.scen,4,BFS,1.0,491,True,198.0000,198.0,441,0.5708,0.00
maze512-1-0.map,maze512-1-0.map.scen,4,BFS,1.0,492,True,196.0000,196.0,1944,2.2292,0.00
maze512-1-0.map,maze512-1-0.map.scen,4,BFS,1.0,493,True,197.0000,197.0,699,0.8878,0.00
maze512-1-0.map,maze512-1-0.map.scen,4,BFS,1.0,494,True,199.0000,199.0,835,1.0089,0.00
maze512-1-0.map,maze512-1-0.map.scen,4,BFS,1.0,495,True,199.0000,199.0,795,0.9918,0.00
maze512-1-0.map,maze512-1-0.map.scen,4,BFS,1.0,496,True,198.0000,198.0,730,0.8733,0.00
maze512-1-0.map,maze512-1-0.map.scen,4,BFS,1.0,497,True,198.0000,198.0,886,1.0346,0.00
maze512-1-0.map,maze512-1-0.map.scen,4,BFS,1.0,498,True,198.0000,198.0,963,1.1413,0.00
maze512-1-0.map,maze512-1-0.map.scen,4,BFS,1.0,499,True,196.0000,196.0,549,0.7010,0.00
maze512-1-0.map,maze512-1-0.map.scen,4,BFS,1.0,500,True,200.0000,200.0,961,1.1158,0.00
maze512-1-0.map,maze512-1-0.map.scen,4,BFS,1.0,501,True,203.0000,203.0,2849,3.2404,0.00
maze512-1-0.map,maze512-1-0.map.scen,4,BFS,1.0,502,True,202.0000,202.0,1413,1.5729,0.00
maze512-1-0.map,maze512-1-0.map.scen,4,BFS,1.0,503,True,202.0000,202.0,2100,2.3308,0.00
maze512-1-0.map,maze512-1-0.map.scen,4,BFS,1.0,504,True,203.0000,203.0,1785,2.0319,0.00
maze512-1-0.map,maze512-1-0.map.scen,4,BFS,1.0,505,True,200.0000,200.0,766,0.9654,0.00
maze512-1-0.map,maze512-1-0.map.scen,4,BFS,1.0,506,True,200.0000,200.0,1732,1.9877,0.00
maze512-1-0.map,maze512-1-0.map.scen,4,BFS,1.0,507,True,203.0000,203.0,578,0.7301,0.00
maze512-1-0.map,maze512-1-0.map.scen,4,BFS,1.0,508,True,202.0000,202.0,514,0.5955,0.00
maze512-1-0.map,maze512-1-0.map.scen,4,BFS,1.0,509,True,203.0000,203.0,663,0.7899,0.00
maze512-1-0.map,maze512-1-0.map.scen,4,BFS,1.0,510,True,206.0000,206.0,1368,1.9198,0.00
maze512-1-0.map,maze512-1-0.map.scen,4,BFS,1.0,511,True,207.0000,207.0,2085,2.3544,0.00
maze512-1-0.map,maze512-1-0.map.scen,4,BFS,1.0,512,True,207.0000,207.0,1599,1.9057,0.00
maze512-1-0.map,maze512-1-0.map.scen,4,BFS,1.0,513,True,206.0000,206.0,426,0.5983,0.00
maze512-1-0.map,maze512-1-0.map.scen,4,BFS,1.0,514,True,205.0000,205.0,628,0.7557,0.00
maze512-1-0.map,maze512-1-0.map.scen,4,BFS,1.0,515,True,205.0000,205.0,867,1.0561,0.00
maze512-1-0.map,maze512-1-0.map.scen,4,BFS,1.0,516,True,205.0000,205.0,839,1.0018,0.00
maze512-1-0.map,maze512-1-0.map.scen,4,BFS,1.0,517,True,205.0000,205.0,1216,1.4912,0.00
maze512-1-0.map,maze512-1-0.map.scen,4,BFS,1.0,518,True,207.0000,207.0,792,0.9253,0.00
maze512-1-0.map,maze512-1-0.map.scen,4,BFS,1.0,519,True,206.0000,206.0,607,0.7597,0.00
maze512-1-0.map,maze512-1-0.map.scen,4,BFS,1.0,520,True,208.0000,208.0,1192,1.3910,0.00
maze512-1-0.map,maze512-1-0.map.scen,4,BFS,1.0,521,True,210.0000,210.0,2433,2.7824,0.00
maze512-1-0.map,maze512-1-0.map.scen,4,BFS,1.0,522,True,209.0000,209.0,2406,3.2548,0.00
maze512-1-0.map,maze512-1-0.map.scen,4,BFS,1.0,523,True,211.0000,211.0,2426,2.7816,0.00
maze512-1-0.map,maze512-1-0.map.scen,4,BFS,1.0,524,True,209.0000,209.0,1051,1.2022,0.00
maze512-1-0.map,maze512-1-0.map.scen,4,BFS,1.0,525,True,210.0000,210.0,1333,1.5946,0.00
maze512-1-0.map,maze512-1-0.map.scen,4,BFS,1.0,526,True,209.0000,209.0,716,0.8755,0.00
maze512-1-0.map,maze512-1-0.map.scen,4,BFS,1.0,527,True,211.0000,211.0,526,0.6705,0.00
maze512-1-0.map,maze512-1-0.map.scen,4,BFS,1.0,528,True,208.0000,208.0,2844,3.1869,0.00
maze512-1-0.map,maze512-1-0.map.scen,4,BFS,1.0,529,True,210.0000,210.0,922,1.2441,0.00
maze512-1-0.map,maze512-1-0.map.scen,4,BFS,1.0,530,True,215.0000,215.0,1565,1.8002,0.00
maze512-1-0.map,maze512-1-0.map.scen,4,BFS,1.0,531,True,215.0000,215.0,1615,1.8913,0.00
maze512-1-0.map,maze512-1-0.map.scen,4,BFS,1.0,532,True,212.0000,212.0,834,1.0348,0.00
maze512-1-0.map,maze512-1-0.map.scen,4,BFS,1.0,533,True,214.0000,214.0,703,0.8564,0.00
maze512-1-0.map,maze512-1-0.map.scen,4,BFS,1.0,534,True,214.0000,214.0,652,0.8119,0.00
maze512-1-0.map,maze512-1-0.map.scen,4,BFS,1.0,535,True,215.0000,215.0,1166,1.4190,0.00
maze512-1-0.map,maze512-1-0.map.scen,4,BFS,1.0,536,True,215.0000,215.0,1346,1.6128,0.00
maze512-1-0.map,maze512-1-0.map.scen,4,BFS,1.0,537,True,214.0000,214.0,1410,1.6356,0.00
maze512-1-0.map,maze512-1-0.map.scen,4,BFS,1.0,538,True,212.0000,212.0,775,0.9492,0.00
maze512-1-0.map,maze512-1-0.map.scen,4,BFS,1.0,539,True,213.0000,213.0,717,0.8572,0.00
maze512-1-0.map,maze512-1-0.map.scen,4,BFS,1.0,540,True,216.0000,216.0,1525,1.7049,0.00
maze512-1-0.map,maze512-1-0.map.scen,4,BFS,1.0,541,True,218.0000,218.0,666,0.8209,0.00
maze512-1-0.map,maze512-1-0.map.scen,4,BFS,1.0,542,True,219.0000,219.0,2424,2.7483,0.00
maze512-1-0.map,maze512-1-0.map.scen,4,BFS,1.0,543,True,219.0000,219.0,1197,1.4737,0.00
maze512-1-0.map,maze512-1-0.map.scen,4,BFS,1.0,544,True,217.0000,217.0,973,1.1494,0.00
maze512-1-0.map,maze512-1-0.map.scen,4,BFS,1.0,545,True,218.0000,218.0,1387,2.4918,0.00
maze512-1-0.map,maze512-1-0.map.scen,4,BFS,1.0,546,True,217.0000,217.0,1630,3.5902,0.00
maze512-1-0.map,maze512-1-0.map.scen,4,BFS,1.0,547,True,219.0000,219.0,727,0.9750,0.00
maze512-1-0.map,maze512-1-0.map.scen,4,BFS,1.0,548,True,219.0000,219.0,1171,1.5423,0.00
maze512-1-0.map,maze512-1-0.map.scen,4,BFS,1.0,549,True,216.0000,216.0,678,0.8904,0.00
maze512-1-0.map,maze512-1-0.map.scen,4,BFS,1.0,550,True,220.0000,220.0,1617,2.2436,0.00
maze512-1-0.map,maze512-1-0.map.scen,4,BFS,1.0,551,True,220.0000,220.0,815,1.0141,0.00
maze512-1-0.map,maze512-1-0.map.scen,4,BFS,1.0,552,True,221.0000,221.0,622,0.7834,0.00
maze512-1-0.map,maze512-1-0.map.scen,4,BFS,1.0,553,True,223.0000,223.0,855,1.0597,0.00
maze512-1-0.map,maze512-1-0.map.scen,4,BFS,1.0,554,True,221.0000,221.0,2692,3.1310,0.00
maze512-1-0.map,maze512-1-0.map.scen,4,BFS,1.0,555,True,223.0000,223.0,2001,2.2396,0.00
maze512-1-0.map,maze512-1-0.map.scen,4,BFS,1.0,556,True,222.0000,222.0,1237,1.5285,0.00
maze512-1-0.map,maze512-1-0.map.scen,4,BFS,1.0,557,True,220.0000,220.0,957,1.1212,0.00
maze512-1-0.map,maze512-1-0.map.scen,4,BFS,1.0,558,True,221.0000,221.0,912,1.0939,0.00
maze512-1-0.map,maze512-1-0.map.scen,4,BFS,1.0,559,True,222.0000,222.0,1773,1.9265,0.00
maze512-1-0.map,maze512-1-0.map.scen,4,BFS,1.0,560,True,224.0000,224.0,760,0.9133,0.00
maze512-1-0.map,maze512-1-0.map.scen,4,BFS,1.0,561,True,226.0000,226.0,1679,1.9704,0.00
maze512-1-0.map,maze512-1-0.map.scen,4,BFS,1.0,562,True,225.0000,225.0,1130,1.3372,0.00
maze512-1-0.map,maze512-1-0.map.scen,4,BFS,1.0,563,True,225.0000,225.0,1170,1.3991,0.00
maze512-1-0.map,maze512-1-0.map.scen,4,BFS,1.0,564,True,226.0000,226.0,1332,1.6635,0.00
maze512-1-0.map,maze512-1-0.map.scen,4,BFS,1.0,565,True,225.0000,225.0,1309,1.4939,0.00
maze512-1-0.map,maze512-1-0.map.scen,4,BFS,1.0,566,True,224.0000,224.0,1064,1.3738,0.00
maze512-1-0.map,maze512-1-0.map.scen,4,BFS,1.0,567,True,227.0000,227.0,946,1.1188,0.00
maze512-1-0.map,maze512-1-0.map.scen,4,BFS,1.0,568,True,226.0000,226.0,1835,2.1024,0.00
maze512-1-0.map,maze512-1-0.map.scen,4,BFS,1.0,569,True,224.0000,224.0,1425,1.6732,0.00
maze512-1-0.map,maze512-1-0.map.scen,4,BFS,1.0,570,True,229.0000,229.0,1070,1.2983,0.00
maze512-1-0.map,maze512-1-0.map.scen,4,BFS,1.0,571,True,231.0000,231.0,969,1.1446,0.00
maze512-1-0.map,maze512-1-0.map.scen,4,BFS,1.0,572,True,231.0000,231.0,666,0.8103,0.00
maze512-1-0.map,maze512-1-0.map.scen,4,BFS,1.0,573,True,229.0000,229.0,2175,2.2572,0.00
maze512-1-0.map,maze512-1-0.map.scen,4,BFS,1.0,574,True,230.0000,230.0,929,1.1480,0.00
maze512-1-0.map,maze512-1-0.map.scen,4,BFS,1.0,575,True,229.0000,229.0,934,1.1267,0.00
maze512-1-0.map,maze512-1-0.map.scen,4,BFS,1.0,576,True,228.0000,228.0,2291,2.5396,0.00
maze512-1-0.map,maze512-1-0.map.scen,4,BFS,1.0,577,True,228.0000,228.0,1271,1.4983,0.00
maze512-1-0.map,maze512-1-0.map.scen,4,BFS,1.0,578,True,231.0000,231.0,812,0.9845,0.00
maze512-1-0.map,maze512-1-0.map.scen,4,BFS,1.0,579,True,230.0000,230.0,957,1.1746,0.00
maze512-1-0.map,maze512-1-0.map.scen,4,BFS,1.0,580,True,234.0000,234.0,871,1.1839,0.00
maze512-1-0.map,maze512-1-0.map.scen,4,BFS,1.0,581,True,232.0000,232.0,2052,2.2898,0.00
maze512-1-0.map,maze512-1-0.map.scen,4,BFS,1.0,582,True,232.0000,232.0,1255,1.5132,0.00
maze512-1-0.map,maze512-1-0.map.scen,4,BFS,1.0,583,True,232.0000,232.0,962,1.1625,0.00
maze512-1-0.map,maze512-1-0.map.scen,4,BFS,1.0,584,True,235.0000,235.0,2398,2.7004,0.00
maze512-1-0.map,maze512-1-0.map.scen,4,BFS,1.0,585,True,234.0000,234.0,2844,3.1486,0.00
maze512-1-0.map,maze512-1-0.map.scen,4,BFS,1.0,586,True,234.0000,234.0,1613,1.6815,0.00
maze512-1-0.map,maze512-1-0.map.scen,4,BFS,1.0,587,True,232.0000,232.0,627,0.8421,0.00
maze512-1-0.map,maze512-1-0.map.scen,4,BFS,1.0,588,True,232.0000,232.0,530,0.6418,0.00
maze512-1-0.map,maze512-1-0.map.scen,4,BFS,1.0,589,True,234.0000,234.0,902,1.0775,0.00
maze512-1-0.map,maze512-1-0.map.scen,4,BFS,1.0,590,True,238.0000,238.0,1424,1.7424,0.00
maze512-1-0.map,maze512-1-0.map.scen,4,BFS,1.0,591,True,238.0000,238.0,804,1.0435,0.00
maze512-1-0.map,maze512-1-0.map.scen,4,BFS,1.0,592,True,238.0000,238.0,2217,2.4268,0.00
maze512-1-0.map,maze512-1-0.map.scen,4,BFS,1.0,593,True,239.0000,239.0,917,1.1659,0.00
maze512-1-0.map,maze512-1-0.map.scen,4,BFS,1.0,594,True,239.0000,239.0,3350,3.7207,0.00
maze512-1-0.map,maze512-1-0.map.scen,4,BFS,1.0,595,True,237.0000,237.0,1005,1.2104,0.00
maze512-1-0.map,maze512-1-0.map.scen,4,BFS,1.0,596,True,239.0000,239.0,1503,1.7667,0.00
maze512-1-0.map,maze512-1-0.map.scen,4,BFS,1.0,597,True,239.0000,239.0,1824,2.0642,0.00
maze512-1-0.map,maze512-1-0.map.scen,4,BFS,1.0,598,True,236.0000,236.0,1012,1.2259,0.00
maze512-1-0.map,maze512-1-0.map.scen,4,BFS,1.0,599,True,236.0000,236.0,1005,1.3686,0.00
maze512-1-0.map,maze512-1-0.map.scen,4,BFS,1.0,600,True,243.0000,243.0,1258,1.6331,0.00
maze512-1-0.map,maze512-1-0.map.scen,4,BFS,1.0,601,True,242.0000,242.0,2037,2.2960,0.00
maze512-1-0.map,maze512-1-0.map.scen,4,BFS,1.0,602,True,241.0000,241.0,1563,1.8074,0.00
maze512-1-0.map,maze512-1-0.map.scen,4,BFS,1.0,603,True,241.0000,241.0,1197,1.4452,0.00
maze512-1-0.map,maze512-1-0.map.scen,4,BFS,1.0,604,True,241.0000,241.0,1766,2.0914,0.00
maze512-1-0.map,maze512-1-0.map.scen,4,BFS,1.0,605,True,241.0000,241.0,1481,1.7757,0.00
maze512-1-0.map,maze512-1-0.map.scen,4,BFS,1.0,606,True,240.0000,240.0,424,0.5630,0.00
maze512-1-0.map,maze512-1-0.map.scen,4,BFS,1.0,607,True,242.0000,242.0,903,1.1445,0.00
maze512-1-0.map,maze512-1-0.map.scen,4,BFS,1.0,608,True,242.0000,242.0,1882,2.2179,0.00
maze512-1-0.map,maze512-1-0.map.scen,4,BFS,1.0,609,True,242.0000,242.0,1885,2.1619,0.00
maze512-1-0.map,maze512-1-0.map.scen,4,BFS,1.0,610,True,245.0000,245.0,612,0.8274,0.00
maze512-1-0.map,maze512-1-0.map.scen,4,BFS,1.0,611,True,246.0000,246.0,2760,3.0796,0.00
maze512-1-0.map,maze512-1-0.map.scen,4,BFS,1.0,612,True,244.0000,244.0,465,0.6025,0.00
maze512-1-0.map,maze512-1-0.map.scen,4,BFS,1.0,613,True,244.0000,244.0,3411,3.7997,0.00
maze512-1-0.map,maze512-1-0.map.scen,4,BFS,1.0,614,True,246.0000,246.0,1100,1.3170,0.00
maze512-1-0.map,maze512-1-0.map.scen,4,BFS,1.0,615,True,244.0000,244.0,562,0.7667,0.00
maze512-1-0.map,maze512-1-0.map.scen,4,BFS,1.0,616,True,247.0000,247.0,676,0.8631,0.00
maze512-1-0.map,maze512-1-0.map.scen,4,BFS,1.0,617,True,247.0000,247.0,1443,1.7704,0.00
maze512-1-0.map,maze512-1-0.map.scen,4,BFS,1.0,618,True,246.0000,246.0,877,1.0604,0.00
maze512-1-0.map,maze512-1-0.map.scen,4,BFS,1.0,619,True,244.0000,244.0,749,0.9258,0.00
maze512-1-0.map,maze512-1-0.map.scen,4,BFS,1.0,620,True,250.0000,250.0,2340,2.6040,0.00
maze512-1-0.map,maze512-1-0.map.scen,4,BFS,1.0,621,True,251.0000,251.0,849,1.0380,0.00
maze512-1-0.map,maze512-1-0.map.scen,4,BFS,1.0,622,True,251.0000,251.0,1205,1.4088,0.00
maze512-1-0.map,maze512-1-0.map.scen,4,BFS,1.0,623,True,250.0000,250.0,1371,1.6181,0.00
maze512-1-0.map,maze512-1-0.map.scen,4,BFS,1.0,624,True,250.0000,250.0,1299,1.4557,0.00
maze512-1-0.map,maze512-1-0.map.scen,4,BFS,1.0,625,True,251.0000,251.0,599,0.7720,0.00
maze512-1-0.map,maze512-1-0.map.scen,4,BFS,1.0,626,True,249.0000,249.0,705,0.8176,0.00
maze512-1-0.map,maze512-1-0.map.scen,4,BFS,1.0,627,True,251.0000,251.0,906,1.1310,0.00
maze512-1-0.map,maze512-1-0.map.scen,4,BFS,1.0,628,True,251.0000,251.0,1135,1.3726,0.00
maze512-1-0.map,maze512-1-0.map.scen,4,BFS,1.0,629,True,248.0000,248.0,1100,1.2814,0.00
maze512-1-0.map,maze512-1-0.map.scen,4,BFS,1.0,630,True,252.0000,252.0,1569,1.7458,0.00
maze512-1-0.map,maze512-1-0.map.scen,4,BFS,1.0,631,True,252.0000,252.0,1080,1.3212,0.00
maze512-1-0.map,maze512-1-0.map.scen,4,BFS,1.0,632,True,253.0000,253.0,1371,1.5943,0.00
maze512-1-0.map,maze512-1-0.map.scen,4,BFS,1.0,633,True,254.0000,254.0,2740,2.9896,0.00
maze512-1-0.map,maze512-1-0.map.scen,4,BFS,1.0,634,True,253.0000,253.0,1225,1.5477,0.00
maze512-1-0.map,maze512-1-0.map.scen,4,BFS,1.0,635,True,252.0000,252.0,930,1.0700,0.00
maze512-1-0.map,maze512-1-0.map.scen,4,BFS,1.0,636,True,254.0000,254.0,1217,1.4443,0.00
maze512-1-0.map,maze512-1-0.map.scen,4,BFS,1.0,637,True,254.0000,254.0,937,1.1599,0.00
maze512-1-0.map,maze512-1-0.map.scen,4,BFS,1.0,638,True,253.0000,253.0,2102,2.3408,0.00
maze512-1-0.map,maze512-1-0.map.scen,4,BFS,1.0,639,True,252.0000,252.0,2675,2.9444,0.00
maze512-1-0.map,maze512-1-0.map.scen,4,BFS,1.0,640,True,257.0000,257.0,1483,1.6506,0.00
maze512-1-0.map,maze512-1-0.map.scen,4,BFS,1.0,641,True,257.0000,257.0,1023,1.1930,0.00
maze512-1-0.map,maze512-1-0.map.scen,4,BFS,1.0,642,True,259.0000,259.0,2678,2.9817,0.00
maze512-1-0.map,maze512-1-0.map.scen,4,BFS,1.0,643,True,259.0000,259.0,2758,2.9870,0.00
maze512-1-0.map,maze512-1-0.map.scen,4,BFS,1.0,644,True,257.0000,257.0,4332,4.4461,0.00
maze512-1-0.map,maze512-1-0.map.scen,4,BFS,1.0,645,True,256.0000,256.0,1382,1.7169,0.00
maze512-1-0.map,maze512-1-0.map.scen,4,BFS,1.0,646,True,257.0000,257.0,2712,3.0084,0.00
maze512-1-0.map,maze512-1-0.map.scen,4,BFS,1.0,647,True,256.0000,256.0,1217,1.4032,0.00
maze512-1-0.map,maze512-1-0.map.scen,4,BFS,1.0,648,True,257.0000,257.0,587,0.7490,0.00
maze512-1-0.map,maze512-1-0.map.scen,4,BFS,1.0,649,True,258.0000,258.0,2389,2.6339,0.00
maze512-1-0.map,maze512-1-0.map.scen,4,BFS,1.0,650,True,261.0000,261.0,1325,1.6193,0.00
maze512-1-0.map,maze512-1-0.map.scen,4,BFS,1.0,651,True,261.0000,261.0,2834,3.1572,0.00
maze512-1-0.map,maze512-1-0.map.scen,4,BFS,1.0,652,True,260.0000,260.0,1737,1.8574,0.00
maze512-1-0.map,maze512-1-0.map.scen,4,BFS,1.0,653,True,261.0000,261.0,2786,3.2310,0.00
maze512-1-0.map,maze512-1-0.map.scen,4,BFS,1.0,654,True,262.0000,262.0,860,1.0267,0.00
maze512-1-0.map,maze512-1-0.map.scen,4,BFS,1.0,655,True,263.0000,263.0,845,1.0873,0.00
maze512-1-0.map,maze512-1-0.map.scen,4,BFS,1.0,656,True,263.0000,263.0,760,0.9968,0.00
maze512-1-0.map,maze512-1-0.map.scen,4,BFS,1.0,657,True,262.0000,262.0,1012,1.2338,0.00
maze512-1-0.map,maze512-1-0.map.scen,4,BFS,1.0,658,True,263.0000,263.0,3163,3.5983,0.00
maze512-1-0.map,maze512-1-0.map.scen,4,BFS,1.0,659,True,260.0000,260.0,686,0.8577,0.00
maze512-1-0.map,maze512-1-0.map.scen,4,BFS,1.0,660,True,264.0000,264.0,2306,2.5144,0.00
maze512-1-0.map,maze512-1-0.map.scen,4,BFS,1.0,661,True,265.0000,265.0,1050,1.3739,0.00
maze512-1-0.map,maze512-1-0.map.scen,4,BFS,1.0,662,True,266.0000,266.0,2882,3.2971,0.00
maze512-1-0.map,maze512-1-0.map.scen,4,BFS,1.0,663,True,264.0000,264.0,1741,2.0591,0.00
maze512-1-0.map,maze512-1-0.map.scen,4,BFS,1.0,664,True,265.0000,265.0,1728,1.8971,0.00
maze512-1-0.map,maze512-1-0.map.scen,4,BFS,1.0,665,True,266.0000,266.0,1170,1.4328,0.00
maze512-1-0.map,maze512-1-0.map.scen,4,BFS,1.0,666,True,266.0000,266.0,2258,2.4807,0.00
maze512-1-0.map,maze512-1-0.map.scen,4,BFS,1.0,667,True,264.0000,264.0,2048,2.3206,0.00
maze512-1-0.map,maze512-1-0.map.scen,4,BFS,1.0,668,True,267.0000,267.0,1199,1.4384,0.00
maze512-1-0.map,maze512-1-0.map.scen,4,BFS,1.0,669,True,264.0000,264.0,756,0.9313,0.00
maze512-1-0.map,maze512-1-0.map.scen,4,BFS,1.0,670,True,268.0000,268.0,1412,1.6297,0.00
maze512-1-0.map,maze512-1-0.map.scen,4,BFS,1.0,671,True,271.0000,271.0,4062,4.3953,0.00
maze512-1-0.map,maze512-1-0.map.scen,4,BFS,1.0,672,True,268.0000,268.0,972,1.3135,0.00
maze512-1-0.map,maze512-1-0.map.scen,4,BFS,1.0,673,True,271.0000,271.0,1291,1.5044,0.00
maze512-1-0.map,maze512-1-0.map.scen,4,BFS,1.0,674,True,270.0000,270.0,832,1.0430,0.00
maze512-1-0.map,maze512-1-0.map.scen,4,BFS,1.0,675,True,269.0000,269.0,1252,1.5350,0.00
maze512-1-0.map,maze512-1-0.map.scen,4,BFS,1.0,676,True,269.0000,269.0,739,0.8951,0.00
maze512-1-0.map,maze512-1-0.map.scen,4,BFS,1.0,677,True,270.0000,270.0,564,0.7096,0.00
maze512-1-0.map,maze512-1-0.map.scen,4,BFS,1.0,678,True,271.0000,271.0,2005,2.2220,0.00
maze512-1-0.map,maze512-1-0.map.scen,4,BFS,1.0,679,True,269.0000,269.0,1034,1.3366,0.00
maze512-1-0.map,maze512-1-0.map.scen,4,BFS,1.0,680,True,275.0000,275.0,3554,3.8534,0.00
maze512-1-0.map,maze512-1-0.map.scen,4,BFS,1.0,681,True,273.0000,273.0,1722,1.9625,0.00
maze512-1-0.map,maze512-1-0.map.scen,4,BFS,1.0,682,True,273.0000,273.0,3363,3.7094,0.00
maze512-1-0.map,maze512-1-0.map.scen,4,BFS,1.0,683,True,272.0000,272.0,1237,1.4761,0.00
maze512-1-0.map,maze512-1-0.map.scen,4,BFS,1.0,684,True,274.0000,274.0,2191,2.3625,0.00
maze512-1-0.map,maze512-1-0.map.scen,4,BFS,1.0,685,True,273.0000,273.0,3423,3.7086,0.00
maze512-1-0.map,maze512-1-0.map.scen,4,BFS,1.0,686,True,274.0000,274.0,2071,2.2304,0.00
