MapName,Scenario,Connectivity,Algorithm,Weight,TaskID,Success,PathLength,OptimalLength,ExpandedNodes,TimeMS,Suboptimality
maze512-1-1.map,maze512-1-1.map.scen,4,BFS,1.0,0,True,3.0000,3.0,8,0.0253,0.00
maze512-1-1.map,maze512-1-1.map.scen,4,BFS,1.0,7,True,0.0000,0.0,1,0.0019,0.00
maze512-1-1.map,maze512-1-1.map.scen,4,BFS,1.0,15,True,6.0000,6.0,17,0.0298,0.00
maze512-1-1.map,maze512-1-1.map.scen,4,BFS,1.0,23,True,11.0000,11.0,31,0.0462,0.00
maze512-1-1.map,maze512-1-1.map.scen,4,BFS,1.0,31,True,12.0000,12.0,35,0.0488,0.00
maze512-1-1.map,maze512-1-1.map.scen,4,BFS,1.0,39,True,12.0000,12.0,31,0.0423,0.00
maze512-1-1.map,maze512-1-1.map.scen,4,BFS,1.0,47,True,17.0000,17.0,61,0.0921,0.00
maze512-1-1.map,maze512-1-1.map.scen,4,BFS,1.0,55,True,23.0000,23.0,93,0.1243,0.00
maze512-1-1.map,maze512-1-1.map.scen,4,BFS,1.0,63,True,24.0000,24.0,88,0.1211,0.00
maze512-1-1.map,maze512-1-1.map.scen,4,BFS,1.0,71,True,30.0000,30.0,103,0.1408,0.00
maze512-1-1.map,maze512-1-1.map.scen,4,BFS,1.0,79,True,30.0000,30.0,73,0.0921,0.00
maze512-1-1.map,maze512-1-1.map.scen,4,BFS,1.0,87,True,35.0000,35.0,151,0.1986,0.00
maze512-1-1.map,maze512-1-1.map.scen,4,BFS,1.0,95,True,38.0000,38.0,100,0.1187,0.00
maze512-1-1.map,maze512-1-1.map.scen,4,BFS,1.0,103,True,43.0000,43.0,170,0.2469,0.00
maze512-1-1.map,maze512-1-1.map.scen,4,BFS,1.0,110,True,44.0000,44.0,140,0.1840,0.00
maze512-1-1.map,maze512-1-1.map.scen,4,BFS,1.0,118,True,44.0000,44.0,172,0.2475,0.00
maze512-1-1.map,maze512-1-1.map.scen,4,BFS,1.0,126,True,51.0000,51.0,198,0.2723,0.00
maze512-1-1.map,maze512-1-1.map.scen,4,BFS,1.0,134,True,52.0000,52.0,162,0.2233,0.00
maze512-1-1.map,maze512-1-1.map.scen,4,BFS,1.0,142,True,58.0000,58.0,287,0.3952,0.00
maze512-1-1.map,maze512-1-1.map.scen,4,BFS,1.0,150,True,62.0000,62.0,240,0.3049,0.00
maze512-1-1.map,maze512-1-1.map.scen,4,BFS,1.0,158,True,61.0000,61.0,221,0.2891,0.00
maze512-1-1.map,maze512-1-1.map.scen,4,BFS,1.0,166,True,65.0000,65.0,167,0.2321,0.00
maze512-1-1.map,maze512-1-1.map.scen,4,BFS,1.0,174,True,71.0000,71.0,301,0.3929,0.00
maze512-1-1.map,maze512-1-1.map.scen,4,BFS,1.0,182,True,74.0000,74.0,170,0.2254,0.00
maze512-1-1.map,maze512-1-1.map.scen,4,BFS,1.0,190,True,77.0000,77.0,203,0.2743,0.00
maze512-1-1.map,maze512-1-1.map.scen,4,BFS,1.0,198,True,77.0000,77.0,221,0.3669,0.00
maze512-1-1.map,maze512-1-1.map.scen,4,BFS,1.0,206,True,81.0000,81.0,135,0.1751,0.00
maze512-1-1.map,maze512-1-1.map.scen,4,BFS,1.0,213,True,85.0000,85.0,468,0.6103,0.00
maze512-1-1.map,maze512-1-1.map.scen,4,BFS,1.0,221,True,90.0000,90.0,483,0.5867,0.00
maze512-1-1.map,maze512-1-1.map.scen,4,BFS,1.0,229,True,88.0000,88.0,309,0.4168,0.00
maze512-1-1.map,maze512-1-1.map.scen,4,BFS,1.0,237,True,92.0000,92.0,251,0.3311,0.00
maze512-1-1.map,maze512-1-1.map.scen,4,BFS,1.0,245,True,98.0000,98.0,258,0.3294,0.00
maze512-1-1.map,maze512-1-1.map.scen,4,BFS,1.0,253,True,101.0000,101.0,335,0.4640,0.00
maze512-1-1.map,maze512-1-1.map.scen,4,BFS,1.0,261,True,106.0000,106.0,431,0.5238,0.00
maze512-1-1.map,maze512-1-1.map.scen,4,BFS,1.0,269,True,104.0000,104.0,421,0.5386,0.00
maze512-1-1.map,maze512-1-1.map.scen,4,BFS,1.0,277,True,108.0000,108.0,376,0.4639,0.00
maze512-1-1.map,maze512-1-1.map.scen,4,BFS,1.0,285,True,112.0000,112.0,259,0.3711,0.00
maze512-1-1.map,maze512-1-1.map.scen,4,BFS,1.0,293,True,117.0000,117.0,544,0.7079,0.00
maze512-1-1.map,maze512-1-1.map.scen,4,BFS,1.0,301,True,121.0000,121.0,413,0.5636,0.00
maze512-1-1.map,maze512-1-1.map.scen,4,BFS,1.0,309,True,122.0000,122.0,396,0.5029,0.00
maze512-1-1.map,maze512-1-1.map.scen,4,BFS,1.0,317,True,124.0000,124.0,391,0.5150,0.00
maze512-1-1.map,maze512-1-1.map.scen,4,BFS,1.0,324,True,129.0000,129.0,416,0.5081,0.00
maze512-1-1.map,maze512-1-1.map.scen,4,BFS,1.0,332,True,132.0000,132.0,603,0.7603,0.00
maze512-1-1.map,maze512-1-1.map.scen,4,BFS,1.0,340,True,137.0000,137.0,1021,1.2418,0.00
maze512-1-1.map,maze512-1-1.map.scen,4,BFS,1.0,348,True,136.0000,136.0,687,0.8743,0.00
maze512-1-1.map,maze512-1-1.map.scen,4,BFS,1.0,356,True,140.0000,140.0,1094,1.2605,0.00
maze512-1-1.map,maze512-1-1.map.scen,4,BFS,1.0,364,True,147.0000,147.0,424,0.5684,0.00
maze512-1-1.map,maze512-1-1.map.scen,4,BFS,1.0,372,True,150.0000,150.0,516,0.6526,0.00
maze512-1-1.map,maze512-1-1.map.scen,4,BFS,1.0,380,True,152.0000,152.0,615,0.7740,0.00
maze512-1-1.map,maze512-1-1.map.scen,4,BFS,1.0,388,True,155.0000,155.0,1175,1.3929,0.00
maze512-1-1.map,maze512-1-1.map.scen,4,BFS,1.0,396,True,156.0000,156.0,677,0.8801,0.00
maze512-1-1.map,maze512-1-1.map.scen,4,BFS,1.0,404,True,163.0000,163.0,395,0.5452,0.00
maze512-1-1.map,maze512-1-1.map.scen,4,BFS,1.0,412,True,164.0000,164.0,1102,1.2885,0.00
maze512-1-1.map,maze512-1-1.map.scen,4,BFS,1.0,420,True,170.0000,170.0,469,0.6364,0.00
maze512-1-1.map,maze512-1-1.map.scen,4,BFS,1.0,427,True,171.0000,171.0,758,0.9407,0.00
maze512-1-1.map,maze512-1-1.map.scen,4,BFS,1.0,435,True,174.0000,174.0,1431,1.7296,0.00
maze512-1-1.map,maze512-1-1.map.scen,4,BFS,1.0,443,True,179.0000,179.0,442,0.5696,0.00
maze512-1-1.map,maze512-1-1.map.scen,4,BFS,1.0,451,True,182.0000,182.0,1323,1.5592,0.00
maze512-1-1.map,maze512-1-1.map.scen,4,BFS,1.0,459,True,182.0000,182.0,902,1.0837,0.00
maze512-1-1.map,maze512-1-1.map.scen,4,BFS,1.0,467,True,187.0000,187.0,1096,1.3265,0.00
maze512-1-1.map,maze512-1-1.map.scen,4,BFS,1.0,475,True,191.0000,191.0,942,1.1506,0.00
maze512-1-1.map,maze512-1-1.map.scen,4,BFS,1.0,483,True,193.0000,193.0,855,1.0413,0.00
maze512-1-1.map,maze512-1-1.map.scen,4,BFS,1.0,491,True,198.0000,198.0,1591,1.9035,0.00
maze512-1-1.map,maze512-1-1.map.scen,4,BFS,1.0,499,True,197.0000,197.0,782,1.0298,0.00
maze512-1-1.map,maze512-1-1.map.scen,4,BFS,1.0,507,True,202.0000,202.0,580,0.7522,0.00
maze512-1-1.map,maze512-1-1.map.scen,4,BFS,1.0,515,True,206.0000,206.0,526,0.6566,0.00
maze512-1-1.map,maze512-1-1.map.scen,4,BFS,1.0,523,True,208.0000,208.0,501,0.6359,0.00
maze512-1-1.map,maze512-1-1.map.scen,4,BFS,1.0,530,True,213.0000,213.0,683,0.8796,0.00
maze512-1-1.map,maze512-1-1.map.scen,4,BFS,1.0,538,True,214.0000,214.0,673,0.8402,0.00
maze512-1-1.map,maze512-1-1.map.scen,4,BFS,1.0,546,True,218.0000,218.0,962,1.1154,0.00
maze512-1-1.map,maze512-1-1.map.scen,4,BFS,1.0,554,True,221.0000,221.0,911,1.0878,0.00
maze512-1-1.map,maze512-1-1.map.scen,4,BFS,1.0,562,True,224.0000,224.0,1534,1.8343,0.00
maze512-1-1.map,maze512-1-1.map.scen,4,BFS,1.0,570,True,228.0000,228.0,955,1.1741,0.00
maze512-1-1.map,maze512-1-1.map.scen,4,BFS,1.0,578,True,231.0000,231.0,853,0.9970,0.00
maze512-1-1.map,maze512-1-1.map.scen,4,BFS,1.0,586,True,233.0000,233.0,525,0.6751,0.00
maze512-1-1.map,maze512-1-1.map.scen,4,BFS,1.0,594,True,237.0000,237.0,620,0.7481,0.00
maze512-1-1.map,maze512-1-1.map.scen,4,BFS,1.0,602,True,243.0000,243.0,776,0.9537,0.00
maze512-1-1.map,maze512-1-1.map.scen,4,BFS,1.0,610,True,246.0000,246.0,1458,1.7234,0.00
maze512-1-1.map,maze512-1-1.map.scen,4,BFS,1.0,618,True,247.0000,247.0,818,0.9970,0.00
maze512-1-1.map,maze512-1-1.map.scen,4,BFS,1.0,626,True,250.0000,250.0,881,1.0922,0.00
maze512-1-1.map,maze512-1-1.map.scen,4,BFS,1.0,634,True,252.0000,252.0,1795,2.0834,0.00
maze512-1-1.map,maze512-1-1.map.scen,4,BFS,1.0,641,True,259.0000,259.0,952,1.2026,0.00
maze512-1-1.map,maze512-1-1.map.scen,4,BFS,1.0,649,True,257.0000,257.0,749,0.9547,0.00
maze512-1-1.map,maze512-1-1.map.scen,4,BFS,1.0,657,True,263.0000,263.0,968,1.1889,0.00
maze512-1-1.map,maze512-1-1.map.scen,4,BFS,1.0,665,True,265.0000,265.0,888,1.0559,0.00
maze512-1-1.map,maze512-1-1.map.scen,4,BFS,1.0,673,True,270.0000,270.0,5433,6.0811,0.00
maze512-1-1.map,maze512-1-1.map.scen,4,BFS,1.0,681,True,272.0000,272.0,1188,1.4104,0.00
maze512-1-1.map,maze512-1-1.map.scen,4,BFS,1.0,689,True,272.0000,272.0,839,1.0876,0.00
maze512-1-1.map,maze512-1-1.map.scen,4,BFS,1.0,697,True,276.0000,276.0,1058,1.2607,0.00
maze512-1-1.map,maze512-1-1.map.scen,4,BFS,1.0,705,True,281.0000,281.0,2009,2.2661,0.00
maze512-1-1.map,maze512-1-1.map.scen,4,BFS,1.0,713,True,285.0000,285.0,786,1.0144,0.00
maze512-1-1.map,maze512-1-1.map.scen,4,BFS,1.0,721,True,291.0000,291.0,856,1.0212,0.00
maze512-1-1.map,maze512-1-1.map.scen,4,BFS,1.0,729,True,290.0000,290.0,1753,2.0242,0.00
maze512-1-1.map,maze512-1-1.map.scen,4,BFS,1.0,737,True,293.0000,293.0,991,1.2137,0.00
maze512-1-1.map,maze512-1-1.map.scen,4,BFS,1.0,744,True,299.0000,299.0,2199,2.4415,0.00
maze512-1-1.map,maze512-1-1.map.scen,4,BFS,1.0,752,True,300.0000,300.0,3299,3.6439,0.00
maze512-1-1.map,maze512-1-1.map.scen,4,BFS,1.0,760,True,307.0000,307.0,4071,4.4205,0.00
maze512-1-1.map,maze512-1-1.map.scen,4,BFS,1.0,768,True,307.0000,307.0,765,0.9750,0.00
maze512-1-1.map,maze512-1-1.map.scen,4,BFS,1.0,776,True,308.0000,308.0,4335,4.8125,0.00
maze512-1-1.map,maze512-1-1.map.scen,4,BFS,1.0,784,True,314.0000,314.0,1098,1.4546,0.00
maze512-1-1.map,maze512-1-1.map.scen,4,BFS,1.0,792,True,318.0000,318.0,4109,4.5976,0.00
maze512-1-1.map,maze512-1-1.map.scen,4,BFS,1.0,800,True,320.0000,320.0,2453,2.9170,0.00
maze512-1-1.map,maze512-1-1.map.scen,4,BFS,1.0,808,True,322.0000,322.0,2246,2.6285,0.00
maze512-1-1.map,maze512-1-1.map.scen,4,BFS,1.0,816,True,325.0000,325.0,1263,1.5469,0.00
maze512-1-1.map,maze512-1-1.map.scen,4,BFS,1.0,824,True,329.0000,329.0,1615,1.9372,0.00
maze512-1-1.map,maze512-1-1.map.scen,4,BFS,1.0,832,True,333.0000,333.0,3031,3.4985,0.00
maze512-1-1.map,maze512-1-1.map.scen,4,BFS,1.0,840,True,338.0000,338.0,2848,3.2608,0.00
maze512-1-1.map,maze512-1-1.map.scen,4,BFS,1.0,847,True,338.0000,338.0,1441,1.6562,0.00
maze512-1-1.map,maze512-1-1.map.scen,4,BFS,1.0,855,True,340.0000,340.0,2619,3.0824,0.00
maze512-1-1.map,maze512-1-1.map.scen,4,BFS,1.0,863,True,345.0000,345.0,8720,9.3990,0.00
maze512-1-1.map,maze512-1-1.map.scen,4,BFS,1.0,871,True,350.0000,350.0,7396,8.3023,0.00
maze512-1-1.map,maze512-1-1.map.scen,4,BFS,1.0,879,True,348.0000,348.0,1398,1.6292,0.00
maze512-1-1.map,maze512-1-1.map.scen,4,BFS,1.0,887,True,352.0000,352.0,1788,1.9489,0.00
maze512-1-1.map,maze512-1-1.map.scen,4,BFS,1.0,895,True,357.0000,357.0,1211,2.6507,0.00
maze512-1-1.map,maze512-1-1.map.scen,4,BFS,1.0,903,True,363.0000,363.0,1113,2.5949,0.00
maze512-1-1.map,maze512-1-1.map.scen,4,BFS,1.0,911,True,364.0000,364.0,3532,5.8516,0.00
maze512-1-1.map,maze512-1-1.map.scen,4,BFS,1.0,919,True,365.0000,365.0,2072,2.3668,0.00
maze512-1-1.map,maze512-1-1.map.scen,4,BFS,1.0,927,True,371.0000,371.0,1141,1.3675,0.00
maze512-1-1.map,maze512-1-1.map.scen,4,BFS,1.0,935,True,373.0000,373.0,2265,2.5478,0.00
maze512-1-1.map,maze512-1-1.map.scen,4,BFS,1.0,943,True,377.0000,377.0,2616,3.0755,0.00
maze512-1-1.map,maze512-1-1.map.scen,4,BFS,1.0,951,True,381.0000,381.0,4708,5.3134,0.00
maze512-1-1.map,maze512-1-1.map.scen,4,BFS,1.0,958,True,383.0000,383.0,2154,2.3481,0.00
maze512-1-1.map,maze512-1-1.map.scen,4,BFS,1.0,966,True,385.0000,385.0,2662,3.0710,0.00
maze512-1-1.map,maze512-1-1.map.scen,4,BFS,1.0,974,True,389.0000,389.0,2388,2.6948,0.00
maze512-1-1.map,maze512-1-1.map.scen,4,BFS,1.0,982,True,395.0000,395.0,2173,2.4602,0.00
maze512-1-1.map,maze512-1-1.map.scen,4,BFS,1.0,990,True,398.0000,398.0,4249,4.7153,0.00
maze512-1-1.map,maze512-1-1.map.scen,4,BFS,1.0,998,True,398.0000,398.0,1932,2.2124,0.00
maze512-1-1.map,maze512-1-1.map.scen,4,BFS,1.0,1006,True,400.0000,400.0,1892,2.1237,0.00
maze512-1-1.map,maze512-1-1.map.scen,4,BFS,1.0,1014,True,405.0000,405.0,8782,9.8761,0.00
maze512-1-1.map,maze512-1-1.map.scen,4,BFS,1.0,1022,True,408.0000,408.0,1271,1.4772,0.00
maze512-1-1.map,maze512-1-1.map.scen,4,BFS,1.0,1030,True,413.0000,413.0,5098,5.8489,0.00
maze512-1-1.map,maze512-1-1.map.scen,4,BFS,1.0,1038,True,415.0000,415.0,1516,1.6973,0.00
maze512-1-1.map,maze512-1-1.map.scen,4,BFS,1.0,1046,True,417.0000,417.0,2476,2.8968,0.00
maze512-1-1.map,maze512-1-1.map.scen,4,BFS,1.0,1054,True,420.0000,420.0,11101,12.7149,0.00
maze512-1-1.map,maze512-1-1.map.scen,4,BFS,1.0,1061,True,424.0000,424.0,5771,6.5192,0.00
maze512-1-1.map,maze512-1-1.map.scen,4,BFS,1.0,1069,True,424.0000,424.0,2823,3.0664,0.00
maze512-1-1.map,maze512-1-1.map.scen,4,BFS,1.0,1077,True,430.0000,430.0,2823,3.0742,0.00
maze512-1-1.map,maze512-1-1.map.scen,4,BFS,1.0,1085,True,435.0000,435.0,1755,1.9251,0.00
maze512-1-1.map,maze512-1-1.map.scen,4,BFS,1.0,1093,True,436.0000,436.0,5522,6.2462,0.00
maze512-1-1.map,maze512-1-1.map.scen,4,BFS,1.0,1101,True,441.0000,441.0,13007,14.7290,0.00
maze512-1-1.map,maze512-1-1.map.scen,4,BFS,1.0,1109,True,443.0000,443.0,2153,2.4249,0.00
maze512-1-1.map,maze512-1-1.map.scen,4,BFS,1.0,1117,True,444.0000,444.0,1156,1.3586,0.00
maze512-1-1.map,maze512-1-1.map.scen,4,BFS,1.0,1125,True,448.0000,448.0,5079,5.9638,0.00
maze512-1-1.map,maze512-1-1.map.scen,4,BFS,1.0,1133,True,453.0000,453.0,2505,2.8500,0.00
maze512-1-1.map,maze512-1-1.map.scen,4,BFS,1.0,1141,True,457.0000,457.0,9368,11.6463,0.00
maze512-1-1.map,maze512-1-1.map.scen,4,BFS,1.0,1149,True,458.0000,458.0,2473,2.8432,0.00
maze512-1-1.map,maze512-1-1.map.scen,4,BFS,1.0,1157,True,461.0000,461.0,3496,3.8995,0.00
maze512-1-1.map,maze512-1-1.map.scen,4,BFS,1.0,1164,True,466.0000,466.0,2632,2.9434,0.00
maze512-1-1.map,maze512-1-1.map.scen,4,BFS,1.0,1172,True,468.0000,468.0,12953,14.2390,0.00
maze512-1-1.map,maze512-1-1.map.scen,4,BFS,1.0,1180,True,472.0000,472.0,2011,2.2454,0.00
maze512-1-1.map,maze512-1-1.map.scen,4,BFS,1.0,1188,True,472.0000,472.0,3448,3.9433,0.00
maze512-1-1.map,maze512-1-1.map.scen,4,BFS,1.0,1196,True,477.0000,477.0,1279,1.5000,0.00
maze512-1-1.map,maze512-1-1.map.scen,4,BFS,1.0,1204,True,480.0000,480.0,2353,2.5137,0.00
maze512-1-1.map,maze512-1-1.map.scen,4,BFS,1.0,1212,True,485.0000,485.0,4114,4.6360,0.00
maze512-1-1.map,maze512-1-1.map.scen,4,BFS,1.0,1220,True,488.0000,488.0,3724,4.0945,0.00
maze512-1-1.map,maze512-1-1.map.scen,4,BFS,1.0,1228,True,489.0000,489.0,3710,4.2048,0.00
maze512-1-1.map,maze512-1-1.map.scen,4,BFS,1.0,1236,True,492.0000,492.0,4447,4.6893,0.00
maze512-1-1.map,maze512-1-1.map.scen,4,BFS,1.0,1244,True,499.0000,499.0,3237,3.6175,0.00
maze512-1-1.map,maze512-1-1.map.scen,4,BFS,1.0,1252,True,502.0000,502.0,3305,3.8287,0.00
maze512-1-1.map,maze512-1-1.map.scen,4,BFS,1.0,1260,True,507.0000,507.0,13871,15.2068,0.00
maze512-1-1.map,maze512-1-1.map.scen,4,BFS,1.0,1268,True,506.0000,506.0,4289,4.5079,0.00
maze512-1-1.map,maze512-1-1.map.scen,4,BFS,1.0,1275,True,509.0000,509.0,1377,1.6017,0.00
maze512-1-1.map,maze512-1-1.map.scen,4,BFS,1.0,1283,True,512.0000,512.0,11637,14.1513,0.00
maze512-1-1.map,maze512-1-1.map.scen,4,BFS,1.0,1291,True,517.0000,517.0,2370,2.7612,0.00
maze512-1-1.map,maze512-1-1.map.scen,4,BFS,1.0,1299,True,519.0000,519.0,3157,3.5970,0.00
maze512-1-1.map,maze512-1-1.map.scen,4,BFS,1.0,1307,True,521.0000,521.0,5038,6.2098,0.00
maze512-1-1.map,maze512-1-1.map.scen,4,BFS,1.0,1315,True,526.0000,526.0,4206,4.7563,0.00
maze512-1-1.map,maze512-1-1.map.scen,4,BFS,1.0,1323,True,529.0000,529.0,6896,7.9671,0.00
maze512-1-1.map,maze512-1-1.map.scen,4,BFS,1.0,1331,True,533.0000,533.0,3806,4.2613,0.00
maze512-1-1.map,maze512-1-1.map.scen,4,BFS,1.0,1339,True,535.0000,535.0,1365,1.6369,0.00
maze512-1-1.map,maze512-1-1.map.scen,4,BFS,1.0,1347,True,538.0000,538.0,2035,2.7040,0.00
maze512-1-1.map,maze512-1-1.map.scen,4,BFS,1.0,1355,True,542.0000,542.0,5336,6.0549,0.00
maze512-1-1.map,maze512-1-1.map.scen,4,BFS,1.0,1363,True,547.0000,547.0,9365,10.3880,0.00
maze512-1-1.map,maze512-1-1.map.scen,4,BFS,1.0,1371,True,550.0000,550.0,3693,4.1262,0.00
maze512-1-1.map,maze512-1-1.map.scen,4,BFS,1.0,1378,True,549.0000,549.0,2258,2.4452,0.00
maze512-1-1.map,maze512-1-1.map.scen,4,BFS,1.0,1386,True,554.0000,554.0,2908,3.4029,0.00
maze512-1-1.map,maze512-1-1.map.scen,4,BFS,1.0,1394,True,556.0000,556.0,11646,12.9319,0.00
maze512-1-1.map,maze512-1-1.map.scen,4,BFS,1.0,1402,True,562.0000,562.0,12337,14.8100,0.00
maze512-1-1.map,maze512-1-1.map.scen,4,BFS,1.0,1410,True,566.0000,566.0,5481,6.4102,0.00
maze512-1-1.map,maze512-1-1.map.scen,4,BFS,1.0,1418,True,567.0000,567.0,2064,2.2994,0.00
maze512-1-1.map,maze512-1-1.map.scen,4,BFS,1.0,1426,True,570.0000,570.0,5289,6.1521,0.00
maze512-1-1.map,maze512-1-1.map.scen,4,BFS,1.0,1434,True,572.0000,572.0,19989,21.6303,0.00
maze512-1-1.map,maze512-1-1.map.scen,4,BFS,1.0,1442,True,576.0000,576.0,3786,4.0797,0.00
maze512-1-1.map,maze512-1-1.map.scen,4,BFS,1.0,1450,True,580.0000,580.0,3611,4.0626,0.00
maze512-1-1.map,maze512-1-1.map.scen,4,BFS,1.0,1458,True,582.0000,582.0,7189,7.7792,0.00
maze512-1-1.map,maze512-1-1.map.scen,4,BFS,1.0,1466,True,585.0000,585.0,4787,5.3128,0.00
maze512-1-1.map,maze512-1-1.map.scen,4,BFS,1.0,1474,True,590.0000,590.0,3389,3.6406,0.00
maze512-1-1.map,maze512-1-1.map.scen,4,BFS,1.0,1481,True,594.0000,594.0,4293,4.5026,0.00
maze512-1-1.map,maze512-1-1.map.scen,4,BFS,1.0,1489,True,593.0000,593.0,2985,3.4958,0.00
maze512-1-1.map,maze512-1-1.map.scen,4,BFS,1.0,1497,True,596.0000,596.0,2770,3.1986,0.00
maze512-1-1.map,maze512-1-1.map.scen,4,BFS,1.0,1505,True,603.0000,603.0,5038,5.3984,0.00
maze512-1-1.map,maze512-1-1.map.scen,4,BFS,1.0,1513,True,605.0000,605.0,9507,12.3584,0.00
maze512-1-1.map,maze512-1-1.map.scen,4,BFS,1.0,1521,True,608.0000,608.0,9827,11.2470,0.00
maze512-1-1.map,maze512-1-1.map.scen,4,BFS,1.0,1529,True,608.0000,608.0,9159,10.1020,0.00
maze512-1-1.map,maze512-1-1.map.scen,4,BFS,1.0,1537,True,613.0000,613.0,1792,2.0986,0.00
maze512-1-1.map,maze512-1-1.map.scen,4,BFS,1.0,1545,True,617.0000,617.0,5174,5.8790,0.00
maze512-1-1.map,maze512-1-1.map.scen,4,BFS,1.0,1553,True,623.0000,623.0,7155,7.6648,0.00
maze512-1-1.map,maze512-1-1.map.scen,4,BFS,1.0,1561,True,625.0000,625.0,6797,7.4663,0.00
maze512-1-1.map,maze512-1-1.map.scen,4,BFS,1.0,1569,True,626.0000,626.0,2350,2.6672,0.00
maze512-1-1.map,maze512-1-1.map.scen,4,BFS,1.0,1577,True,629.0000,629.0,9338,9.8517,0.00
maze512-1-1.map,maze512-1-1.map.scen,4,BFS,1.0,1585,True,632.0000,632.0,21579,24.2456,0.00
maze512-1-1.map,maze512-1-1.map.scen,4,BFS,1.0,1592,True,636.0000,636.0,4827,5.2690,0.00
maze512-1-1.map,maze512-1-1.map.scen,4,BFS,1.0,1600,True,643.0000,643.0,5628,6.4817,0.00
maze512-1-1.map,maze512-1-1.map.scen,4,BFS,1.0,1608,True,641.0000,641.0,4710,5.1944,0.00
maze512-1-1.map,maze512-1-1.map.scen,4,BFS,1.0,1616,True,645.0000,645.0,5322,6.2899,0.00
maze512-1-1.map,maze512-1-1.map.scen,4,BFS,1.0,1624,True,651.0000,651.0,8151,9.0303,0.00
maze512-1-1.map,maze512-1-1.map.scen,4,BFS,1.0,1632,True,654.0000,654.0,8409,9.2208,0.00
maze512-1-1.map,maze512-1-1.map.scen,4,BFS,1.0,1640,True,657.0000,657.0,14006,15.4953,0.00
maze512-1-1.map,maze512-1-1.map.scen,4,BFS,1.0,1648,True,656.0000,656.0,12846,13.9477,0.00
maze512-1-1.map,maze512-1-1.map.scen,4,BFS,1.0,1656,True,660.0000,660.0,7244,7.8562,0.00
maze512-1-1.map,maze512-1-1.map.scen,4,BFS,1.0,1664,True,666.0000,666.0,8467,9.0780,0.00
maze512-1-1.map,maze512-1-1.map.scen,4,BFS,1.0,1672,True,671.0000,671.0,8489,9.2328,0.00
maze512-1-1.map,maze512-1-1.map.scen,4,BFS,1.0,1680,True,674.0000,674.0,23109,25.7430,0.00
maze512-1-1.map,maze512-1-1.map.scen,4,BFS,1.0,1688,True,675.0000,675.0,10162,11.1765,0.00
maze512-1-1.map,maze512-1-1.map.scen,4,BFS,1.0,1695,True,677.0000,677.0,13278,14.4957,0.00
maze512-1-1.map,maze512-1-1.map.scen,4,BFS,1.0,1703,True,682.0000,682.0,3446,3.8978,0.00
maze512-1-1.map,maze512-1-1.map.scen,4,BFS,1.0,1711,True,687.0000,687.0,20475,21.9987,0.00
maze512-1-1.map,maze512-1-1.map.scen,4,BFS,1.0,1719,True,687.0000,687.0,4456,4.8225,0.00
maze512-1-1.map,maze512-1-1.map.scen,4,BFS,1.0,1727,True,689.0000,689.0,2394,2.7748,0.00
maze512-1-1.map,maze512-1-1.map.scen,4,BFS,1.0,1735,True,693.0000,693.0,7784,8.4040,0.00
maze512-1-1.map,maze512-1-1.map.scen,4,BFS,1.0,1743,True,699.0000,699.0,11728,13.1769,0.00
maze512-1-1.map,maze512-1-1.map.scen,4,BFS,1.0,1751,True,702.0000,702.0,14335,15.5674,0.00
maze512-1-1.map,maze512-1-1.map.scen,4,BFS,1.0,1759,True,701.0000,701.0,8310,8.6986,0.00
maze512-1-1.map,maze512-1-1.map.scen,4,BFS,1.0,1767,True,704.0000,704.0,2490,2.8668,0.00
maze512-1-1.map,maze512-1-1.map.scen,4,BFS,1.0,1775,True,709.0000,709.0,11508,12.9283,0.00
maze512-1-1.map,maze512-1-1.map.scen,4,BFS,1.0,1783,True,715.0000,715.0,4805,5.2473,0.00
maze512-1-1.map,maze512-1-1.map.scen,4,BFS,1.0,1791,True,717.0000,717.0,30103,34.1157,0.00
maze512-1-1.map,maze512-1-1.map.scen,4,BFS,1.0,1798,True,718.0000,718.0,3715,4.2767,0.00
maze512-1-1.map,maze512-1-1.map.scen,4,BFS,1.0,1806,True,723.0000,723.0,19183,20.8166,0.00
maze512-1-1.map,maze512-1-1.map.scen,4,BFS,1.0,1814,True,727.0000,727.0,8057,9.0760,0.00
maze512-1-1.map,maze512-1-1.map.scen,4,BFS,1.0,1822,True,729.0000,729.0,24990,27.7113,0.00
maze512-1-1.map,maze512-1-1.map.scen,4,BFS,1.0,1830,True,735.0000,735.0,16419,17.3820,0.00
maze512-1-1.map,maze512-1-1.map.scen,4,BFS,1.0,1838,True,735.0000,735.0,16382,17.1687,0.00
maze512-1-1.map,maze512-1-1.map.scen,4,BFS,1.0,1846,True,739.0000,739.0,20501,22.1170,0.00
maze512-1-1.map,maze512-1-1.map.scen,4,BFS,1.0,1854,True,740.0000,740.0,27378,30.1516,0.00
maze512-1-1.map,maze512-1-1.map.scen,4,BFS,1.0,1862,True,745.0000,745.0,7894,8.6454,0.00
maze512-1-1.map,maze512-1-1.map.scen,4,BFS,1.0,1870,True,749.0000,749.0,14925,16.0240,0.00
maze512-1-1.map,maze512-1-1.map.scen,4,BFS,1.0,1878,True,750.0000,750.0,25304,28.2202,0.00
maze512-1-1.map,maze512-1-1.map.scen,4,BFS,1.0,1886,True,752.0000,752.0,7339,8.4858,0.00
maze512-1-1.map,maze512-1-1.map.scen,4,BFS,1.0,1894,True,758.0000,758.0,6020,6.8972,0.00
maze512-1-1.map,maze512-1-1.map.scen,4,BFS,1.0,1902,True,761.0000,761.0,34595,39.5192,0.00
maze512-1-1.map,maze512-1-1.map.scen,4,BFS,1.0,1909,True,763.0000,763.0,6365,7.1009,0.00
maze512-1-1.map,maze512-1-1.map.scen,4,BFS,1.0,1917,True,765.0000,765.0,11496,12.8461,0.00
maze512-1-1.map,maze512-1-1.map.scen,4,BFS,1.0,1925,True,769.0000,769.0,12379,15.0414,0.00
maze512-1-1.map,maze512-1-1.map.scen,4,BFS,1.0,1933,True,774.0000,774.0,8101,9.2806,0.00
maze512-1-1.map,maze512-1-1.map.scen,4,BFS,1.0,1941,True,778.0000,778.0,6449,7.3778,0.00
maze512-1-1.map,maze512-1-1.map.scen,4,BFS,1.0,1949,True,776.0000,776.0,5477,6.1224,0.00
maze512-1-1.map,maze512-1-1.map.scen,4,BFS,1.0,1957,True,780.0000,780.0,3030,3.4102,0.00
maze512-1-1.map,maze512-1-1.map.scen,4,BFS,1.0,1965,True,786.0000,786.0,7215,8.1186,0.00
maze512-1-1.map,maze512-1-1.map.scen,4,BFS,1.0,1973,True,788.0000,788.0,9618,10.4596,0.00
maze512-1-1.map,maze512-1-1.map.scen,4,BFS,1.0,1981,True,793.0000,793.0,9124,11.2423,0.00
maze512-1-1.map,maze512-1-1.map.scen,4,BFS,1.0,1989,True,793.0000,793.0,13795,15.5147,0.00
maze512-1-1.map,maze512-1-1.map.scen,4,BFS,1.0,1997,True,798.0000,798.0,5051,5.6246,0.00
maze512-1-1.map,maze512-1-1.map.scen,4,BFS,1.0,2005,True,800.0000,800.0,17074,19.6339,0.00
maze512-1-1.map,maze512-1-1.map.scen,4,BFS,1.0,2012,True,805.0000,805.0,14127,15.5968,0.00
maze512-1-1.map,maze512-1-1.map.scen,4,BFS,1.0,2020,True,808.0000,808.0,3351,3.8743,0.00
maze512-1-1.map,maze512-1-1.map.scen,4,BFS,1.0,2028,True,811.0000,811.0,12087,13.0943,0.00
maze512-1-1.map,maze512-1-1.map.scen,4,BFS,1.0,2036,True,814.0000,814.0,11264,12.7108,0.00
maze512-1-1.map,maze512-1-1.map.scen,4,BFS,1.0,2044,True,819.0000,819.0,27966,32.2517,0.00
maze512-1-1.map,maze512-1-1.map.scen,4,BFS,1.0,2052,True,821.0000,821.0,15435,16.9029,0.00
maze512-1-1.map,maze512-1-1.map.scen,4,BFS,1.0,2060,True,827.0000,827.0,40694,45.2336,0.00
maze512-1-1.map,maze512-1-1.map.scen,4,BFS,1.0,2068,True,825.0000,825.0,10910,12.4052,0.00
maze512-1-1.map,maze512-1-1.map.scen,4,BFS,1.0,2076,True,828.0000,828.0,12342,13.3330,0.00
maze512-1-1.map,maze512-1-1.map.scen,4,BFS,1.0,2084,True,834.0000,834.0,3059,4.5606,0.00
maze512-1-1.map,maze512-1-1.map.scen,4,BFS,1.0,2092,True,837.0000,837.0,6669,7.4734,0.00
maze512-1-1.map,maze512-1-1.map.scen,4,BFS,1.0,2100,True,840.0000,840.0,18650,20.3965,0.00
maze512-1-1.map,maze512-1-1.map.scen,4,BFS,1.0,2108,True,840.0000,840.0,6481,7.3952,0.00
maze512-1-1.map,maze512-1-1.map.scen,4,BFS,1.0,2115,True,845.0000,845.0,28526,32.4029,0.00
maze512-1-1.map,maze512-1-1.map.scen,4,BFS,1.0,2123,True,849.0000,849.0,8927,9.6573,0.00
maze512-1-1.map,maze512-1-1.map.scen,4,BFS,1.0,2131,True,854.0000,854.0,20687,23.5654,0.00
maze512-1-1.map,maze512-1-1.map.scen,4,BFS,1.0,2139,True,854.0000,854.0,2753,3.0307,0.00
maze512-1-1.map,maze512-1-1.map.scen,4,BFS,1.0,2147,True,856.0000,856.0,6037,7.0268,0.00
maze512-1-1.map,maze512-1-1.map.scen,4,BFS,1.0,2155,True,860.0000,860.0,30945,34.3239,0.00
maze512-1-1.map,maze512-1-1.map.scen,4,BFS,1.0,2163,True,865.0000,865.0,11991,13.5437,0.00
maze512-1-1.map,maze512-1-1.map.scen,4,BFS,1.0,2171,True,871.0000,871.0,30907,35.9655,0.00
maze512-1-1.map,maze512-1-1.map.scen,4,BFS,1.0,2179,True,871.0000,871.0,16232,17.6620,0.00
maze512-1-1.map,maze512-1-1.map.scen,4,BFS,1.0,2187,True,875.0000,875.0,9309,10.0657,0.00
maze512-1-1.map,maze512-1-1.map.scen,4,BFS,1.0,2195,True,879.0000,879.0,16230,17.7755,0.00
maze512-1-1.map,maze512-1-1.map.scen,4,BFS,1.0,2203,True,882.0000,882.0,23221,27.3512,0.00
maze512-1-1.map,maze512-1-1.map.scen,4,BFS,1.0,2211,True,887.0000,887.0,21775,24.5286,0.00
maze512-1-1.map,maze512-1-1.map.scen,4,BFS,1.0,2219,True,885.0000,885.0,5841,6.7402,0.00
maze512-1-1.map,maze512-1-1.map.scen,4,BFS,1.0,2226,True,891.0000,891.0,41765,47.4800,0.00
maze512-1-1.map,maze512-1-1.map.scen,4,BFS,1.0,2234,True,894.0000,894.0,25793,28.1344,0.00
maze512-1-1.map,maze512-1-1.map.scen,4,BFS,1.0,2242,True,896.0000,896.0,8755,10.2260,0.00
maze512-1-1.map,maze512-1-1.map.scen,4,BFS,1.0,2250,True,901.0000,901.0,16403,18.2798,0.00
maze512-1-1.map,maze512-1-1.map.scen,4,BFS,1.0,2258,True,903.0000,903.0,37896,41.7794,0.00
maze512-1-1.map,maze512-1-1.map.scen,4,BFS,1.0,2266,True,904.0000,904.0,7467,8.1529,0.00
maze512-1-1.map,maze512-1-1.map.scen,4,BFS,1.0,2274,True,909.0000,909.0,15775,16.8543,0.00
maze512-1-1.map,maze512-1-1.map.scen,4,BFS,1.0,2282,True,914.0000,914.0,13102,14.2789,0.00
maze512-1-1.map,maze512-1-1.map.scen,4,BFS,1.0,2290,True,919.0000,919.0,23172,25.7130,0.00
maze512-1-1.map,maze512-1-1.map.scen,4,BFS,1.0,2298,True,918.0000,918.0,6374,7.2627,0.00
maze512-1-1.map,maze512-1-1.map.scen,4,BFS,1.0,2306,True,921.0000,921.0,21967,25.4688,0.00
maze512-1-1.map,maze512-1-1.map.scen,4,BFS,1.0,2314,True,925.0000,925.0,12036,14.3876,0.00
maze512-1-1.map,maze512-1-1.map.scen,4,BFS,1.0,2322,True,931.0000,931.0,24771,27.9623,0.00
maze512-1-1.map,maze512-1-1.map.scen,4,BFS,1.0,2329,True,931.0000,931.0,17042,18.3592,0.00
maze512-1-1.map,maze512-1-1.map.scen,4,BFS,1.0,2337,True,934.0000,934.0,6525,7.1274,0.00
maze512-1-1.map,maze512-1-1.map.scen,4,BFS,1.0,2345,True,938.0000,938.0,6737,7.6627,0.00
maze512-1-1.map,maze512-1-1.map.scen,4,BFS,1.0,2353,True,940.0000,940.0,25357,28.2634,0.00
maze512-1-1.map,maze512-1-1.map.scen,4,BFS,1.0,2361,True,946.0000,946.0,30190,33.5873,0.00
maze512-1-1.map,maze512-1-1.map.scen,4,BFS,1.0,2369,True,945.0000,945.0,7290,8.0682,0.00
maze512-1-1.map,maze512-1-1.map.scen,4,BFS,1.0,2377,True,948.0000,948.0,4472,4.8179,0.00
maze512-1-1.map,maze512-1-1.map.scen,4,BFS,1.0,2385,True,954.0000,954.0,34626,39.2566,0.00
maze512-1-1.map,maze512-1-1.map.scen,4,BFS,1.0,2393,True,957.0000,957.0,17968,19.2903,0.00
maze512-1-1.map,maze512-1-1.map.scen,4,BFS,1.0,2401,True,961.0000,961.0,13788,15.2847,0.00
maze512-1-1.map,maze512-1-1.map.scen,4,BFS,1.0,2409,True,961.0000,961.0,6552,7.2840,0.00
maze512-1-1.map,maze512-1-1.map.scen,4,BFS,1.0,2417,True,967.0000,967.0,12621,13.9425,0.00
maze512-1-1.map,maze512-1-1.map.scen,4,BFS,1.0,2425,True,969.0000,969.0,38468,41.8741,0.00
maze512-1-1.map,maze512-1-1.map.scen,4,BFS,1.0,2432,True,972.0000,972.0,29066,32.5644,0.00
maze512-1-1.map,maze512-1-1.map.scen,4,BFS,1.0,2440,True,978.0000,978.0,15055,16.1576,0.00
maze512-1-1.map,maze512-1-1.map.scen,4,BFS,1.0,2448,True,978.0000,978.0,30162,32.8985,0.00
maze512-1-1.map,maze512-1-1.map.scen,4,BFS,1.0,2456,True,981.0000,981.0,14349,15.7209,0.00
maze512-1-1.map,maze512-1-1.map.scen,4,BFS,1.0,2464,True,986.0000,986.0,9423,10.5497,0.00
maze512-1-1.map,maze512-1-1.map.scen,4,BFS,1.0,2472,True,990.0000,990.0,27281,30.4782,0.00
maze512-1-1.map,maze512-1-1.map.scen,4,BFS,1.0,2480,True,995.0000,995.0,15964,16.9212,0.00
maze512-1-1.map,maze512-1-1.map.scen,4,BFS,1.0,2488,True,992.0000,992.0,29829,32.4615,0.00
maze512-1-1.map,maze512-1-1.map.scen,4,BFS,1.0,2496,True,998.0000,998.0,38491,42.5241,0.00
maze512-1-1.map,maze512-1-1.map.scen,4,BFS,1.0,2504,True,1002.0000,1002.0,13859,15.1706,0.00
maze512-1-1.map,maze512-1-1.map.scen,4,BFS,1.0,2512,True,1005.0000,1005.0,37014,40.1604,0.00
maze512-1-1.map,maze512-1-1.map.scen,4,BFS,1.0,2520,True,1011.0000,1011.0,18985,20.3710,0.00
maze512-1-1.map,maze512-1-1.map.scen,4,BFS,1.0,2528,True,1010.0000,1010.0,9763,11.2571,0.00
maze512-1-1.map,maze512-1-1.map.scen,4,BFS,1.0,2536,True,1012.0000,1012.0,41521,45.7326,0.00
maze512-1-1.map,maze512-1-1.map.scen,4,BFS,1.0,2543,True,1019.0000,1019.0,20216,21.6755,0.00
maze512-1-1.map,maze512-1-1.map.scen,4,BFS,1.0,2551,True,1022.0000,1022.0,12672,14.6373,0.00
maze512-1-1.map,maze512-1-1.map.scen,4,BFS,1.0,2559,True,1021.0000,1021.0,47095,54.4221,0.00
maze512-1-1.map,maze512-1-1.map.scen,4,BFS,1.0,2567,True,1025.0000,1025.0,12922,14.2771,0.00
maze512-1-1.map,maze512-1-1.map.scen,4,BFS,1.0,2575,True,1031.0000,1031.0,22132,24.9487,0.00
maze512-1-1.map,maze512-1-1.map.scen,4,BFS,1.0,2583,True,1033.0000,1033.0,9529,10.5869,0.00
maze512-1-1.map,maze512-1-1.map.scen,4,BFS,1.0,2591,True,1037.0000,1037.0,37328,40.6174,0.00
maze512-1-1.map,maze512-1-1.map.scen,4,BFS,1.0,2599,True,1036.0000,1036.0,11724,12.7753,0.00
maze512-1-1.map,maze512-1-1.map.scen,4,BFS,1.0,2607,True,1043.0000,1043.0,57299,64.4988,0.00
maze512-1-1.map,maze512-1-1.map.scen,4,BFS,1.0,2615,True,1044.0000,1044.0,12996,14.7119,0.00
maze512-1-1.map,maze512-1-1.map.scen,4,BFS,1.0,2623,True,1050.0000,1050.0,5624,6.2475,0.00
maze512-1-1.map,maze512-1-1.map.scen,4,BFS,1.0,2631,True,1053.0000,1053.0,33763,38.2263,0.00
maze512-1-1.map,maze512-1-1.map.scen,4,BFS,1.0,2639,True,1054.0000,1054.0,29456,31.6157,0.00
maze512-1-1.map,maze512-1-1.map.scen,4,BFS,1.0,2646,True,1059.0000,1059.0,26701,29.5351,0.00
maze512-1-1.map,maze512-1-1.map.scen,4,BFS,1.0,2654,True,1061.0000,1061.0,27805,31.0980,0.00
maze512-1-1.map,maze512-1-1.map.scen,4,BFS,1.0,2662,True,1066.0000,1066.0,58751,67.1597,0.00
maze512-1-1.map,maze512-1-1.map.scen,4,BFS,1.0,2670,True,1071.0000,1071.0,29092,32.1188,0.00
maze512-1-1.map,maze512-1-1.map.scen,4,BFS,1.0,2678,True,1070.0000,1070.0,49953,56.8388,0.00
maze512-1-1.map,maze512-1-1.map.scen,4,BFS,1.0,2686,True,1073.0000,1073.0,37737,42.1462,0.00
maze512-1-1.map,maze512-1-1.map.scen,4,BFS,1.0,2694,True,1077.0000,1077.0,12909,14.5876,0.00
maze512-1-1.map,maze512-1-1.map.scen,4,BFS,1.0,2702,True,1081.0000,1081.0,16505,18.0250,0.00
maze512-1-1.map,maze512-1-1.map.scen,4,BFS,1.0,2710,True,1085.0000,1085.0,21808,26.0205,0.00
maze512-1-1.map,maze512-1-1.map.scen,4,BFS,1.0,2718,True,1086.0000,1086.0,43650,50.9340,0.00
maze512-1-1.map,maze512-1-1.map.scen,4,BFS,1.0,2726,True,1089.0000,1089.0,31314,36.0422,0.00
maze512-1-1.map,maze512-1-1.map.scen,4,BFS,1.0,2734,True,1093.0000,1093.0,32482,35.3212,0.00
maze512-1-1.map,maze512-1-1.map.scen,4,BFS,1.0,2742,True,1098.0000,1098.0,31960,34.8055,0.00
maze512-1-1.map,maze512-1-1.map.scen,4,BFS,1.0,2749,True,1096.0000,1096.0,30861,35.1807,0.00
maze512-1-1.map,maze512-1-1.map.scen,4,BFS,1.0,2757,True,1102.0000,1102.0,32119,34.9886,0.00
maze512-1-1.map,maze512-1-1.map.scen,4,BFS,1.0,2765,True,1104.0000,1104.0,38983,43.6173,0.00
maze512-1-1.map,maze512-1-1.map.scen,4,BFS,1.0,2773,True,1110.0000,1110.0,21464,24.2968,0.00
maze512-1-1.map,maze512-1-1.map.scen,4,BFS,1.0,2781,True,1114.0000,1114.0,27741,30.8607,0.00
maze512-1-1.map,maze512-1-1.map.scen,4,BFS,1.0,2789,True,1115.0000,1115.0,52468,61.5233,0.00
maze512-1-1.map,maze512-1-1.map.scen,4,BFS,1.0,2797,True,1118.0000,1118.0,38131,41.7583,0.00
maze512-1-1.map,maze512-1-1.map.scen,4,BFS,1.0,2805,True,1120.0000,1120.0,19866,21.9043,0.00
maze512-1-1.map,maze512-1-1.map.scen,4,BFS,1.0,2813,True,1124.0000,1124.0,11193,12.8664,0.00
maze512-1-1.map,maze512-1-1.map.scen,4,BFS,1.0,2821,True,1128.0000,1128.0,43261,51.5384,0.00
maze512-1-1.map,maze512-1-1.map.scen,4,BFS,1.0,2829,True,1130.0000,1130.0,8736,9.5476,0.00
maze512-1-1.map,maze512-1-1.map.scen,4,BFS,1.0,2837,True,1132.0000,1132.0,24046,28.5787,0.00
maze512-1-1.map,maze512-1-1.map.scen,4,BFS,1.0,2845,True,1139.0000,1139.0,7201,7.8849,0.00
maze512-1-1.map,maze512-1-1.map.scen,4,BFS,1.0,2853,True,1142.0000,1142.0,7960,9.1469,0.00
maze512-1-1.map,maze512-1-1.map.scen,4,BFS,1.0,2860,True,1147.0000,1147.0,33857,37.2481,0.00
maze512-1-1.map,maze512-1-1.map.scen,4,BFS,1.0,2868,True,1146.0000,1146.0,32251,36.9392,0.00
maze512-1-1.map,maze512-1-1.map.scen,4,BFS,1.0,2876,True,1149.0000,1149.0,9434,10.2833,0.00
maze512-1-1.map,maze512-1-1.map.scen,4,BFS,1.0,2884,True,1154.0000,1154.0,14947,16.2628,0.00
maze512-1-1.map,maze512-1-1.map.scen,4,BFS,1.0,2892,True,1158.0000,1158.0,13525,14.5952,0.00
maze512-1-1.map,maze512-1-1.map.scen,4,BFS,1.0,2900,True,1163.0000,1163.0,34435,39.2038,0.00
maze512-1-1.map,maze512-1-1.map.scen,4,BFS,1.0,2908,True,1163.0000,1163.0,14175,15.5256,0.00
maze512-1-1.map,maze512-1-1.map.scen,4,BFS,1.0,2916,True,1167.0000,1167.0,12036,13.4611,0.00
maze512-1-1.map,maze512-1-1.map.scen,4,BFS,1.0,2924,True,1171.0000,1171.0,27850,30.8116,0.00
maze512-1-1.map,maze512-1-1.map.scen,4,BFS,1.0,2932,True,1173.0000,1173.0,29545,31.4433,0.00
maze512-1-1.map,maze512-1-1.map.scen,4,BFS,1.0,2940,True,1176.0000,1176.0,31909,35.8246,0.00
maze512-1-1.map,maze512-1-1.map.scen,4,BFS,1.0,2948,True,1177.0000,1177.0,62100,71.7766,0.00
maze512-1-1.map,maze512-1-1.map.scen,4,BFS,1.0,2956,True,1180.0000,1180.0,12395,13.9386,0.00
maze512-1-1.map,maze512-1-1.map.scen,4,BFS,1.0,2963,True,1185.0000,1185.0,21497,24.5900,0.00
maze512-1-1.map,maze512-1-1.map.scen,4,BFS,1.0,2971,True,1188.0000,1188.0,31669,35.7880,0.00
maze512-1-1.map,maze512-1-1.map.scen,4,BFS,1.0,2979,True,1189.0000,1189.0,19797,21.0021,0.00
maze512-1-1.map,maze512-1-1.map.scen,4,BFS,1.0,2987,True,1195.0000,1195.0,31473,34.5323,0.00
maze512-1-1.map,maze512-1-1.map.scen,4,BFS,1.0,2995,True,1197.0000,1197.0,10136,10.6786,0.00
maze512-1-1.map,maze512-1-1.map.scen,4,BFS,1.0,3003,True,1200.0000,1200.0,16529,17.9070,0.00
maze512-1-1.map,maze512-1-1.map.scen,4,BFS,1.0,3011,True,1204.0000,1204.0,25106,27.8251,0.00
maze512-1-1.map,maze512-1-1.map.scen,4,BFS,1.0,3019,True,1205.0000,1205.0,50039,57.2146,0.00
maze512-1-1.map,maze512-1-1.map.scen,4,BFS,1.0,3027,True,1209.0000,1209.0,16173,17.6320,0.00
maze512-1-1.map,maze512-1-1.map.scen,4,BFS,1.0,3035,True,1213.0000,1213.0,67391,77.1755,0.00
maze512-1-1.map,maze512-1-1.map.scen,4,BFS,1.0,3043,True,1217.0000,1217.0,21503,25.0168,0.00
maze512-1-1.map,maze512-1-1.map.scen,4,BFS,1.0,3051,True,1222.0000,1222.0,37494,41.5839,0.00
maze512-1-1.map,maze512-1-1.map.scen,4,BFS,1.0,3059,True,1222.0000,1222.0,24408,28.3136,0.00
maze512-1-1.map,maze512-1-1.map.scen,4,BFS,1.0,3066,True,1226.0000,1226.0,24144,28.9520,0.00
maze512-1-1.map,maze512-1-1.map.scen,4,BFS,1.0,3074,True,1230.0000,1230.0,42114,51.2242,0.00
maze512-1-1.map,maze512-1-1.map.scen,4,BFS,1.0,3082,True,1234.0000,1234.0,38026,62.1480,0.00
maze512-1-1.map,maze512-1-1.map.scen,4,BFS,1.0,3090,True,1237.0000,1237.0,15282,17.1163,0.00
maze512-1-1.map,maze512-1-1.map.scen,4,BFS,1.0,3098,True,1238.0000,1238.0,11139,12.6527,0.00
maze512-1-1.map,maze512-1-1.map.scen,4,BFS,1.0,3106,True,1241.0000,1241.0,46499,56.8134,0.00
maze512-1-1.map,maze512-1-1.map.scen,4,BFS,1.0,3114,True,1244.0000,1244.0,9990,11.0522,0.00
maze512-1-1.map,maze512-1-1.map.scen,4,BFS,1.0,3122,True,1249.0000,1249.0,36151,40.4508,0.00
maze512-1-1.map,maze512-1-1.map.scen,4,BFS,1.0,3130,True,1252.0000,1252.0,39631,45.3862,0.00
maze512-1-1.map,maze512-1-1.map.scen,4,BFS,1.0,3138,True,1255.0000,1255.0,57491,64.8057,0.00
maze512-1-1.map,maze512-1-1.map.scen,4,BFS,1.0,3146,True,1257.0000,1257.0,6080,6.7309,0.00
maze512-1-1.map,maze512-1-1.map.scen,4,BFS,1.0,3154,True,1260.0000,1260.0,27243,30.0575,0.00
maze512-1-1.map,maze512-1-1.map.scen,4,BFS,1.0,3162,True,1265.0000,1265.0,40770,44.2797,0.00
maze512-1-1.map,maze512-1-1.map.scen,4,BFS,1.0,3170,True,1269.0000,1269.0,61176,69.1161,0.00
maze512-1-1.map,maze512-1-1.map.scen,4,BFS,1.0,3177,True,1269.0000,1269.0,18900,20.2088,0.00
maze512-1-1.map,maze512-1-1.map.scen,4,BFS,1.0,3185,True,1272.0000,1272.0,54720,62.3491,0.00
maze512-1-1.map,maze512-1-1.map.scen,4,BFS,1.0,3193,True,1278.0000,1278.0,50726,59.8919,0.00
maze512-1-1.map,maze512-1-1.map.scen,4,BFS,1.0,3201,True,1283.0000,1283.0,63497,71.1076,0.00
maze512-1-1.map,maze512-1-1.map.scen,4,BFS,1.0,3209,True,1281.0000,1281.0,26044,29.4695,0.00
maze512-1-1.map,maze512-1-1.map.scen,4,BFS,1.0,3217,True,1284.0000,1284.0,32346,34.9547,0.00
maze512-1-1.map,maze512-1-1.map.scen,4,BFS,1.0,3225,True,1291.0000,1291.0,49867,59.0212,0.00
maze512-1-1.map,maze512-1-1.map.scen,4,BFS,1.0,3233,True,1292.0000,1292.0,37107,40.7813,0.00
maze512-1-1.map,maze512-1-1.map.scen,4,BFS,1.0,3241,True,1296.0000,1296.0,53546,61.7667,0.00
maze512-1-1.map,maze512-1-1.map.scen,4,BFS,1.0,3249,True,1298.0000,1298.0,62153,73.9757,0.00
maze512-1-1.map,maze512-1-1.map.scen,4,BFS,1.0,3257,True,1302.0000,1302.0,13020,14.9966,0.00
maze512-1-1.map,maze512-1-1.map.scen,4,BFS,1.0,3265,True,1306.0000,1306.0,28067,31.3277,0.00
maze512-1-1.map,maze512-1-1.map.scen,4,BFS,1.0,3273,True,1309.0000,1309.0,10557,12.1903,0.00
maze512-1-1.map,maze512-1-1.map.scen,4,BFS,1.0,3280,True,1315.0000,1315.0,52725,59.9481,0.00
maze512-1-1.map,maze512-1-1.map.scen,4,BFS,1.0,3288,True,1313.0000,1313.0,7490,8.6470,0.00
maze512-1-1.map,maze512-1-1.map.scen,4,BFS,1.0,3296,True,1319.0000,1319.0,52998,61.8160,0.00
maze512-1-1.map,maze512-1-1.map.scen,4,BFS,1.0,3304,True,1321.0000,1321.0,26376,28.7142,0.00
maze512-1-1.map,maze512-1-1.map.scen,4,BFS,1.0,3312,True,1326.0000,1326.0,18447,19.7924,0.00
maze512-1-1.map,maze512-1-1.map.scen,4,BFS,1.0,3320,True,1329.0000,1329.0,70136,78.9838,0.00
maze512-1-1.map,maze512-1-1.map.scen,4,BFS,1.0,3328,True,1328.0000,1328.0,23971,26.7319,0.00
maze512-1-1.map,maze512-1-1.map.scen,4,BFS,1.0,3336,True,1334.0000,1334.0,72218,79.5165,0.00
maze512-1-1.map,maze512-1-1.map.scen,4,BFS,1.0,3344,True,1337.0000,1337.0,34475,38.2035,0.00
maze512-1-1.map,maze512-1-1.map.scen,4,BFS,1.0,3352,True,1342.0000,1342.0,32298,35.0429,0.00
maze512-1-1.map,maze512-1-1.map.scen,4,BFS,1.0,3360,True,1347.0000,1347.0,21944,24.8303,0.00
maze512-1-1.map,maze512-1-1.map.scen,4,BFS,1.0,3368,True,1346.0000,1346.0,43825,51.3890,0.00
maze512-1-1.map,maze512-1-1.map.scen,4,BFS,1.0,3376,True,1349.0000,1349.0,48301,56.0671,0.00
maze512-1-1.map,maze512-1-1.map.scen,4,BFS,1.0,3383,True,1352.0000,1352.0,46249,54.1796,0.00
maze512-1-1.map,maze512-1-1.map.scen,4,BFS,1.0,3391,True,1358.0000,1358.0,9872,10.6324,0.00
maze512-1-1.map,maze512-1-1.map.scen,4,BFS,1.0,3399,True,1356.0000,1356.0,41419,46.3251,0.00
maze512-1-1.map,maze512-1-1.map.scen,4,BFS,1.0,3407,True,1361.0000,1361.0,13590,15.1720,0.00
maze512-1-1.map,maze512-1-1.map.scen,4,BFS,1.0,3415,True,1367.0000,1367.0,19235,20.0315,0.00
maze512-1-1.map,maze512-1-1.map.scen,4,BFS,1.0,3423,True,1371.0000,1371.0,12630,13.8743,0.00
maze512-1-1.map,maze512-1-1.map.scen,4,BFS,1.0,3431,True,1372.0000,1372.0,71383,80.0512,0.00
maze512-1-1.map,maze512-1-1.map.scen,4,BFS,1.0,3439,True,1375.0000,1375.0,54156,61.6095,0.00
maze512-1-1.map,maze512-1-1.map.scen,4,BFS,1.0,3447,True,1379.0000,1379.0,23471,26.3948,0.00
maze512-1-1.map,maze512-1-1.map.scen,4,BFS,1.0,3455,True,1380.0000,1380.0,16905,17.7172,0.00
maze512-1-1.map,maze512-1-1.map.scen,4,BFS,1.0,3463,True,1384.0000,1384.0,73170,81.6372,0.00
maze512-1-1.map,maze512-1-1.map.scen,4,BFS,1.0,3471,True,1391.0000,1391.0,56420,64.2243,0.00
maze512-1-1.map,maze512-1-1.map.scen,4,BFS,1.0,3479,True,1390.0000,1390.0,65949,74.3097,0.00
maze512-1-1.map,maze512-1-1.map.scen,4,BFS,1.0,3487,True,1395.0000,1395.0,8691,9.5528,0.00
maze512-1-1.map,maze512-1-1.map.scen,4,BFS,1.0,3494,True,1399.0000,1399.0,46495,52.5374,0.00
maze512-1-1.map,maze512-1-1.map.scen,4,BFS,1.0,3502,True,1403.0000,1403.0,13773,16.6530,0.00
maze512-1-1.map,maze512-1-1.map.scen,4,BFS,1.0,3510,True,1405.0000,1405.0,43285,51.2806,0.00
maze512-1-1.map,maze512-1-1.map.scen,4,BFS,1.0,3518,True,1406.0000,1406.0,61067,72.4866,0.00
maze512-1-1.map,maze512-1-1.map.scen,4,BFS,1.0,3526,True,1410.0000,1410.0,47973,54.5515,0.00
maze512-1-1.map,maze512-1-1.map.scen,4,BFS,1.0,3534,True,1415.0000,1415.0,58503,66.9321,0.00
maze512-1-1.map,maze512-1-1.map.scen,4,BFS,1.0,3542,True,1419.0000,1419.0,17914,19.8251,0.00
maze512-1-1.map,maze512-1-1.map.scen,4,BFS,1.0,3550,True,1423.0000,1423.0,47143,54.4623,0.00
maze512-1-1.map,maze512-1-1.map.scen,4,BFS,1.0,3558,True,1420.0000,1420.0,41578,47.0641,0.00
maze512-1-1.map,maze512-1-1.map.scen,4,BFS,1.0,3566,True,1424.0000,1424.0,49923,56.5505,0.00
maze512-1-1.map,maze512-1-1.map.scen,4,BFS,1.0,3574,True,1428.0000,1428.0,38124,43.1571,0.00
maze512-1-1.map,maze512-1-1.map.scen,4,BFS,1.0,3582,True,1433.0000,1433.0,35601,38.6918,0.00
maze512-1-1.map,maze512-1-1.map.scen,4,BFS,1.0,3590,True,1436.0000,1436.0,21015,23.5247,0.00
maze512-1-1.map,maze512-1-1.map.scen,4,BFS,1.0,3597,True,1437.0000,1437.0,56483,64.7338,0.00
maze512-1-1.map,maze512-1-1.map.scen,4,BFS,1.0,3605,True,1442.0000,1442.0,35512,39.0533,0.00
maze512-1-1.map,maze512-1-1.map.scen,4,BFS,1.0,3613,True,1447.0000,1447.0,14420,17.1723,0.00
maze512-1-1.map,maze512-1-1.map.scen,4,BFS,1.0,3621,True,1451.0000,1451.0,20981,23.0104,0.00
maze512-1-1.map,maze512-1-1.map.scen,4,BFS,1.0,3629,True,1451.0000,1451.0,40929,45.9765,0.00
maze512-1-1.map,maze512-1-1.map.scen,4,BFS,1.0,3637,True,1454.0000,1454.0,21031,25.4316,0.00
maze512-1-1.map,maze512-1-1.map.scen,4,BFS,1.0,3645,True,1456.0000,1456.0,62197,70.3615,0.00
maze512-1-1.map,maze512-1-1.map.scen,4,BFS,1.0,3653,True,1461.0000,1461.0,60025,67.6090,0.00
maze512-1-1.map,maze512-1-1.map.scen,4,BFS,1.0,3661,True,1466.0000,1466.0,42600,51.0374,0.00
maze512-1-1.map,maze512-1-1.map.scen,4,BFS,1.0,3669,True,1464.0000,1464.0,49979,55.9822,0.00
maze512-1-1.map,maze512-1-1.map.scen,4,BFS,1.0,3677,True,1469.0000,1469.0,19253,21.4774,0.00
maze512-1-1.map,maze512-1-1.map.scen,4,BFS,1.0,3685,True,1473.0000,1473.0,33226,36.5575,0.00
maze512-1-1.map,maze512-1-1.map.scen,4,BFS,1.0,3693,True,1476.0000,1476.0,56169,66.4283,0.00
maze512-1-1.map,maze512-1-1.map.scen,4,BFS,1.0,3700,True,1481.0000,1481.0,20327,21.5760,0.00
maze512-1-1.map,maze512-1-1.map.scen,4,BFS,1.0,3708,True,1481.0000,1481.0,47425,53.8660,0.00
maze512-1-1.map,maze512-1-1.map.scen,4,BFS,1.0,3716,True,1486.0000,1486.0,54886,61.7188,0.00
maze512-1-1.map,maze512-1-1.map.scen,4,BFS,1.0,3724,True,1491.0000,1491.0,56314,64.9119,0.00
maze512-1-1.map,maze512-1-1.map.scen,4,BFS,1.0,3732,True,1492.0000,1492.0,24957,27.5175,0.00
maze512-1-1.map,maze512-1-1.map.scen,4,BFS,1.0,3740,True,1499.0000,1499.0,24213,26.2666,0.00
maze512-1-1.map,maze512-1-1.map.scen,4,BFS,1.0,3748,True,1496.0000,1496.0,50769,59.8066,0.00
maze512-1-1.map,maze512-1-1.map.scen,4,BFS,1.0,3756,True,1501.0000,1501.0,27530,30.3922,0.00
maze512-1-1.map,maze512-1-1.map.scen,4,BFS,1.0,3764,True,1504.0000,1504.0,11490,14.0521,0.00
maze512-1-1.map,maze512-1-1.map.scen,4,BFS,1.0,3772,True,1508.0000,1508.0,62729,72.5797,0.00
maze512-1-1.map,maze512-1-1.map.scen,4,BFS,1.0,3780,True,1515.0000,1515.0,32083,36.4491,0.00
maze512-1-1.map,maze512-1-1.map.scen,4,BFS,1.0,3788,True,1515.0000,1515.0,29996,33.4642,0.00
maze512-1-1.map,maze512-1-1.map.scen,4,BFS,1.0,3796,True,1516.0000,1516.0,50827,59.8133,0.00
maze512-1-1.map,maze512-1-1.map.scen,4,BFS,1.0,3804,True,1520.0000,1520.0,56389,63.1878,0.00
maze512-1-1.map,maze512-1-1.map.scen,4,BFS,1.0,3811,True,1525.0000,1525.0,21088,25.3755,0.00
maze512-1-1.map,maze512-1-1.map.scen,4,BFS,1.0,3819,True,1526.0000,1526.0,55745,62.6415,0.00
maze512-1-1.map,maze512-1-1.map.scen,4,BFS,1.0,3827,True,1529.0000,1529.0,61433,71.5073,0.00
maze512-1-1.map,maze512-1-1.map.scen,4,BFS,1.0,3835,True,1533.0000,1533.0,37879,43.5444,0.00
maze512-1-1.map,maze512-1-1.map.scen,4,BFS,1.0,3843,True,1537.0000,1537.0,39006,42.3916,0.00
maze512-1-1.map,maze512-1-1.map.scen,4,BFS,1.0,3851,True,1540.0000,1540.0,44012,54.1540,0.00
maze512-1-1.map,maze512-1-1.map.scen,4,BFS,1.0,3859,True,1542.0000,1542.0,49523,58.1075,0.00
maze512-1-1.map,maze512-1-1.map.scen,4,BFS,1.0,3867,True,1547.0000,1547.0,49966,58.8477,0.00
maze512-1-1.map,maze512-1-1.map.scen,4,BFS,1.0,3875,True,1550.0000,1550.0,63657,73.6116,0.00
maze512-1-1.map,maze512-1-1.map.scen,4,BFS,1.0,3883,True,1555.0000,1555.0,5998,6.7148,0.00
maze512-1-1.map,maze512-1-1.map.scen,4,BFS,1.0,3891,True,1556.0000,1556.0,62722,69.6987,0.00
maze512-1-1.map,maze512-1-1.map.scen,4,BFS,1.0,3899,True,1558.0000,1558.0,42254,48.7179,0.00
maze512-1-1.map,maze512-1-1.map.scen,4,BFS,1.0,3907,True,1563.0000,1563.0,39226,44.1215,0.00
maze512-1-1.map,maze512-1-1.map.scen,4,BFS,1.0,3914,True,1567.0000,1567.0,21771,24.8579,0.00
maze512-1-1.map,maze512-1-1.map.scen,4,BFS,1.0,3922,True,1569.0000,1569.0,59216,67.0984,0.00
maze512-1-1.map,maze512-1-1.map.scen,4,BFS,1.0,3930,True,1572.0000,1572.0,32080,35.0177,0.00
maze512-1-1.map,maze512-1-1.map.scen,4,BFS,1.0,3938,True,1572.0000,1572.0,22434,25.1675,0.00
maze512-1-1.map,maze512-1-1.map.scen,4,BFS,1.0,3946,True,1579.0000,1579.0,22700,25.6353,0.00
maze512-1-1.map,maze512-1-1.map.scen,4,BFS,1.0,3954,True,1583.0000,1583.0,52143,58.8445,0.00
maze512-1-1.map,maze512-1-1.map.scen,4,BFS,1.0,3962,True,1585.0000,1585.0,27243,29.9681,0.00
maze512-1-1.map,maze512-1-1.map.scen,4,BFS,1.0,3970,True,1589.0000,1589.0,41740,46.4618,0.00
maze512-1-1.map,maze512-1-1.map.scen,4,BFS,1.0,3978,True,1591.0000,1591.0,61555,70.4570,0.00
maze512-1-1.map,maze512-1-1.map.scen,4,BFS,1.0,3986,True,1595.0000,1595.0,70852,77.2606,0.00
maze512-1-1.map,maze512-1-1.map.scen,4,BFS,1.0,3994,True,1598.0000,1598.0,54924,61.3498,0.00
maze512-1-1.map,maze512-1-1.map.scen,4,BFS,1.0,4002,True,1603.0000,1603.0,63572,70.7786,0.00
maze512-1-1.map,maze512-1-1.map.scen,4,BFS,1.0,4010,True,1605.0000,1605.0,81397,90.9919,0.00
maze512-1-1.map,maze512-1-1.map.scen,4,BFS,1.0,4017,True,1605.0000,1605.0,43457,49.9062,0.00
maze512-1-1.map,maze512-1-1.map.scen,4,BFS,1.0,4025,True,1609.0000,1609.0,76287,82.5366,0.00
maze512-1-1.map,maze512-1-1.map.scen,4,BFS,1.0,4033,True,1614.0000,1614.0,16937,18.2059,0.00
maze512-1-1.map,maze512-1-1.map.scen,4,BFS,1.0,4041,True,1616.0000,1616.0,61618,67.8524,0.00
maze512-1-1.map,maze512-1-1.map.scen,4,BFS,1.0,4049,True,1616.0000,1616.0,61304,67.0647,0.00
maze512-1-1.map,maze512-1-1.map.scen,4,BFS,1.0,4057,True,1623.0000,1623.0,62988,69.7125,0.00
maze512-1-1.map,maze512-1-1.map.scen,4,BFS,1.0,4065,True,1626.0000,1626.0,34790,38.0479,0.00
maze512-1-1.map,maze512-1-1.map.scen,4,BFS,1.0,4073,True,1631.0000,1631.0,56244,62.5250,0.00
maze512-1-1.map,maze512-1-1.map.scen,4,BFS,1.0,4081,True,1634.0000,1634.0,31927,34.3054,0.00
maze512-1-1.map,maze512-1-1.map.scen,4,BFS,1.0,4089,True,1635.0000,1635.0,38974,42.7791,0.00
maze512-1-1.map,maze512-1-1.map.scen,4,BFS,1.0,4097,True,1639.0000,1639.0,37325,40.6980,0.00
maze512-1-1.map,maze512-1-1.map.scen,4,BFS,1.0,4105,True,1641.0000,1641.0,28672,31.0065,0.00
maze512-1-1.map,maze512-1-1.map.scen,4,BFS,1.0,4113,True,1647.0000,1647.0,52304,59.6023,0.00
maze512-1-1.map,maze512-1-1.map.scen,4,BFS,1.0,4121,True,1648.0000,1648.0,35728,40.7230,0.00
maze512-1-1.map,maze512-1-1.map.scen,4,BFS,1.0,4128,True,1651.0000,1651.0,34780,38.7505,0.00
maze512-1-1.map,maze512-1-1.map.scen,4,BFS,1.0,4136,True,1655.0000,1655.0,61432,69.1229,0.00
maze512-1-1.map,maze512-1-1.map.scen,4,BFS,1.0,4144,True,1659.0000,1659.0,11309,12.6055,0.00
maze512-1-1.map,maze512-1-1.map.scen,4,BFS,1.0,4152,True,1660.0000,1660.0,64512,71.8684,0.00
maze512-1-1.map,maze512-1-1.map.scen,4,BFS,1.0,4160,True,1667.0000,1667.0,80547,90.4323,0.00
maze512-1-1.map,maze512-1-1.map.scen,4,BFS,1.0,4168,True,1665.0000,1665.0,60636,66.5575,0.00
maze512-1-1.map,maze512-1-1.map.scen,4,BFS,1.0,4176,True,1671.0000,1671.0,75443,81.7708,0.00
maze512-1-1.map,maze512-1-1.map.scen,4,BFS,1.0,4184,True,1675.0000,1675.0,49442,55.7260,0.00
maze512-1-1.map,maze512-1-1.map.scen,4,BFS,1.0,4192,True,1676.0000,1676.0,78118,88.6094,0.00
maze512-1-1.map,maze512-1-1.map.scen,4,BFS,1.0,4200,True,1680.0000,1680.0,52083,58.9875,0.00
maze512-1-1.map,maze512-1-1.map.scen,4,BFS,1.0,4208,True,1681.0000,1681.0,66528,72.3920,0.00
maze512-1-1.map,maze512-1-1.map.scen,4,BFS,1.0,4216,True,1687.0000,1687.0,30716,33.6619,0.00
maze512-1-1.map,maze512-1-1.map.scen,4,BFS,1.0,4224,True,1690.0000,1690.0,39028,41.6927,0.00
maze512-1-1.map,maze512-1-1.map.scen,4,BFS,1.0,4231,True,1694.0000,1694.0,12105,13.7325,0.00
maze512-1-1.map,maze512-1-1.map.scen,4,BFS,1.0,4239,True,1695.0000,1695.0,21537,24.2094,0.00
maze512-1-1.map,maze512-1-1.map.scen,4,BFS,1.0,4247,True,1698.0000,1698.0,25374,27.9325,0.00
maze512-1-1.map,maze512-1-1.map.scen,4,BFS,1.0,4255,True,1701.0000,1701.0,79124,89.8779,0.00
maze512-1-1.map,maze512-1-1.map.scen,4,BFS,1.0,4263,True,1707.0000,1707.0,48081,54.9108,0.00
maze512-1-1.map,maze512-1-1.map.scen,4,BFS,1.0,4271,True,1710.0000,1710.0,78285,86.4958,0.00
maze512-1-1.map,maze512-1-1.map.scen,4,BFS,1.0,4279,True,1709.0000,1709.0,19262,21.2646,0.00
maze512-1-1.map,maze512-1-1.map.scen,4,BFS,1.0,4287,True,1714.0000,1714.0,56230,63.4261,0.00
maze512-1-1.map,maze512-1-1.map.scen,4,BFS,1.0,4295,True,1718.0000,1718.0,57110,64.1418,0.00
maze512-1-1.map,maze512-1-1.map.scen,4,BFS,1.0,4303,True,1722.0000,1722.0,66572,74.2941,0.00
maze512-1-1.map,maze512-1-1.map.scen,4,BFS,1.0,4311,True,1727.0000,1727.0,49218,56.8904,0.00
maze512-1-1.map,maze512-1-1.map.scen,4,BFS,1.0,4319,True,1724.0000,1724.0,72383,79.4723,0.00
maze512-1-1.map,maze512-1-1.map.scen,4,BFS,1.0,4327,True,1728.0000,1728.0,32051,35.2551,0.00
maze512-1-1.map,maze512-1-1.map.scen,4,BFS,1.0,4334,True,1735.0000,1735.0,42919,50.5321,0.00
maze512-1-1.map,maze512-1-1.map.scen,4,BFS,1.0,4342,True,1736.0000,1736.0,62887,70.7659,0.00
maze512-1-1.map,maze512-1-1.map.scen,4,BFS,1.0,4350,True,1743.0000,1743.0,32118,34.2877,0.00
maze512-1-1.map,maze512-1-1.map.scen,4,BFS,1.0,4358,True,1740.0000,1740.0,22128,25.2144,0.00
maze512-1-1.map,maze512-1-1.map.scen,4,BFS,1.0,4366,True,1745.0000,1745.0,52255,58.8909,0.00
maze512-1-1.map,maze512-1-1.map.scen,4,BFS,1.0,4374,True,1749.0000,1749.0,61583,68.9688,0.00
maze512-1-1.map,maze512-1-1.map.scen,4,BFS,1.0,4382,True,1753.0000,1753.0,36916,39.8547,0.00
maze512-1-1.map,maze512-1-1.map.scen,4,BFS,1.0,4390,True,1758.0000,1758.0,15990,16.9558,0.00
maze512-1-1.map,maze512-1-1.map.scen,4,BFS,1.0,4398,True,1756.0000,1756.0,51967,57.7150,0.00
maze512-1-1.map,maze512-1-1.map.scen,4,BFS,1.0,4406,True,1763.0000,1763.0,43197,50.4558,0.00
maze512-1-1.map,maze512-1-1.map.scen,4,BFS,1.0,4414,True,1764.0000,1764.0,18263,20.0436,0.00
maze512-1-1.map,maze512-1-1.map.scen,4,BFS,1.0,4422,True,1770.0000,1770.0,71991,81.3823,0.00
maze512-1-1.map,maze512-1-1.map.scen,4,BFS,1.0,4430,True,1773.0000,1773.0,70235,78.2877,0.00
maze512-1-1.map,maze512-1-1.map.scen,4,BFS,1.0,4438,True,1773.0000,1773.0,49482,55.0107,0.00
maze512-1-1.map,maze512-1-1.map.scen,4,BFS,1.0,4445,True,1777.0000,1777.0,43841,50.4431,0.00
maze512-1-1.map,maze512-1-1.map.scen,4,BFS,1.0,4453,True,1781.0000,1781.0,82738,97.7962,0.00
maze512-1-1.map,maze512-1-1.map.scen,4,BFS,1.0,4461,True,1784.0000,1784.0,74668,83.6670,0.00
maze512-1-1.map,maze512-1-1.map.scen,4,BFS,1.0,4469,True,1784.0000,1784.0,31636,35.2869,0.00
maze512-1-1.map,maze512-1-1.map.scen,4,BFS,1.0,4477,True,1790.0000,1790.0,38501,43.7243,0.00
maze512-1-1.map,maze512-1-1.map.scen,4,BFS,1.0,4485,True,1795.0000,1795.0,23608,25.7623,0.00
maze512-1-1.map,maze512-1-1.map.scen,4,BFS,1.0,4493,True,1798.0000,1798.0,66026,74.1215,0.00
maze512-1-1.map,maze512-1-1.map.scen,4,BFS,1.0,4501,True,1801.0000,1801.0,20758,23.4588,0.00
maze512-1-1.map,maze512-1-1.map.scen,4,BFS,1.0,4509,True,1802.0000,1802.0,36580,40.4756,0.00
maze512-1-1.map,maze512-1-1.map.scen,4,BFS,1.0,4517,True,1807.0000,1807.0,66174,74.6293,0.00
maze512-1-1.map,maze512-1-1.map.scen,4,BFS,1.0,4525,True,1811.0000,1811.0,34902,38.0130,0.00
maze512-1-1.map,maze512-1-1.map.scen,4,BFS,1.0,4533,True,1813.0000,1813.0,43194,50.1259,0.00
maze512-1-1.map,maze512-1-1.map.scen,4,BFS,1.0,4541,True,1819.0000,1819.0,54058,61.9104,0.00
maze512-1-1.map,maze512-1-1.map.scen,4,BFS,1.0,4548,True,1816.0000,1816.0,33910,38.1023,0.00
maze512-1-1.map,maze512-1-1.map.scen,4,BFS,1.0,4556,True,1823.0000,1823.0,75993,85.5899,0.00
maze512-1-1.map,maze512-1-1.map.scen,4,BFS,1.0,4564,True,1827.0000,1827.0,39677,45.3199,0.00
maze512-1-1.map,maze512-1-1.map.scen,4,BFS,1.0,4572,True,1829.0000,1829.0,23557,25.8996,0.00
maze512-1-1.map,maze512-1-1.map.scen,4,BFS,1.0,4580,True,1835.0000,1835.0,25529,27.5956,0.00
maze512-1-1.map,maze512-1-1.map.scen,4,BFS,1.0,4588,True,1834.0000,1834.0,64525,73.6769,0.00
maze512-1-1.map,maze512-1-1.map.scen,4,BFS,1.0,4596,True,1839.0000,1839.0,51278,60.4512,0.00
maze512-1-1.map,maze512-1-1.map.scen,4,BFS,1.0,4604,True,1843.0000,1843.0,60318,66.0522,0.00
maze512-1-1.map,maze512-1-1.map.scen,4,BFS,1.0,4612,True,1847.0000,1847.0,17361,18.7268,0.00
maze512-1-1.map,maze512-1-1.map.scen,4,BFS,1.0,4620,True,1850.0000,1850.0,11902,13.3786,0.00
maze512-1-1.map,maze512-1-1.map.scen,4,BFS,1.0,4628,True,1849.0000,1849.0,61396,70.9962,0.00
maze512-1-1.map,maze512-1-1.map.scen,4,BFS,1.0,4636,True,1854.0000,1854.0,83089,92.3461,0.00
maze512-1-1.map,maze512-1-1.map.scen,4,BFS,1.0,4644,True,1859.0000,1859.0,83255,92.5870,0.00
maze512-1-1.map,maze512-1-1.map.scen,4,BFS,1.0,4651,True,1861.0000,1861.0,20189,21.8595,0.00
maze512-1-1.map,maze512-1-1.map.scen,4,BFS,1.0,4659,True,1860.0000,1860.0,19472,20.8939,0.00
maze512-1-1.map,maze512-1-1.map.scen,4,BFS,1.0,4667,True,1866.0000,1866.0,10279,11.5508,0.00
maze512-1-1.map,maze512-1-1.map.scen,4,BFS,1.0,4675,True,1868.0000,1868.0,42135,48.3987,0.00
maze512-1-1.map,maze512-1-1.map.scen,4,BFS,1.0,4683,True,1873.0000,1873.0,66362,77.0942,0.00
maze512-1-1.map,maze512-1-1.map.scen,4,BFS,1.0,4691,True,1879.0000,1879.0,75789,83.9349,0.00
maze512-1-1.map,maze512-1-1.map.scen,4,BFS,1.0,4699,True,1878.0000,1878.0,56277,63.1792,0.00
maze512-1-1.map,maze512-1-1.map.scen,4,BFS,1.0,4707,True,1882.0000,1882.0,51448,58.8578,0.00
maze512-1-1.map,maze512-1-1.map.scen,4,BFS,1.0,4715,True,1884.0000,1884.0,71930,80.6592,0.00
maze512-1-1.map,maze512-1-1.map.scen,4,BFS,1.0,4723,True,1889.0000,1889.0,32186,34.3750,0.00
maze512-1-1.map,maze512-1-1.map.scen,4,BFS,1.0,4731,True,1894.0000,1894.0,47791,55.9797,0.00
maze512-1-1.map,maze512-1-1.map.scen,4,BFS,1.0,4739,True,1894.0000,1894.0,39299,44.0885,0.00
maze512-1-1.map,maze512-1-1.map.scen,4,BFS,1.0,4747,True,1897.0000,1897.0,54729,63.0071,0.00
maze512-1-1.map,maze512-1-1.map.scen,4,BFS,1.0,4755,True,1901.0000,1901.0,52992,60.3787,0.00
maze512-1-1.map,maze512-1-1.map.scen,4,BFS,1.0,4762,True,1905.0000,1905.0,24251,26.2840,0.00
maze512-1-1.map,maze512-1-1.map.scen,4,BFS,1.0,4770,True,1908.0000,1908.0,39337,43.1635,0.00
maze512-1-1.map,maze512-1-1.map.scen,4,BFS,1.0,4778,True,1908.0000,1908.0,68442,78.4099,0.00
maze512-1-1.map,maze512-1-1.map.scen,4,BFS,1.0,4786,True,1912.0000,1912.0,57167,65.2291,0.00
maze512-1-1.map,maze512-1-1.map.scen,4,BFS,1.0,4794,True,1919.0000,1919.0,70372,79.3638,0.00
maze512-1-1.map,maze512-1-1.map.scen,4,BFS,1.0,4802,True,1923.0000,1923.0,43652,50.1917,0.00
maze512-1-1.map,maze512-1-1.map.scen,4,BFS,1.0,4810,True,1926.0000,1926.0,45859,53.1758,0.00
maze512-1-1.map,maze512-1-1.map.scen,4,BFS,1.0,4818,True,1925.0000,1925.0,79936,94.6602,0.00
maze512-1-1.map,maze512-1-1.map.scen,4,BFS,1.0,4826,True,1928.0000,1928.0,65366,74.7101,0.00
maze512-1-1.map,maze512-1-1.map.scen,4,BFS,1.0,4834,True,1935.0000,1935.0,43957,50.7661,0.00
maze512-1-1.map,maze512-1-1.map.scen,4,BFS,1.0,4842,True,1938.0000,1938.0,73112,81.2119,0.00
maze512-1-1.map,maze512-1-1.map.scen,4,BFS,1.0,4850,True,1941.0000,1941.0,66409,76.3133,0.00
maze512-1-1.map,maze512-1-1.map.scen,4,BFS,1.0,4858,True,1942.0000,1942.0,77519,85.8822,0.00
maze512-1-1.map,maze512-1-1.map.scen,4,BFS,1.0,4865,True,1947.0000,1947.0,17655,18.6640,0.00
maze512-1-1.map,maze512-1-1.map.scen,4,BFS,1.0,4873,True,1948.0000,1948.0,12856,14.7721,0.00
maze512-1-1.map,maze512-1-1.map.scen,4,BFS,1.0,4881,True,1953.0000,1953.0,64892,74.5346,0.00
maze512-1-1.map,maze512-1-1.map.scen,4,BFS,1.0,4889,True,1952.0000,1952.0,44666,52.0574,0.00
maze512-1-1.map,maze512-1-1.map.scen,4,BFS,1.0,4897,True,1958.0000,1958.0,74300,83.1238,0.00
maze512-1-1.map,maze512-1-1.map.scen,4,BFS,1.0,4905,True,1962.0000,1962.0,34781,37.7935,0.00
maze512-1-1.map,maze512-1-1.map.scen,4,BFS,1.0,4913,True,1966.0000,1966.0,52187,58.9381,0.00
maze512-1-1.map,maze512-1-1.map.scen,4,BFS,1.0,4921,True,1971.0000,1971.0,82654,94.0899,0.00
maze512-1-1.map,maze512-1-1.map.scen,4,BFS,1.0,4929,True,1968.0000,1968.0,80452,88.4800,0.00
maze512-1-1.map,maze512-1-1.map.scen,4,BFS,1.0,4937,True,1972.0000,1972.0,74778,81.1847,0.00
maze512-1-1.map,maze512-1-1.map.scen,4,BFS,1.0,4945,True,1978.0000,1978.0,41755,46.1333,0.00
maze512-1-1.map,maze512-1-1.map.scen,4,BFS,1.0,4953,True,1981.0000,1981.0,26057,28.5080,0.00
maze512-1-1.map,maze512-1-1.map.scen,4,BFS,1.0,4961,True,1986.0000,1986.0,47487,54.6789,0.00
maze512-1-1.map,maze512-1-1.map.scen,4,BFS,1.0,4968,True,1985.0000,1985.0,64402,75.8038,0.00
maze512-1-1.map,maze512-1-1.map.scen,4,BFS,1.0,4976,True,1991.0000,1991.0,42986,49.1528,0.00
maze512-1-1.map,maze512-1-1.map.scen,4,BFS,1.0,4984,True,1993.0000,1993.0,18246,19.8574,0.00
maze512-1-1.map,maze512-1-1.map.scen,4,BFS,1.0,4992,True,1996.0000,1996.0,67862,77.4337,0.00
maze512-1-1.map,maze512-1-1.map.scen,4,BFS,1.0,5000,True,2002.0000,2002.0,77813,85.9471,0.00
maze512-1-1.map,maze512-1-1.map.scen,4,BFS,1.0,5008,True,2000.0000,2000.0,83522,93.0890,0.00
maze512-1-1.map,maze512-1-1.map.scen,4,BFS,1.0,5016,True,2007.0000,2007.0,58860,65.5331,0.00
maze512-1-1.map,maze512-1-1.map.scen,4,BFS,1.0,5024,True,2009.0000,2009.0,85350,101.0506,0.00
maze512-1-1.map,maze512-1-1.map.scen,4,BFS,1.0,5032,True,2012.0000,2012.0,88717,107.8375,0.00
maze512-1-1.map,maze512-1-1.map.scen,4,BFS,1.0,5040,True,2019.0000,2019.0,79379,90.5744,0.00
maze512-1-1.map,maze512-1-1.map.scen,4,BFS,1.0,5048,True,2019.0000,2019.0,4867,5.6882,0.00
maze512-1-1.map,maze512-1-1.map.scen,4,BFS,1.0,5056,True,2023.0000,2023.0,27775,30.6543,0.00
maze512-1-1.map,maze512-1-1.map.scen,4,BFS,1.0,5064,True,2025.0000,2025.0,12085,13.7703,0.00
maze512-1-1.map,maze512-1-1.map.scen,4,BFS,1.0,5072,True,2031.0000,2031.0,88734,107.7940,0.00
maze512-1-1.map,maze512-1-1.map.scen,4,BFS,1.0,5079,True,2029.0000,2029.0,9750,10.6722,0.00
maze512-1-1.map,maze512-1-1.map.scen,4,BFS,1.0,5087,True,2033.0000,2033.0,41089,44.1869,0.00
maze512-1-1.map,maze512-1-1.map.scen,4,BFS,1.0,5095,True,2039.0000,2039.0,65495,73.9430,0.00
maze512-1-1.map,maze512-1-1.map.scen,4,BFS,1.0,5103,True,2042.0000,2042.0,73638,81.2629,0.00
maze512-1-1.map,maze512-1-1.map.scen,4,BFS,1.0,5111,True,2044.0000,2044.0,71647,79.1284,0.00
maze512-1-1.map,maze512-1-1.map.scen,4,BFS,1.0,5119,True,2046.0000,2046.0,19155,20.6832,0.00
maze512-1-1.map,maze512-1-1.map.scen,4,BFS,1.0,5127,True,2050.0000,2050.0,59049,65.1143,0.00
maze512-1-1.map,maze512-1-1.map.scen,4,BFS,1.0,5135,True,2054.0000,2054.0,82598,94.5838,0.00
maze512-1-1.map,maze512-1-1.map.scen,4,BFS,1.0,5143,True,2059.0000,2059.0,81057,88.8385,0.00
maze512-1-1.map,maze512-1-1.map.scen,4,BFS,1.0,5151,True,2060.0000,2060.0,87075,104.9321,0.00
maze512-1-1.map,maze512-1-1.map.scen,4,BFS,1.0,5159,True,2062.0000,2062.0,47881,55.8618,0.00
