MapName,Scenario,Connectivity,Algorithm,Weight,TaskID,Success,PathLength,OptimalLength,ExpandedNodes,TimeMS,Suboptimality
maze512-4-9.map,maze512-4-9.map.scen,4,BFS,1.0,0,True,3.0000,2.41421356,18,0.0313,24.26
maze512-4-9.map,maze512-4-9.map.scen,4,BFS,1.0,1,True,2.0000,1.41421356,8,0.0185,41.42
maze512-4-9.map,maze512-4-9.map.scen,4,BFS,1.0,2,True,1.0000,1.0,2,0.0046,0.00
maze512-4-9.map,maze512-4-9.map.scen,4,BFS,1.0,3,True,4.0000,3.41421356,22,0.0415,17.16
maze512-4-9.map,maze512-4-9.map.scen,4,BFS,1.0,4,True,3.0000,2.41421356,15,0.0220,24.26
maze512-4-9.map,maze512-4-9.map.scen,4,BFS,1.0,5,True,1.0000,1.0,2,0.0035,0.00
maze512-4-9.map,maze512-4-9.map.scen,4,BFS,1.0,6,True,1.0000,1.0,4,0.0067,0.00
maze512-4-9.map,maze512-4-9.map.scen,4,BFS,1.0,7,True,3.0000,2.41421356,15,0.0204,24.26
maze512-4-9.map,maze512-4-9.map.scen,4,BFS,1.0,8,True,2.0000,1.41421356,7,0.0120,41.42
maze512-4-9.map,maze512-4-9.map.scen,4,BFS,1.0,9,True,1.0000,1.0,3,0.0042,0.00
maze512-4-9.map,maze512-4-9.map.scen,4,Dijkstra,1.0,0,True,3.0000,2.41421356,16,0.0400,24.26
maze512-4-9.map,maze512-4-9.map.scen,4,Dijkstra,1.0,1,True,2.0000,1.41421356,6,0.0176,41.42
maze512-4-9.map,maze512-4-9.map.scen,4,Dijkstra,1.0,2,True,1.0000,1.0,2,0.0055,0.00
maze512-4-9.map,maze512-4-9.map.scen,4,Dijkstra,1.0,3,True,4.0000,3.41421356,26,0.0492,17.16
maze512-4-9.map,maze512-4-9.map.scen,4,Dijkstra,1.0,4,True,3.0000,2.41421356,16,0.0280,24.26
maze512-4-9.map,maze512-4-9.map.scen,4,Dijkstra,1.0,5,True,1.0000,1.0,2,0.0043,0.00
maze512-4-9.map,maze512-4-9.map.scen,4,Dijkstra,1.0,6,True,1.0000,1.0,4,0.0088,0.00
maze512-4-9.map,maze512-4-9.map.scen,4,Dijkstra,1.0,7,True,3.0000,2.41421356,13,0.0263,24.26
maze512-4-9.map,maze512-4-9.map.scen,4,Dijkstra,1.0,8,True,2.0000,1.41421356,9,0.0183,41.42
maze512-4-9.map,maze512-4-9.map.scen,4,Dijkstra,1.0,9,True,1.0000,1.0,3,0.0055,0.00
maze512-4-9.map,maze512-4-9.map.scen,4,A* (Manhattan),1.0,0,True,3.0000,2.41421356,6,0.0125,24.26
maze512-4-9.map,maze512-4-9.map.scen,4,A* (Manhattan),1.0,1,True,2.0000,1.41421356,4,0.0096,41.42
maze512-4-9.map,maze512-4-9.map.scen,4,A* (Manhattan),1.0,2,True,1.0000,1.0,2,0.0043,0.00
maze512-4-9.map,maze512-4-9.map.scen,4,A* (Manhattan),1.0,3,True,4.0000,3.41421356,8,0.0194,17.16
maze512-4-9.map,maze512-4-9.map.scen,4,A* (Manhattan),1.0,4,True,3.0000,2.41421356,6,0.0125,24.26
maze512-4-9.map,maze512-4-9.map.scen,4,A* (Manhattan),1.0,5,True,1.0000,1.0,2,0.0042,0.00
maze512-4-9.map,maze512-4-9.map.scen,4,A* (Manhattan),1.0,6,True,1.0000,1.0,2,0.0048,0.00
maze512-4-9.map,maze512-4-9.map.scen,4,A* (Manhattan),1.0,7,True,3.0000,2.41421356,5,0.0110,24.26
maze512-4-9.map,maze512-4-9.map.scen,4,A* (Manhattan),1.0,8,True,2.0000,1.41421356,4,0.0095,41.42
maze512-4-9.map,maze512-4-9.map.scen,4,A* (Manhattan),1.0,9,True,1.0000,1.0,2,0.0037,0.00
maze512-4-9.map,maze512-4-9.map.scen,4,A* (Euclid),1.0,0,True,3.0000,2.41421356,6,0.0126,24.26
maze512-4-9.map,maze512-4-9.map.scen,4,A* (Euclid),1.0,1,True,2.0000,1.41421356,4,0.0095,41.42
maze512-4-9.map,maze512-4-9.map.scen,4,A* (Euclid),1.0,2,True,1.0000,1.0,2,0.0045,0.00
maze512-4-9.map,maze512-4-9.map.scen,4,A* (Euclid),1.0,3,True,4.0000,3.41421356,8,0.0187,17.16
maze512-4-9.map,maze512-4-9.map.scen,4,A* (Euclid),1.0,4,True,3.0000,2.41421356,6,0.0119,24.26
maze512-4-9.map,maze512-4-9.map.scen,4,A* (Euclid),1.0,5,True,1.0000,1.0,2,0.0044,0.00
maze512-4-9.map,maze512-4-9.map.scen,4,A* (Euclid),1.0,6,True,1.0000,1.0,2,0.0044,0.00
maze512-4-9.map,maze512-4-9.map.scen,4,A* (Euclid),1.0,7,True,3.0000,2.41421356,5,0.0114,24.26
maze512-4-9.map,maze512-4-9.map.scen,4,A* (Euclid),1.0,8,True,2.0000,1.41421356,4,0.0097,41.42
maze512-4-9.map,maze512-4-9.map.scen,4,A* (Euclid),1.0,9,True,1.0000,1.0,2,0.0036,0.00
maze512-4-9.map,maze512-4-9.map.scen,4,A* (Octile),1.0,0,True,3.0000,2.41421356,6,0.0124,24.26
maze512-4-9.map,maze512-4-9.map.scen,4,A* (Octile),1.0,1,True,2.0000,1.41421356,4,0.0098,41.42
maze512-4-9.map,maze512-4-9.map.scen,4,A* (Octile),1.0,2,True,1.0000,1.0,2,0.0046,0.00
maze512-4-9.map,maze512-4-9.map.scen,4,A* (Octile),1.0,3,True,4.0000,3.41421356,8,0.0187,17.16
maze512-4-9.map,maze512-4-9.map.scen,4,A* (Octile),1.0,4,True,3.0000,2.41421356,6,0.0120,24.26
maze512-4-9.map,maze512-4-9.map.scen,4,A* (Octile),1.0,5,True,1.0000,1.0,2,0.0045,0.00
maze512-4-9.map,maze512-4-9.map.scen,4,A* (Octile),1.0,6,True,1.0000,1.0,2,0.0043,0.00
maze512-4-9.map,maze512-4-9.map.scen,4,A* (Octile),1.0,7,True,3.0000,2.41421356,5,0.0109,24.26
maze512-4-9.map,maze512-4-9.map.scen,4,A* (Octile),1.0,8,True,2.0000,1.41421356,4,0.0095,41.42
maze512-4-9.map,maze512-4-9.map.scen,4,A* (Octile),1.0,9,True,1.0000,1.0,2,0.0036,0.00
maze512-4-9.map,maze512-4-9.map.scen,4,WA* (x1.5),1.5,0,True,3.0000,2.41421356,4,0.0089,24.26
maze512-4-9.map,maze512-4-9.map.scen,4,WA* (x1.5),1.5,1,True,2.0000,1.41421356,3,0.0077,41.42
maze512-4-9.map,maze512-4-9.map.scen,4,WA* (x1.5),1.5,2,True,1.0000,1.0,2,0.0045,0.00
maze512-4-9.map,maze512-4-9.map.scen,4,WA* (x1.5),1.5,3,True,4.0000,3.41421356,5,0.0140,17.16
maze512-4-9.map,maze512-4-9.map.scen,4,WA* (x1.5),1.5,4,True,3.0000,2.41421356,4,0.0086,24.26
maze512-4-9.map,maze512-4-9.map.scen,4,WA* (x1.5),1.5,5,True,1.0000,1.0,2,0.0043,0.00
maze512-4-9.map,maze512-4-9.map.scen,4,WA* (x1.5),1.5,6,True,1.0000,1.0,2,0.0043,0.00
maze512-4-9.map,maze512-4-9.map.scen,4,WA* (x1.5),1.5,7,True,3.0000,2.41421356,4,0.0094,24.26
maze512-4-9.map,maze512-4-9.map.scen,4,WA* (x1.5),1.5,8,True,2.0000,1.41421356,3,0.0078,41.42
maze512-4-9.map,maze512-4-9.map.scen,4,WA* (x1.5),1.5,9,True,1.0000,1.0,2,0.0036,0.00
maze512-4-9.map,maze512-4-9.map.scen,4,WA* (x2.0),2.0,0,True,3.0000,2.41421356,4,0.0087,24.26
maze512-4-9.map,maze512-4-9.map.scen,4,WA* (x2.0),2.0,1,True,2.0000,1.41421356,3,0.0074,41.42
maze512-4-9.map,maze512-4-9.map.scen,4,WA* (x2.0),2.0,2,True,1.0000,1.0,2,0.0048,0.00
maze512-4-9.map,maze512-4-9.map.scen,4,WA* (x2.0),2.0,3,True,4.0000,3.41421356,5,0.0134,17.16
maze512-4-9.map,maze512-4-9.map.scen,4,WA* (x2.0),2.0,4,True,3.0000,2.41421356,4,0.0086,24.26
maze512-4-9.map,maze512-4-9.map.scen,4,WA* (x2.0),2.0,5,True,1.0000,1.0,2,0.0044,0.00
maze512-4-9.map,maze512-4-9.map.scen,4,WA* (x2.0),2.0,6,True,1.0000,1.0,2,0.0043,0.00
maze512-4-9.map,maze512-4-9.map.scen,4,WA* (x2.0),2.0,7,True,3.0000,2.41421356,4,0.0094,24.26
maze512-4-9.map,maze512-4-9.map.scen,4,WA* (x2.0),2.0,8,True,2.0000,1.41421356,3,0.0078,41.42
maze512-4-9.map,maze512-4-9.map.scen,4,WA* (x2.0),2.0,9,True,1.0000,1.0,2,0.0036,0.00
maze512-4-9.map,maze512-4-9.map.scen,8,BFS,1.0,0,True,2.0000,2.41421356,15,0.0281,-17.16
maze512-4-9.map,maze512-4-9.map.scen,8,BFS,1.0,1,True,1.0000,1.41421356,9,0.0165,-29.29
maze512-4-9.map,maze512-4-9.map.scen,8,BFS,1.0,2,True,1.0000,1.0,2,0.0043,0.00
maze512-4-9.map,maze512-4-9.map.scen,8,BFS,1.0,3,True,3.0000,3.41421356,22,0.0324,-12.13
maze512-4-9.map,maze512-4-9.map.scen,8,BFS,1.0,4,True,2.0000,2.41421356,13,0.0217,-17.16
maze512-4-9.map,maze512-4-9.map.scen,8,BFS,1.0,5,True,1.0000,1.0,2,0.0043,0.00
maze512-4-9.map,maze512-4-9.map.scen,8,BFS,1.0,6,True,1.0000,1.0,4,0.0097,0.00
maze512-4-9.map,maze512-4-9.map.scen,8,BFS,1.0,7,True,2.0000,2.41421356,23,0.0370,-17.16
maze512-4-9.map,maze512-4-9.map.scen,8,BFS,1.0,8,True,1.0000,1.41421356,6,0.0112,-29.29
maze512-4-9.map,maze512-4-9.map.scen,8,BFS,1.0,9,True,1.0000,1.0,3,0.0050,0.00
maze512-4-9.map,maze512-4-9.map.scen,8,Dijkstra,1.0,0,True,2.4142,2.41421356,12,0.0337,0.00
maze512-4-9.map,maze512-4-9.map.scen,8,Dijkstra,1.0,1,True,1.4142,1.41421356,7,0.0212,0.00
maze512-4-9.map,maze512-4-9.map.scen,8,Dijkstra,1.0,2,True,1.0000,1.0,2,0.0057,0.00
maze512-4-9.map,maze512-4-9.map.scen,8,Dijkstra,1.0,3,True,3.4142,3.41421356,25,0.0624,0.00
maze512-4-9.map,maze512-4-9.map.scen,8,Dijkstra,1.0,4,True,2.4142,2.41421356,10,0.0256,0.00
maze512-4-9.map,maze512-4-9.map.scen,8,Dijkstra,1.0,5,True,1.0000,1.0,2,0.0057,0.00
maze512-4-9.map,maze512-4-9.map.scen,8,Dijkstra,1.0,6,True,1.0000,1.0,3,0.0086,0.00
maze512-4-9.map,maze512-4-9.map.scen,8,Dijkstra,1.0,7,True,2.4142,2.41421356,14,0.0427,0.00
maze512-4-9.map,maze512-4-9.map.scen,8,Dijkstra,1.0,8,True,1.4142,1.41421356,9,0.0214,0.00
maze512-4-9.map,maze512-4-9.map.scen,8,Dijkstra,1.0,9,True,1.0000,1.0,3,0.0082,0.00
maze512-4-9.map,maze512-4-9.map.scen,8,A* (Manhattan),1.0,0,True,2.4142,2.41421356,3,0.0112,0.00
maze512-4-9.map,maze512-4-9.map.scen,8,A* (Manhattan),1.0,1,True,1.4142,1.41421356,2,0.0066,0.00
maze512-4-9.map,maze512-4-9.map.scen,8,A* (Manhattan),1.0,2,True,1.0000,1.0,2,0.0051,0.00
maze512-4-9.map,maze512-4-9.map.scen,8,A* (Manhattan),1.0,3,True,3.4142,3.41421356,4,0.0145,0.00
maze512-4-9.map,maze512-4-9.map.scen,8,A* (Manhattan),1.0,4,True,2.4142,2.41421356,3,0.0086,0.00
maze512-4-9.map,maze512-4-9.map.scen,8,A* (Manhattan),1.0,5,True,1.0000,1.0,2,0.0051,0.00
maze512-4-9.map,maze512-4-9.map.scen,8,A* (Manhattan),1.0,6,True,1.0000,1.0,2,0.0051,0.00
maze512-4-9.map,maze512-4-9.map.scen,8,A* (Manhattan),1.0,7,True,2.4142,2.41421356,3,0.0098,0.00
maze512-4-9.map,maze512-4-9.map.scen,8,A* (Manhattan),1.0,8,True,1.4142,1.41421356,2,0.0064,0.00
maze512-4-9.map,maze512-4-9.map.scen,8,A* (Manhattan),1.0,9,True,1.0000,1.0,2,0.0039,0.00
maze512-4-9.map,maze512-4-9.map.scen,8,A* (Euclid),1.0,0,True,2.4142,2.41421356,4,0.0100,0.00
maze512-4-9.map,maze512-4-9.map.scen,8,A* (Euclid),1.0,1,True,1.4142,1.41421356,2,0.0063,0.00
maze512-4-9.map,maze512-4-9.map.scen,8,A* (Euclid),1.0,2,True,1.0000,1.0,2,0.0050,0.00
maze512-4-9.map,maze512-4-9.map.scen,8,A* (Euclid),1.0,3,True,3.4142,3.41421356,6,0.0190,0.00
maze512-4-9.map,maze512-4-9.map.scen,8,A* (Euclid),1.0,4,True,2.4142,2.41421356,4,0.0099,0.00
maze512-4-9.map,maze512-4-9.map.scen,8,A* (Euclid),1.0,5,True,1.0000,1.0,2,0.0051,0.00
maze512-4-9.map,maze512-4-9.map.scen,8,A* (Euclid),1.0,6,True,1.0000,1.0,2,0.0050,0.00
maze512-4-9.map,maze512-4-9.map.scen,8,A* (Euclid),1.0,7,True,2.4142,2.41421356,4,0.0112,0.00
maze512-4-9.map,maze512-4-9.map.scen,8,A* (Euclid),1.0,8,True,1.4142,1.41421356,2,0.0062,0.00
maze512-4-9.map,maze512-4-9.map.scen,8,A* (Euclid),1.0,9,True,1.0000,1.0,2,0.0039,0.00
maze512-4-9.map,maze512-4-9.map.scen,8,A* (Octile),1.0,0,True,2.4142,2.41421356,4,0.0103,0.00
maze512-4-9.map,maze512-4-9.map.scen,8,A* (Octile),1.0,1,True,1.4142,1.41421356,2,0.0065,0.00
maze512-4-9.map,maze512-4-9.map.scen,8,A* (Octile),1.0,2,True,1.0000,1.0,2,0.0051,0.00
maze512-4-9.map,maze512-4-9.map.scen,8,A* (Octile),1.0,3,True,3.4142,3.41421356,6,0.0183,0.00
maze512-4-9.map,maze512-4-9.map.scen,8,A* (Octile),1.0,4,True,2.4142,2.41421356,4,0.0100,0.00
maze512-4-9.map,maze512-4-9.map.scen,8,A* (Octile),1.0,5,True,1.0000,1.0,2,0.0051,0.00
maze512-4-9.map,maze512-4-9.map.scen,8,A* (Octile),1.0,6,True,1.0000,1.0,2,0.0050,0.00
maze512-4-9.map,maze512-4-9.map.scen,8,A* (Octile),1.0,7,True,2.4142,2.41421356,4,0.0111,0.00
maze512-4-9.map,maze512-4-9.map.scen,8,A* (Octile),1.0,8,True,1.4142,1.41421356,2,0.0063,0.00
maze512-4-9.map,maze512-4-9.map.scen,8,A* (Octile),1.0,9,True,1.0000,1.0,2,0.0038,0.00
maze512-4-9.map,maze512-4-9.map.scen,8,WA* (x1.5),1.5,0,True,2.4142,2.41421356,3,0.0090,0.00
maze512-4-9.map,maze512-4-9.map.scen,8,WA* (x1.5),1.5,1,True,1.4142,1.41421356,2,0.0065,0.00
maze512-4-9.map,maze512-4-9.map.scen,8,WA* (x1.5),1.5,2,True,1.0000,1.0,2,0.0051,0.00
maze512-4-9.map,maze512-4-9.map.scen,8,WA* (x1.5),1.5,3,True,3.4142,3.41421356,4,0.0139,0.00
maze512-4-9.map,maze512-4-9.map.scen,8,WA* (x1.5),1.5,4,True,2.4142,2.41421356,3,0.0091,0.00
maze512-4-9.map,maze512-4-9.map.scen,8,WA* (x1.5),1.5,5,True,1.0000,1.0,2,0.0050,0.00
maze512-4-9.map,maze512-4-9.map.scen,8,WA* (x1.5),1.5,6,True,1.0000,1.0,2,0.0051,0.00
maze512-4-9.map,maze512-4-9.map.scen,8,WA* (x1.5),1.5,7,True,2.4142,2.41421356,3,0.0100,0.00
maze512-4-9.map,maze512-4-9.map.scen,8,WA* (x1.5),1.5,8,True,1.4142,1.41421356,2,0.0121,0.00
maze512-4-9.map,maze512-4-9.map.scen,8,WA* (x1.5),1.5,9,True,1.0000,1.0,2,0.0061,0.00
maze512-4-9.map,maze512-4-9.map.scen,8,WA* (x2.0),2.0,0,True,2.4142,2.41421356,3,0.0101,0.00
maze512-4-9.map,maze512-4-9.map.scen,8,WA* (x2.0),2.0,1,True,1.4142,1.41421356,2,0.0073,0.00
maze512-4-9.map,maze512-4-9.map.scen,8,WA* (x2.0),2.0,2,True,1.0000,1.0,2,0.0057,0.00
maze512-4-9.map,maze512-4-9.map.scen,8,WA* (x2.0),2.0,3,True,3.4142,3.41421356,4,0.0159,0.00
maze512-4-9.map,maze512-4-9.map.scen,8,WA* (x2.0),2.0,4,True,2.4142,2.41421356,3,0.0101,0.00
maze512-4-9.map,maze512-4-9.map.scen,8,WA* (x2.0),2.0,5,True,1.0000,1.0,2,0.0058,0.00
maze512-4-9.map,maze512-4-9.map.scen,8,WA* (x2.0),2.0,6,True,1.0000,1.0,2,0.0058,0.00
maze512-4-9.map,maze512-4-9.map.scen,8,WA* (x2.0),2.0,7,True,2.4142,2.41421356,3,0.0109,0.00
maze512-4-9.map,maze512-4-9.map.scen,8,WA* (x2.0),2.0,8,True,1.4142,1.41421356,2,0.0072,0.00
maze512-4-9.map,maze512-4-9.map.scen,8,WA* (x2.0),2.0,9,True,1.0000,1.0,2,0.0045,0.00
maze512-16-9.map,maze512-16-9.map.scen,4,BFS,1.0,0,True,3.0000,2.41421356,21,0.0380,24.26
maze512-16-9.map,maze512-16-9.map.scen,4,BFS,1.0,1,True,4.0000,2.82842712,30,0.0387,41.42
maze512-16-9.map,maze512-16-9.map.scen,4,BFS,1.0,2,True,3.0000,2.41421356,12,0.0235,24.26
maze512-16-9.map,maze512-16-9.map.scen,4,BFS,1.0,3,True,2.0000,2.0,11,0.0238,0.00
maze512-16-9.map,maze512-16-9.map.scen,4,BFS,1.0,4,True,3.0000,3.0,14,0.0199,0.00
maze512-16-9.map,maze512-16-9.map.scen,4,BFS,1.0,5,True,3.0000,3.0,25,0.0310,0.00
maze512-16-9.map,maze512-16-9.map.scen,4,BFS,1.0,6,True,4.0000,2.82842712,28,0.0335,41.42
maze512-16-9.map,maze512-16-9.map.scen,4,BFS,1.0,7,True,2.0000,1.41421356,10,0.0142,41.42
maze512-16-9.map,maze512-16-9.map.scen,4,BFS,1.0,8,True,3.0000,2.41421356,16,0.0215,24.26
maze512-16-9.map,maze512-16-9.map.scen,4,BFS,1.0,9,True,2.0000,1.41421356,12,0.0164,41.42
maze512-16-9.map,maze512-16-9.map.scen,4,Dijkstra,1.0,0,True,3.0000,2.41421356,23,0.0563,24.26
maze512-16-9.map,maze512-16-9.map.scen,4,Dijkstra,1.0,1,True,4.0000,2.82842712,34,0.0702,41.42
maze512-16-9.map,maze512-16-9.map.scen,4,Dijkstra,1.0,2,True,3.0000,2.41421356,12,0.0231,24.26
maze512-16-9.map,maze512-16-9.map.scen,4,Dijkstra,1.0,3,True,2.0000,2.0,7,0.0156,0.00
maze512-16-9.map,maze512-16-9.map.scen,4,Dijkstra,1.0,4,True,3.0000,3.0,17,0.0360,0.00
maze512-16-9.map,maze512-16-9.map.scen,4,Dijkstra,1.0,5,True,3.0000,3.0,15,0.0300,0.00
maze512-16-9.map,maze512-16-9.map.scen,4,Dijkstra,1.0,6,True,4.0000,2.82842712,26,0.0486,41.42
maze512-16-9.map,maze512-16-9.map.scen,4,Dijkstra,1.0,7,True,2.0000,1.41421356,10,0.0218,41.42
maze512-16-9.map,maze512-16-9.map.scen,4,Dijkstra,1.0,8,True,3.0000,2.41421356,25,0.0528,24.26
maze512-16-9.map,maze512-16-9.map.scen,4,Dijkstra,1.0,9,True,2.0000,1.41421356,12,0.0249,41.42
maze512-16-9.map,maze512-16-9.map.scen,4,A* (Manhattan),1.0,0,True,3.0000,2.41421356,6,0.0154,24.26
maze512-16-9.map,maze512-16-9.map.scen,4,A* (Manhattan),1.0,1,True,4.0000,2.82842712,9,0.0209,41.42
maze512-16-9.map,maze512-16-9.map.scen,4,A* (Manhattan),1.0,2,True,3.0000,2.41421356,6,0.0127,24.26
maze512-16-9.map,maze512-16-9.map.scen,4,A* (Manhattan),1.0,3,True,2.0000,2.0,3,0.0076,0.00
maze512-16-9.map,maze512-16-9.map.scen,4,A* (Manhattan),1.0,4,True,3.0000,3.0,4,0.0098,0.00
maze512-16-9.map,maze512-16-9.map.scen,4,A* (Manhattan),1.0,5,True,3.0000,3.0,4,0.0100,0.00
maze512-16-9.map,maze512-16-9.map.scen,4,A* (Manhattan),1.0,6,True,4.0000,2.82842712,9,0.0193,41.42
maze512-16-9.map,maze512-16-9.map.scen,4,A* (Manhattan),1.0,7,True,2.0000,1.41421356,4,0.0097,41.42
maze512-16-9.map,maze512-16-9.map.scen,4,A* (Manhattan),1.0,8,True,3.0000,2.41421356,6,0.0145,24.26
maze512-16-9.map,maze512-16-9.map.scen,4,A* (Manhattan),1.0,9,True,2.0000,1.41421356,4,0.0098,41.42
maze512-16-9.map,maze512-16-9.map.scen,4,A* (Euclid),1.0,0,True,3.0000,2.41421356,6,0.0150,24.26
maze512-16-9.map,maze512-16-9.map.scen,4,A* (Euclid),1.0,1,True,4.0000,2.82842712,9,0.0204,41.42
maze512-16-9.map,maze512-16-9.map.scen,4,A* (Euclid),1.0,2,True,3.0000,2.41421356,6,0.0126,24.26
maze512-16-9.map,maze512-16-9.map.scen,4,A* (Euclid),1.0,3,True,2.0000,2.0,3,0.0144,0.00
maze512-16-9.map,maze512-16-9.map.scen,4,A* (Euclid),1.0,4,True,3.0000,3.0,4,0.0101,0.00
maze512-16-9.map,maze512-16-9.map.scen,4,A* (Euclid),1.0,5,True,3.0000,3.0,4,0.0101,0.00
maze512-16-9.map,maze512-16-9.map.scen,4,A* (Euclid),1.0,6,True,4.0000,2.82842712,9,0.0198,41.42
maze512-16-9.map,maze512-16-9.map.scen,4,A* (Euclid),1.0,7,True,2.0000,1.41421356,4,0.0114,41.42
maze512-16-9.map,maze512-16-9.map.scen,4,A* (Euclid),1.0,8,True,3.0000,2.41421356,6,0.0149,24.26
maze512-16-9.map,maze512-16-9.map.scen,4,A* (Euclid),1.0,9,True,2.0000,1.41421356,4,0.0093,41.42
maze512-16-9.map,maze512-16-9.map.scen,4,A* (Octile),1.0,0,True,3.0000,2.41421356,6,0.0152,24.26
maze512-16-9.map,maze512-16-9.map.scen,4,A* (Octile),1.0,1,True,4.0000,2.82842712,9,0.0211,41.42
maze512-16-9.map,maze512-16-9.map.scen,4,A* (Octile),1.0,2,True,3.0000,2.41421356,6,0.0127,24.26
maze512-16-9.map,maze512-16-9.map.scen,4,A* (Octile),1.0,3,True,2.0000,2.0,3,0.0078,0.00
maze512-16-9.map,maze512-16-9.map.scen,4,A* (Octile),1.0,4,True,3.0000,3.0,4,0.0099,0.00
maze512-16-9.map,maze512-16-9.map.scen,4,A* (Octile),1.0,5,True,3.0000,3.0,4,0.0099,0.00
maze512-16-9.map,maze512-16-9.map.scen,4,A* (Octile),1.0,6,True,4.0000,2.82842712,9,0.0196,41.42
maze512-16-9.map,maze512-16-9.map.scen,4,A* (Octile),1.0,7,True,2.0000,1.41421356,4,0.0095,41.42
maze512-16-9.map,maze512-16-9.map.scen,4,A* (Octile),1.0,8,True,3.0000,2.41421356,6,0.0145,24.26
maze512-16-9.map,maze512-16-9.map.scen,4,A* (Octile),1.0,9,True,2.0000,1.41421356,4,0.0095,41.42
maze512-16-9.map,maze512-16-9.map.scen,4,WA* (x1.5),1.5,0,True,3.0000,2.41421356,4,0.0102,24.26
maze512-16-9.map,maze512-16-9.map.scen,4,WA* (x1.5),1.5,1,True,4.0000,2.82842712,5,0.0119,41.42
maze512-16-9.map,maze512-16-9.map.scen,4,WA* (x1.5),1.5,2,True,3.0000,2.41421356,4,0.0096,24.26
maze512-16-9.map,maze512-16-9.map.scen,4,WA* (x1.5),1.5,3,True,2.0000,2.0,3,0.0077,0.00
maze512-16-9.map,maze512-16-9.map.scen,4,WA* (x1.5),1.5,4,True,3.0000,3.0,4,0.0101,0.00
maze512-16-9.map,maze512-16-9.map.scen,4,WA* (x1.5),1.5,5,True,3.0000,3.0,4,0.0101,0.00
maze512-16-9.map,maze512-16-9.map.scen,4,WA* (x1.5),1.5,6,True,4.0000,2.82842712,5,0.0120,41.42
maze512-16-9.map,maze512-16-9.map.scen,4,WA* (x1.5),1.5,7,True,2.0000,1.41421356,3,0.0080,41.42
maze512-16-9.map,maze512-16-9.map.scen,4,WA* (x1.5),1.5,8,True,3.0000,2.41421356,4,0.0101,24.26
maze512-16-9.map,maze512-16-9.map.scen,4,WA* (x1.5),1.5,9,True,2.0000,1.41421356,3,0.0076,41.42
maze512-16-9.map,maze512-16-9.map.scen,4,WA* (x2.0),2.0,0,True,3.0000,2.41421356,4,0.0097,24.26
maze512-16-9.map,maze512-16-9.map.scen,4,WA* (x2.0),2.0,1,True,4.0000,2.82842712,5,0.0118,41.42
maze512-16-9.map,maze512-16-9.map.scen,4,WA* (x2.0),2.0,2,True,3.0000,2.41421356,4,0.0095,24.26
maze512-16-9.map,maze512-16-9.map.scen,4,WA* (x2.0),2.0,3,True,2.0000,2.0,3,0.0078,0.00
maze512-16-9.map,maze512-16-9.map.scen,4,WA* (x2.0),2.0,4,True,3.0000,3.0,4,0.0099,0.00
maze512-16-9.map,maze512-16-9.map.scen,4,WA* (x2.0),2.0,5,True,3.0000,3.0,4,0.0107,0.00
maze512-16-9.map,maze512-16-9.map.scen,4,WA* (x2.0),2.0,6,True,4.0000,2.82842712,5,0.0177,41.42
maze512-16-9.map,maze512-16-9.map.scen,4,WA* (x2.0),2.0,7,True,2.0000,1.41421356,3,0.0105,41.42
maze512-16-9.map,maze512-16-9.map.scen,4,WA* (x2.0),2.0,8,True,3.0000,2.41421356,4,0.0137,24.26
maze512-16-9.map,maze512-16-9.map.scen,4,WA* (x2.0),2.0,9,True,2.0000,1.41421356,3,0.0096,41.42
maze512-16-9.map,maze512-16-9.map.scen,8,BFS,1.0,0,True,2.0000,2.41421356,17,0.0526,-17.16
maze512-16-9.map,maze512-16-9.map.scen,8,BFS,1.0,1,True,2.0000,2.82842712,25,0.0671,-29.29
maze512-16-9.map,maze512-16-9.map.scen,8,BFS,1.0,2,True,2.0000,2.41421356,9,0.0229,-17.16
maze512-16-9.map,maze512-16-9.map.scen,8,BFS,1.0,3,True,2.0000,2.0,16,0.0447,0.00
maze512-16-9.map,maze512-16-9.map.scen,8,BFS,1.0,4,True,3.0000,3.0,26,0.0685,0.00
maze512-16-9.map,maze512-16-9.map.scen,8,BFS,1.0,5,True,3.0000,3.0,41,0.1119,0.00
maze512-16-9.map,maze512-16-9.map.scen,8,BFS,1.0,6,True,2.0000,2.82842712,22,0.0558,-29.29
maze512-16-9.map,maze512-16-9.map.scen,8,BFS,1.0,7,True,1.0000,1.41421356,7,0.0227,-29.29
maze512-16-9.map,maze512-16-9.map.scen,8,BFS,1.0,8,True,2.0000,2.41421356,12,0.0340,-17.16
maze512-16-9.map,maze512-16-9.map.scen,8,BFS,1.0,9,True,1.0000,1.41421356,8,0.0246,-29.29
maze512-16-9.map,maze512-16-9.map.scen,8,Dijkstra,1.0,0,True,2.4142,2.41421356,18,0.0920,0.00
maze512-16-9.map,maze512-16-9.map.scen,8,Dijkstra,1.0,1,True,2.8284,2.82842712,25,0.1160,0.00
maze512-16-9.map,maze512-16-9.map.scen,8,Dijkstra,1.0,2,True,2.4142,2.41421356,13,0.0532,0.00
maze512-16-9.map,maze512-16-9.map.scen,8,Dijkstra,1.0,3,True,2.0000,2.0,12,0.0592,0.00
maze512-16-9.map,maze512-16-9.map.scen,8,Dijkstra,1.0,4,True,3.0000,3.0,26,0.1189,0.00
maze512-16-9.map,maze512-16-9.map.scen,8,Dijkstra,1.0,5,True,3.0000,3.0,29,0.1345,0.00
maze512-16-9.map,maze512-16-9.map.scen,8,Dijkstra,1.0,6,True,2.8284,2.82842712,23,0.0995,0.00
maze512-16-9.map,maze512-16-9.map.scen,8,Dijkstra,1.0,7,True,1.4142,1.41421356,8,0.0378,0.00
maze512-16-9.map,maze512-16-9.map.scen,8,Dijkstra,1.0,8,True,2.4142,2.41421356,21,0.1141,0.00
maze512-16-9.map,maze512-16-9.map.scen,8,Dijkstra,1.0,9,True,1.4142,1.41421356,6,0.0298,0.00
maze512-16-9.map,maze512-16-9.map.scen,8,A* (Manhattan),1.0,0,True,2.4142,2.41421356,3,0.0200,0.00
maze512-16-9.map,maze512-16-9.map.scen,8,A* (Manhattan),1.0,1,True,2.8284,2.82842712,3,0.0199,0.00
maze512-16-9.map,maze512-16-9.map.scen,8,A* (Manhattan),1.0,2,True,2.4142,2.41421356,3,0.0152,0.00
maze512-16-9.map,maze512-16-9.map.scen,8,A* (Manhattan),1.0,3,True,2.0000,2.0,3,0.0177,0.00
maze512-16-9.map,maze512-16-9.map.scen,8,A* (Manhattan),1.0,4,True,3.0000,3.0,4,0.0244,0.00
maze512-16-9.map,maze512-16-9.map.scen,8,A* (Manhattan),1.0,5,True,3.0000,3.0,4,0.0238,0.00
maze512-16-9.map,maze512-16-9.map.scen,8,A* (Manhattan),1.0,6,True,2.8284,2.82842712,3,0.0203,0.00
maze512-16-9.map,maze512-16-9.map.scen,8,A* (Manhattan),1.0,7,True,1.4142,1.41421356,2,0.0111,0.00
maze512-16-9.map,maze512-16-9.map.scen,8,A* (Manhattan),1.0,8,True,2.4142,2.41421356,3,0.0203,0.00
maze512-16-9.map,maze512-16-9.map.scen,8,A* (Manhattan),1.0,9,True,1.4142,1.41421356,2,0.0108,0.00
maze512-16-9.map,maze512-16-9.map.scen,8,A* (Euclid),1.0,0,True,2.4142,2.41421356,4,0.0229,0.00
maze512-16-9.map,maze512-16-9.map.scen,8,A* (Euclid),1.0,1,True,2.8284,2.82842712,3,0.0188,0.00
maze512-16-9.map,maze512-16-9.map.scen,8,A* (Euclid),1.0,2,True,2.4142,2.41421356,4,0.0195,0.00
maze512-16-9.map,maze512-16-9.map.scen,8,A* (Euclid),1.0,3,True,2.0000,2.0,3,0.0174,0.00
maze512-16-9.map,maze512-16-9.map.scen,8,A* (Euclid),1.0,4,True,3.0000,3.0,4,0.0254,0.00
maze512-16-9.map,maze512-16-9.map.scen,8,A* (Euclid),1.0,5,True,3.0000,3.0,4,0.0241,0.00
maze512-16-9.map,maze512-16-9.map.scen,8,A* (Euclid),1.0,6,True,2.8284,2.82842712,3,0.0183,0.00
maze512-16-9.map,maze512-16-9.map.scen,8,A* (Euclid),1.0,7,True,1.4142,1.41421356,2,0.0160,0.00
maze512-16-9.map,maze512-16-9.map.scen,8,A* (Euclid),1.0,8,True,2.4142,2.41421356,4,0.0157,0.00
maze512-16-9.map,maze512-16-9.map.scen,8,A* (Euclid),1.0,9,True,1.4142,1.41421356,2,0.0078,0.00
maze512-16-9.map,maze512-16-9.map.scen,8,A* (Octile),1.0,0,True,2.4142,2.41421356,4,0.0152,0.00
maze512-16-9.map,maze512-16-9.map.scen,8,A* (Octile),1.0,1,True,2.8284,2.82842712,3,0.0125,0.00
maze512-16-9.map,maze512-16-9.map.scen,8,A* (Octile),1.0,2,True,2.4142,2.41421356,4,0.0123,0.00
maze512-16-9.map,maze512-16-9.map.scen,8,A* (Octile),1.0,3,True,2.0000,2.0,3,0.0107,0.00
maze512-16-9.map,maze512-16-9.map.scen,8,A* (Octile),1.0,4,True,3.0000,3.0,4,0.0198,0.00
maze512-16-9.map,maze512-16-9.map.scen,8,A* (Octile),1.0,5,True,3.0000,3.0,4,0.0159,0.00
maze512-16-9.map,maze512-16-9.map.scen,8,A* (Octile),1.0,6,True,2.8284,2.82842712,3,0.0163,0.00
maze512-16-9.map,maze512-16-9.map.scen,8,A* (Octile),1.0,7,True,1.4142,1.41421356,2,0.0074,0.00
maze512-16-9.map,maze512-16-9.map.scen,8,A* (Octile),1.0,8,True,2.4142,2.41421356,4,0.0154,0.00
maze512-16-9.map,maze512-16-9.map.scen,8,A* (Octile),1.0,9,True,1.4142,1.41421356,2,0.0073,0.00
maze512-16-9.map,maze512-16-9.map.scen,8,WA* (x1.5),1.5,0,True,2.4142,2.41421356,3,0.0129,0.00
maze512-16-9.map,maze512-16-9.map.scen,8,WA* (x1.5),1.5,1,True,2.8284,2.82842712,3,0.0128,0.00
maze512-16-9.map,maze512-16-9.map.scen,8,WA* (x1.5),1.5,2,True,2.4142,2.41421356,3,0.0100,0.00
maze512-16-9.map,maze512-16-9.map.scen,8,WA* (x1.5),1.5,3,True,2.0000,2.0,3,0.0126,0.00
maze512-16-9.map,maze512-16-9.map.scen,8,WA* (x1.5),1.5,4,True,3.0000,3.0,4,0.0160,0.00
maze512-16-9.map,maze512-16-9.map.scen,8,WA* (x1.5),1.5,5,True,3.0000,3.0,4,0.0154,0.00
maze512-16-9.map,maze512-16-9.map.scen,8,WA* (x1.5),1.5,6,True,2.8284,2.82842712,3,0.0130,0.00
maze512-16-9.map,maze512-16-9.map.scen,8,WA* (x1.5),1.5,7,True,1.4142,1.41421356,2,0.0073,0.00
maze512-16-9.map,maze512-16-9.map.scen,8,WA* (x1.5),1.5,8,True,2.4142,2.41421356,3,0.0126,0.00
maze512-16-9.map,maze512-16-9.map.scen,8,WA* (x1.5),1.5,9,True,1.4142,1.41421356,2,0.0075,0.00
maze512-16-9.map,maze512-16-9.map.scen,8,WA* (x2.0),2.0,0,True,2.4142,2.41421356,3,0.0129,0.00
maze512-16-9.map,maze512-16-9.map.scen,8,WA* (x2.0),2.0,1,True,2.8284,2.82842712,3,0.0129,0.00
maze512-16-9.map,maze512-16-9.map.scen,8,WA* (x2.0),2.0,2,True,2.4142,2.41421356,3,0.0101,0.00
maze512-16-9.map,maze512-16-9.map.scen,8,WA* (x2.0),2.0,3,True,2.0000,2.0,3,0.0112,0.00
maze512-16-9.map,maze512-16-9.map.scen,8,WA* (x2.0),2.0,4,True,3.0000,3.0,4,0.0157,0.00
maze512-16-9.map,maze512-16-9.map.scen,8,WA* (x2.0),2.0,5,True,3.0000,3.0,4,0.0155,0.00
maze512-16-9.map,maze512-16-9.map.scen,8,WA* (x2.0),2.0,6,True,2.8284,2.82842712,3,0.0116,0.00
maze512-16-9.map,maze512-16-9.map.scen,8,WA* (x2.0),2.0,7,True,1.4142,1.41421356,2,0.0065,0.00
maze512-16-9.map,maze512-16-9.map.scen,8,WA* (x2.0),2.0,8,True,2.4142,2.41421356,3,0.0110,0.00
maze512-16-9.map,maze512-16-9.map.scen,8,WA* (x2.0),2.0,9,True,1.4142,1.41421356,2,0.0066,0.00
maze512-1-6.map,maze512-1-6.map.scen,4,BFS,1.0,0,True,2.0000,2.0,5,0.0202,0.00
maze512-1-6.map,maze512-1-6.map.scen,4,BFS,1.0,1,True,3.0000,3.0,4,0.0078,0.00
maze512-1-6.map,maze512-1-6.map.scen,4,BFS,1.0,2,True,3.0000,3.0,7,0.0127,0.00
maze512-1-6.map,maze512-1-6.map.scen,4,BFS,1.0,3,True,3.0000,3.0,6,0.0095,0.00
maze512-1-6.map,maze512-1-6.map.scen,4,BFS,1.0,4,True,1.0000,1.0,2,0.0042,0.00
maze512-1-6.map,maze512-1-6.map.scen,4,BFS,1.0,5,True,3.0000,3.0,8,0.0122,0.00
maze512-1-6.map,maze512-1-6.map.scen,4,BFS,1.0,6,True,1.0000,1.0,3,0.0046,0.00
maze512-1-6.map,maze512-1-6.map.scen,4,BFS,1.0,7,True,2.0000,2.0,3,0.0037,0.00
maze512-1-6.map,maze512-1-6.map.scen,4,BFS,1.0,8,True,3.0000,3.0,7,0.0081,0.00
maze512-1-6.map,maze512-1-6.map.scen,4,BFS,1.0,9,True,2.0000,2.0,5,0.0055,0.00
maze512-1-6.map,maze512-1-6.map.scen,4,Dijkstra,1.0,0,True,2.0000,2.0,5,0.0087,0.00
maze512-1-6.map,maze512-1-6.map.scen,4,Dijkstra,1.0,1,True,3.0000,3.0,4,0.0053,0.00
maze512-1-6.map,maze512-1-6.map.scen,4,Dijkstra,1.0,2,True,3.0000,3.0,7,0.0101,0.00
maze512-1-6.map,maze512-1-6.map.scen,4,Dijkstra,1.0,3,True,3.0000,3.0,6,0.0084,0.00
maze512-1-6.map,maze512-1-6.map.scen,4,Dijkstra,1.0,4,True,1.0000,1.0,2,0.0034,0.00
maze512-1-6.map,maze512-1-6.map.scen,4,Dijkstra,1.0,5,True,3.0000,3.0,8,0.0104,0.00
maze512-1-6.map,maze512-1-6.map.scen,4,Dijkstra,1.0,6,True,1.0000,1.0,3,0.0045,0.00
maze512-1-6.map,maze512-1-6.map.scen,4,Dijkstra,1.0,7,True,2.0000,2.0,3,0.0040,0.00
maze512-1-6.map,maze512-1-6.map.scen,4,Dijkstra,1.0,8,True,3.0000,3.0,7,0.0105,0.00
maze512-1-6.map,maze512-1-6.map.scen,4,Dijkstra,1.0,9,True,2.0000,2.0,5,0.0070,0.00
maze512-1-6.map,maze512-1-6.map.scen,4,A* (Manhattan),1.0,0,True,2.0000,2.0,3,0.0059,0.00
maze512-1-6.map,maze512-1-6.map.scen,4,A* (Manhattan),1.0,1,True,3.0000,3.0,4,0.0053,0.00
maze512-1-6.map,maze512-1-6.map.scen,4,A* (Manhattan),1.0,2,True,3.0000,3.0,4,0.0071,0.00
maze512-1-6.map,maze512-1-6.map.scen,4,A* (Manhattan),1.0,3,True,3.0000,3.0,4,0.0062,0.00
maze512-1-6.map,maze512-1-6.map.scen,4,A* (Manhattan),1.0,4,True,1.0000,1.0,2,0.0035,0.00
maze512-1-6.map,maze512-1-6.map.scen,4,A* (Manhattan),1.0,5,True,3.0000,3.0,4,0.0076,0.00
maze512-1-6.map,maze512-1-6.map.scen,4,A* (Manhattan),1.0,6,True,1.0000,1.0,2,0.0035,0.00
maze512-1-6.map,maze512-1-6.map.scen,4,A* (Manhattan),1.0,7,True,2.0000,2.0,3,0.0062,0.00
maze512-1-6.map,maze512-1-6.map.scen,4,A* (Manhattan),1.0,8,True,3.0000,3.0,5,0.0081,0.00
maze512-1-6.map,maze512-1-6.map.scen,4,A* (Manhattan),1.0,9,True,2.0000,2.0,3,0.0060,0.00
maze512-1-6.map,maze512-1-6.map.scen,4,A* (Euclid),1.0,0,True,2.0000,2.0,3,0.0065,0.00
maze512-1-6.map,maze512-1-6.map.scen,4,A* (Euclid),1.0,1,True,3.0000,3.0,4,0.0052,0.00
maze512-1-6.map,maze512-1-6.map.scen,4,A* (Euclid),1.0,2,True,3.0000,3.0,4,0.0070,0.00
maze512-1-6.map,maze512-1-6.map.scen,4,A* (Euclid),1.0,3,True,3.0000,3.0,4,0.0061,0.00
maze512-1-6.map,maze512-1-6.map.scen,4,A* (Euclid),1.0,4,True,1.0000,1.0,2,0.0035,0.00
maze512-1-6.map,maze512-1-6.map.scen,4,A* (Euclid),1.0,5,True,3.0000,3.0,4,0.0079,0.00
maze512-1-6.map,maze512-1-6.map.scen,4,A* (Euclid),1.0,6,True,1.0000,1.0,2,0.0035,0.00
maze512-1-6.map,maze512-1-6.map.scen,4,A* (Euclid),1.0,7,True,2.0000,2.0,3,0.0042,0.00
maze512-1-6.map,maze512-1-6.map.scen,4,A* (Euclid),1.0,8,True,3.0000,3.0,5,0.0084,0.00
maze512-1-6.map,maze512-1-6.map.scen,4,A* (Euclid),1.0,9,True,2.0000,2.0,3,0.0049,0.00
maze512-1-6.map,maze512-1-6.map.scen,4,A* (Octile),1.0,0,True,2.0000,2.0,3,0.0059,0.00
maze512-1-6.map,maze512-1-6.map.scen,4,A* (Octile),1.0,1,True,3.0000,3.0,4,0.0057,0.00
maze512-1-6.map,maze512-1-6.map.scen,4,A* (Octile),1.0,2,True,3.0000,3.0,4,0.0070,0.00
maze512-1-6.map,maze512-1-6.map.scen,4,A* (Octile),1.0,3,True,3.0000,3.0,4,0.0064,0.00
maze512-1-6.map,maze512-1-6.map.scen,4,A* (Octile),1.0,4,True,1.0000,1.0,2,0.0034,0.00
maze512-1-6.map,maze512-1-6.map.scen,4,A* (Octile),1.0,5,True,3.0000,3.0,4,0.0077,0.00
maze512-1-6.map,maze512-1-6.map.scen,4,A* (Octile),1.0,6,True,1.0000,1.0,2,0.0034,0.00
maze512-1-6.map,maze512-1-6.map.scen,4,A* (Octile),1.0,7,True,2.0000,2.0,3,0.0040,0.00
maze512-1-6.map,maze512-1-6.map.scen,4,A* (Octile),1.0,8,True,3.0000,3.0,5,0.0081,0.00
maze512-1-6.map,maze512-1-6.map.scen,4,A* (Octile),1.0,9,True,2.0000,2.0,3,0.0050,0.00
maze512-1-6.map,maze512-1-6.map.scen,4,WA* (x1.5),1.5,0,True,2.0000,2.0,3,0.0057,0.00
maze512-1-6.map,maze512-1-6.map.scen,4,WA* (x1.5),1.5,1,True,3.0000,3.0,4,0.0053,0.00
maze512-1-6.map,maze512-1-6.map.scen,4,WA* (x1.5),1.5,2,True,3.0000,3.0,4,0.0072,0.00
maze512-1-6.map,maze512-1-6.map.scen,4,WA* (x1.5),1.5,3,True,3.0000,3.0,4,0.0062,0.00
maze512-1-6.map,maze512-1-6.map.scen,4,WA* (x1.5),1.5,4,True,1.0000,1.0,2,0.0035,0.00
maze512-1-6.map,maze512-1-6.map.scen,4,WA* (x1.5),1.5,5,True,3.0000,3.0,4,0.0078,0.00
maze512-1-6.map,maze512-1-6.map.scen,4,WA* (x1.5),1.5,6,True,1.0000,1.0,2,0.0036,0.00
maze512-1-6.map,maze512-1-6.map.scen,4,WA* (x1.5),1.5,7,True,2.0000,2.0,3,0.0040,0.00
maze512-1-6.map,maze512-1-6.map.scen,4,WA* (x1.5),1.5,8,True,3.0000,3.0,4,0.0069,0.00
maze512-1-6.map,maze512-1-6.map.scen,4,WA* (x1.5),1.5,9,True,2.0000,2.0,3,0.0051,0.00
maze512-1-6.map,maze512-1-6.map.scen,4,WA* (x2.0),2.0,0,True,2.0000,2.0,3,0.0058,0.00
maze512-1-6.map,maze512-1-6.map.scen,4,WA* (x2.0),2.0,1,True,3.0000,3.0,4,0.0051,0.00
maze512-1-6.map,maze512-1-6.map.scen,4,WA* (x2.0),2.0,2,True,3.0000,3.0,4,0.0072,0.00
maze512-1-6.map,maze512-1-6.map.scen,4,WA* (x2.0),2.0,3,True,3.0000,3.0,4,0.0063,0.00
maze512-1-6.map,maze512-1-6.map.scen,4,WA* (x2.0),2.0,4,True,1.0000,1.0,2,0.0035,0.00
maze512-1-6.map,maze512-1-6.map.scen,4,WA* (x2.0),2.0,5,True,3.0000,3.0,4,0.0077,0.00
maze512-1-6.map,maze512-1-6.map.scen,4,WA* (x2.0),2.0,6,True,1.0000,1.0,2,0.0035,0.00
maze512-1-6.map,maze512-1-6.map.scen,4,WA* (x2.0),2.0,7,True,2.0000,2.0,3,0.0044,0.00
maze512-1-6.map,maze512-1-6.map.scen,4,WA* (x2.0),2.0,8,True,3.0000,3.0,4,0.0069,0.00
maze512-1-6.map,maze512-1-6.map.scen,4,WA* (x2.0),2.0,9,True,2.0000,2.0,3,0.0050,0.00
maze512-1-6.map,maze512-1-6.map.scen,8,BFS,1.0,0,True,2.0000,2.0,5,0.0059,0.00
maze512-1-6.map,maze512-1-6.map.scen,8,BFS,1.0,1,True,3.0000,3.0,4,0.0043,0.00
maze512-1-6.map,maze512-1-6.map.scen,8,BFS,1.0,2,True,3.0000,3.0,7,0.0073,0.00
maze512-1-6.map,maze512-1-6.map.scen,8,BFS,1.0,3,True,3.0000,3.0,6,0.0065,0.00
maze512-1-6.map,maze512-1-6.map.scen,8,BFS,1.0,4,True,1.0000,1.0,2,0.0028,0.00
maze512-1-6.map,maze512-1-6.map.scen,8,BFS,1.0,5,True,3.0000,3.0,8,0.0081,0.00
maze512-1-6.map,maze512-1-6.map.scen,8,BFS,1.0,6,True,1.0000,1.0,3,0.0043,0.00
maze512-1-6.map,maze512-1-6.map.scen,8,BFS,1.0,7,True,2.0000,2.0,3,0.0046,0.00
maze512-1-6.map,maze512-1-6.map.scen,8,BFS,1.0,8,True,3.0000,3.0,7,0.0088,0.00
maze512-1-6.map,maze512-1-6.map.scen,8,BFS,1.0,9,True,2.0000,2.0,5,0.0055,0.00
maze512-1-6.map,maze512-1-6.map.scen,8,Dijkstra,1.0,0,True,2.0000,2.0,5,0.0080,0.00
maze512-1-6.map,maze512-1-6.map.scen,8,Dijkstra,1.0,1,True,3.0000,3.0,4,0.0052,0.00
maze512-1-6.map,maze512-1-6.map.scen,8,Dijkstra,1.0,2,True,3.0000,3.0,7,0.0104,0.00
maze512-1-6.map,maze512-1-6.map.scen,8,Dijkstra,1.0,3,True,3.0000,3.0,6,0.0085,0.00
maze512-1-6.map,maze512-1-6.map.scen,8,Dijkstra,1.0,4,True,1.0000,1.0,2,0.0035,0.00
maze512-1-6.map,maze512-1-6.map.scen,8,Dijkstra,1.0,5,True,3.0000,3.0,8,0.0108,0.00
maze512-1-6.map,maze512-1-6.map.scen,8,Dijkstra,1.0,6,True,1.0000,1.0,3,0.0048,0.00
maze512-1-6.map,maze512-1-6.map.scen,8,Dijkstra,1.0,7,True,2.0000,2.0,3,0.0039,0.00
maze512-1-6.map,maze512-1-6.map.scen,8,Dijkstra,1.0,8,True,3.0000,3.0,7,0.0107,0.00
maze512-1-6.map,maze512-1-6.map.scen,8,Dijkstra,1.0,9,True,2.0000,2.0,5,0.0071,0.00
maze512-1-6.map,maze512-1-6.map.scen,8,A* (Manhattan),1.0,0,True,2.0000,2.0,3,0.0060,0.00
maze512-1-6.map,maze512-1-6.map.scen,8,A* (Manhattan),1.0,1,True,3.0000,3.0,4,0.0053,0.00
maze512-1-6.map,maze512-1-6.map.scen,8,A* (Manhattan),1.0,2,True,3.0000,3.0,4,0.0070,0.00
maze512-1-6.map,maze512-1-6.map.scen,8,A* (Manhattan),1.0,3,True,3.0000,3.0,4,0.0063,0.00
maze512-1-6.map,maze512-1-6.map.scen,8,A* (Manhattan),1.0,4,True,1.0000,1.0,2,0.0036,0.00
maze512-1-6.map,maze512-1-6.map.scen,8,A* (Manhattan),1.0,5,True,3.0000,3.0,4,0.0079,0.00
maze512-1-6.map,maze512-1-6.map.scen,8,A* (Manhattan),1.0,6,True,1.0000,1.0,2,0.0044,0.00
maze512-1-6.map,maze512-1-6.map.scen,8,A* (Manhattan),1.0,7,True,2.0000,2.0,3,0.0057,0.00
maze512-1-6.map,maze512-1-6.map.scen,8,A* (Manhattan),1.0,8,True,3.0000,3.0,5,0.0082,0.00
maze512-1-6.map,maze512-1-6.map.scen,8,A* (Manhattan),1.0,9,True,2.0000,2.0,3,0.0050,0.00
maze512-1-6.map,maze512-1-6.map.scen,8,A* (Euclid),1.0,0,True,2.0000,2.0,3,0.0061,0.00
maze512-1-6.map,maze512-1-6.map.scen,8,A* (Euclid),1.0,1,True,3.0000,3.0,4,0.0053,0.00
maze512-1-6.map,maze512-1-6.map.scen,8,A* (Euclid),1.0,2,True,3.0000,3.0,4,0.0073,0.00
maze512-1-6.map,maze512-1-6.map.scen,8,A* (Euclid),1.0,3,True,3.0000,3.0,4,0.0062,0.00
maze512-1-6.map,maze512-1-6.map.scen,8,A* (Euclid),1.0,4,True,1.0000,1.0,2,0.0035,0.00
maze512-1-6.map,maze512-1-6.map.scen,8,A* (Euclid),1.0,5,True,3.0000,3.0,4,0.0152,0.00
maze512-1-6.map,maze512-1-6.map.scen,8,A* (Euclid),1.0,6,True,1.0000,1.0,2,0.0038,0.00
maze512-1-6.map,maze512-1-6.map.scen,8,A* (Euclid),1.0,7,True,2.0000,2.0,3,0.0041,0.00
maze512-1-6.map,maze512-1-6.map.scen,8,A* (Euclid),1.0,8,True,3.0000,3.0,5,0.0083,0.00
maze512-1-6.map,maze512-1-6.map.scen,8,A* (Euclid),1.0,9,True,2.0000,2.0,3,0.0076,0.00
maze512-1-6.map,maze512-1-6.map.scen,8,A* (Octile),1.0,0,True,2.0000,2.0,3,0.0083,0.00
maze512-1-6.map,maze512-1-6.map.scen,8,A* (Octile),1.0,1,True,3.0000,3.0,4,0.0058,0.00
maze512-1-6.map,maze512-1-6.map.scen,8,A* (Octile),1.0,2,True,3.0000,3.0,4,0.0071,0.00
maze512-1-6.map,maze512-1-6.map.scen,8,A* (Octile),1.0,3,True,3.0000,3.0,4,0.0064,0.00
maze512-1-6.map,maze512-1-6.map.scen,8,A* (Octile),1.0,4,True,1.0000,1.0,2,0.0036,0.00
maze512-1-6.map,maze512-1-6.map.scen,8,A* (Octile),1.0,5,True,3.0000,3.0,4,0.0077,0.00
maze512-1-6.map,maze512-1-6.map.scen,8,A* (Octile),1.0,6,True,1.0000,1.0,2,0.0036,0.00
maze512-1-6.map,maze512-1-6.map.scen,8,A* (Octile),1.0,7,True,2.0000,2.0,3,0.0042,0.00
maze512-1-6.map,maze512-1-6.map.scen,8,A* (Octile),1.0,8,True,3.0000,3.0,5,0.0083,0.00
maze512-1-6.map,maze512-1-6.map.scen,8,A* (Octile),1.0,9,True,2.0000,2.0,3,0.0050,0.00
maze512-1-6.map,maze512-1-6.map.scen,8,WA* (x1.5),1.5,0,True,2.0000,2.0,3,0.0058,0.00
maze512-1-6.map,maze512-1-6.map.scen,8,WA* (x1.5),1.5,1,True,3.0000,3.0,4,0.0054,0.00
maze512-1-6.map,maze512-1-6.map.scen,8,WA* (x1.5),1.5,2,True,3.0000,3.0,4,0.0071,0.00
maze512-1-6.map,maze512-1-6.map.scen,8,WA* (x1.5),1.5,3,True,3.0000,3.0,4,0.0063,0.00
maze512-1-6.map,maze512-1-6.map.scen,8,WA* (x1.5),1.5,4,True,1.0000,1.0,2,0.0036,0.00
maze512-1-6.map,maze512-1-6.map.scen,8,WA* (x1.5),1.5,5,True,3.0000,3.0,4,0.0079,0.00
maze512-1-6.map,maze512-1-6.map.scen,8,WA* (x1.5),1.5,6,True,1.0000,1.0,2,0.0035,0.00
maze512-1-6.map,maze512-1-6.map.scen,8,WA* (x1.5),1.5,7,True,2.0000,2.0,3,0.0041,0.00
maze512-1-6.map,maze512-1-6.map.scen,8,WA* (x1.5),1.5,8,True,3.0000,3.0,4,0.0070,0.00
maze512-1-6.map,maze512-1-6.map.scen,8,WA* (x1.5),1.5,9,True,2.0000,2.0,3,0.0051,0.00
maze512-1-6.map,maze512-1-6.map.scen,8,WA* (x2.0),2.0,0,True,2.0000,2.0,3,0.0058,0.00
maze512-1-6.map,maze512-1-6.map.scen,8,WA* (x2.0),2.0,1,True,3.0000,3.0,4,0.0054,0.00
maze512-1-6.map,maze512-1-6.map.scen,8,WA* (x2.0),2.0,2,True,3.0000,3.0,4,0.0073,0.00
maze512-1-6.map,maze512-1-6.map.scen,8,WA* (x2.0),2.0,3,True,3.0000,3.0,4,0.0064,0.00
maze512-1-6.map,maze512-1-6.map.scen,8,WA* (x2.0),2.0,4,True,1.0000,1.0,2,0.0035,0.00
maze512-1-6.map,maze512-1-6.map.scen,8,WA* (x2.0),2.0,5,True,3.0000,3.0,4,0.0075,0.00
maze512-1-6.map,maze512-1-6.map.scen,8,WA* (x2.0),2.0,6,True,1.0000,1.0,2,0.0036,0.00
maze512-1-6.map,maze512-1-6.map.scen,8,WA* (x2.0),2.0,7,True,2.0000,2.0,3,0.0041,0.00
maze512-1-6.map,maze512-1-6.map.scen,8,WA* (x2.0),2.0,8,True,3.0000,3.0,4,0.0071,0.00
maze512-1-6.map,maze512-1-6.map.scen,8,WA* (x2.0),2.0,9,True,2.0000,2.0,3,0.0049,0.00
maze512-1-0.map,maze512-1-0.map.scen,4,BFS,1.0,0,True,2.0000,2.0,4,0.0093,0.00
maze512-1-0.map,maze512-1-0.map.scen,4,BFS,1.0,1,True,2.0000,2.0,5,0.0065,0.00
maze512-1-0.map,maze512-1-0.map.scen,4,BFS,1.0,2,True,3.0000,3.0,7,0.0071,0.00
maze512-1-0.map,maze512-1-0.map.scen,4,BFS,1.0,3,True,2.0000,2.0,5,0.0060,0.00
maze512-1-0.map,maze512-1-0.map.scen,4,BFS,1.0,4,True,1.0000,1.0,3,0.0033,0.00
maze512-1-0.map,maze512-1-0.map.scen,4,BFS,1.0,5,True,2.0000,2.0,5,0.0059,0.00
maze512-1-0.map,maze512-1-0.map.scen,4,BFS,1.0,6,True,1.0000,1.0,3,0.0034,0.00
maze512-1-0.map,maze512-1-0.map.scen,4,BFS,1.0,7,True,3.0000,3.0,6,0.0059,0.00
maze512-1-0.map,maze512-1-0.map.scen,4,BFS,1.0,8,True,0.0000,0.0,1,0.0010,0.00
maze512-1-0.map,maze512-1-0.map.scen,4,BFS,1.0,9,True,1.0000,1.0,3,0.0039,0.00
maze512-1-0.map,maze512-1-0.map.scen,4,Dijkstra,1.0,0,True,2.0000,2.0,4,0.0055,0.00
maze512-1-0.map,maze512-1-0.map.scen,4,Dijkstra,1.0,1,True,2.0000,2.0,5,0.0068,0.00
maze512-1-0.map,maze512-1-0.map.scen,4,Dijkstra,1.0,2,True,3.0000,3.0,7,0.0091,0.00
maze512-1-0.map,maze512-1-0.map.scen,4,Dijkstra,1.0,3,True,2.0000,2.0,5,0.0075,0.00
maze512-1-0.map,maze512-1-0.map.scen,4,Dijkstra,1.0,4,True,1.0000,1.0,3,0.0046,0.00
maze512-1-0.map,maze512-1-0.map.scen,4,Dijkstra,1.0,5,True,2.0000,2.0,5,0.0080,0.00
maze512-1-0.map,maze512-1-0.map.scen,4,Dijkstra,1.0,6,True,1.0000,1.0,3,0.0046,0.00
maze512-1-0.map,maze512-1-0.map.scen,4,Dijkstra,1.0,7,True,3.0000,3.0,6,0.0086,0.00
maze512-1-0.map,maze512-1-0.map.scen,4,Dijkstra,1.0,8,True,0.0000,0.0,1,0.0013,0.00
maze512-1-0.map,maze512-1-0.map.scen,4,Dijkstra,1.0,9,True,1.0000,1.0,3,0.0055,0.00
maze512-1-0.map,maze512-1-0.map.scen,4,A* (Manhattan),1.0,0,True,2.0000,2.0,3,0.0049,0.00
maze512-1-0.map,maze512-1-0.map.scen,4,A* (Manhattan),1.0,1,True,2.0000,2.0,3,0.0064,0.00
maze512-1-0.map,maze512-1-0.map.scen,4,A* (Manhattan),1.0,2,True,3.0000,3.0,4,0.0063,0.00
maze512-1-0.map,maze512-1-0.map.scen,4,A* (Manhattan),1.0,3,True,2.0000,2.0,3,0.0051,0.00
maze512-1-0.map,maze512-1-0.map.scen,4,A* (Manhattan),1.0,4,True,1.0000,1.0,2,0.0034,0.00
maze512-1-0.map,maze512-1-0.map.scen,4,A* (Manhattan),1.0,5,True,2.0000,2.0,3,0.0058,0.00
maze512-1-0.map,maze512-1-0.map.scen,4,A* (Manhattan),1.0,6,True,1.0000,1.0,2,0.0035,0.00
maze512-1-0.map,maze512-1-0.map.scen,4,A* (Manhattan),1.0,7,True,3.0000,3.0,4,0.0063,0.00
maze512-1-0.map,maze512-1-0.map.scen,4,A* (Manhattan),1.0,8,True,0.0000,0.0,1,0.0013,0.00
maze512-1-0.map,maze512-1-0.map.scen,4,A* (Manhattan),1.0,9,True,1.0000,1.0,2,0.0034,0.00
maze512-1-0.map,maze512-1-0.map.scen,4,A* (Euclid),1.0,0,True,2.0000,2.0,3,0.0060,0.00
maze512-1-0.map,maze512-1-0.map.scen,4,A* (Euclid),1.0,1,True,2.0000,2.0,3,0.0068,0.00
maze512-1-0.map,maze512-1-0.map.scen,4,A* (Euclid),1.0,2,True,3.0000,3.0,4,0.0062,0.00
maze512-1-0.map,maze512-1-0.map.scen,4,A* (Euclid),1.0,3,True,2.0000,2.0,3,0.0048,0.00
maze512-1-0.map,maze512-1-0.map.scen,4,A* (Euclid),1.0,4,True,1.0000,1.0,2,0.0034,0.00
maze512-1-0.map,maze512-1-0.map.scen,4,A* (Euclid),1.0,5,True,2.0000,2.0,3,0.0057,0.00
maze512-1-0.map,maze512-1-0.map.scen,4,A* (Euclid),1.0,6,True,1.0000,1.0,2,0.0036,0.00
maze512-1-0.map,maze512-1-0.map.scen,4,A* (Euclid),1.0,7,True,3.0000,3.0,4,0.0060,0.00
maze512-1-0.map,maze512-1-0.map.scen,4,A* (Euclid),1.0,8,True,0.0000,0.0,1,0.0013,0.00
maze512-1-0.map,maze512-1-0.map.scen,4,A* (Euclid),1.0,9,True,1.0000,1.0,2,0.0034,0.00
maze512-1-0.map,maze512-1-0.map.scen,4,A* (Octile),1.0,0,True,2.0000,2.0,3,0.0051,0.00
maze512-1-0.map,maze512-1-0.map.scen,4,A* (Octile),1.0,1,True,2.0000,2.0,3,0.0064,0.00
maze512-1-0.map,maze512-1-0.map.scen,4,A* (Octile),1.0,2,True,3.0000,3.0,4,0.0065,0.00
maze512-1-0.map,maze512-1-0.map.scen,4,A* (Octile),1.0,3,True,2.0000,2.0,3,0.0043,0.00
maze512-1-0.map,maze512-1-0.map.scen,4,A* (Octile),1.0,4,True,1.0000,1.0,2,0.0031,0.00
maze512-1-0.map,maze512-1-0.map.scen,4,A* (Octile),1.0,5,True,2.0000,2.0,3,0.0049,0.00
maze512-1-0.map,maze512-1-0.map.scen,4,A* (Octile),1.0,6,True,1.0000,1.0,2,0.0031,0.00
maze512-1-0.map,maze512-1-0.map.scen,4,A* (Octile),1.0,7,True,3.0000,3.0,4,0.0054,0.00
maze512-1-0.map,maze512-1-0.map.scen,4,A* (Octile),1.0,8,True,0.0000,0.0,1,0.0011,0.00
maze512-1-0.map,maze512-1-0.map.scen,4,A* (Octile),1.0,9,True,1.0000,1.0,2,0.0031,0.00
maze512-1-0.map,maze512-1-0.map.scen,4,WA* (x1.5),1.5,0,True,2.0000,2.0,3,0.0044,0.00
maze512-1-0.map,maze512-1-0.map.scen,4,WA* (x1.5),1.5,1,True,2.0000,2.0,3,0.0056,0.00
maze512-1-0.map,maze512-1-0.map.scen,4,WA* (x1.5),1.5,2,True,3.0000,3.0,4,0.0055,0.00
maze512-1-0.map,maze512-1-0.map.scen,4,WA* (x1.5),1.5,3,True,2.0000,2.0,3,0.0044,0.00
maze512-1-0.map,maze512-1-0.map.scen,4,WA* (x1.5),1.5,4,True,1.0000,1.0,2,0.0032,0.00
maze512-1-0.map,maze512-1-0.map.scen,4,WA* (x1.5),1.5,5,True,2.0000,2.0,3,0.0051,0.00
maze512-1-0.map,maze512-1-0.map.scen,4,WA* (x1.5),1.5,6,True,1.0000,1.0,2,0.0032,0.00
maze512-1-0.map,maze512-1-0.map.scen,4,WA* (x1.5),1.5,7,True,3.0000,3.0,4,0.0056,0.00
maze512-1-0.map,maze512-1-0.map.scen,4,WA* (x1.5),1.5,8,True,0.0000,0.0,1,0.0011,0.00
maze512-1-0.map,maze512-1-0.map.scen,4,WA* (x1.5),1.5,9,True,1.0000,1.0,2,0.0031,0.00
maze512-1-0.map,maze512-1-0.map.scen,4,WA* (x2.0),2.0,0,True,2.0000,2.0,3,0.0043,0.00
maze512-1-0.map,maze512-1-0.map.scen,4,WA* (x2.0),2.0,1,True,2.0000,2.0,3,0.0058,0.00
maze512-1-0.map,maze512-1-0.map.scen,4,WA* (x2.0),2.0,2,True,3.0000,3.0,4,0.0054,0.00
maze512-1-0.map,maze512-1-0.map.scen,4,WA* (x2.0),2.0,3,True,2.0000,2.0,3,0.0043,0.00
maze512-1-0.map,maze512-1-0.map.scen,4,WA* (x2.0),2.0,4,True,1.0000,1.0,2,0.0031,0.00
maze512-1-0.map,maze512-1-0.map.scen,4,WA* (x2.0),2.0,5,True,2.0000,2.0,3,0.0050,0.00
maze512-1-0.map,maze512-1-0.map.scen,4,WA* (x2.0),2.0,6,True,1.0000,1.0,2,0.0032,0.00
maze512-1-0.map,maze512-1-0.map.scen,4,WA* (x2.0),2.0,7,True,3.0000,3.0,4,0.0055,0.00
maze512-1-0.map,maze512-1-0.map.scen,4,WA* (x2.0),2.0,8,True,0.0000,0.0,1,0.0011,0.00
maze512-1-0.map,maze512-1-0.map.scen,4,WA* (x2.0),2.0,9,True,1.0000,1.0,2,0.0031,0.00
maze512-1-0.map,maze512-1-0.map.scen,8,BFS,1.0,0,True,2.0000,2.0,4,0.0040,0.00
maze512-1-0.map,maze512-1-0.map.scen,8,BFS,1.0,1,True,2.0000,2.0,5,0.0054,0.00
maze512-1-0.map,maze512-1-0.map.scen,8,BFS,1.0,2,True,3.0000,3.0,7,0.0065,0.00
maze512-1-0.map,maze512-1-0.map.scen,8,BFS,1.0,3,True,2.0000,2.0,5,0.0053,0.00
maze512-1-0.map,maze512-1-0.map.scen,8,BFS,1.0,4,True,1.0000,1.0,3,0.0033,0.00
maze512-1-0.map,maze512-1-0.map.scen,8,BFS,1.0,5,True,2.0000,2.0,5,0.0052,0.00
maze512-1-0.map,maze512-1-0.map.scen,8,BFS,1.0,6,True,1.0000,1.0,3,0.0033,0.00
maze512-1-0.map,maze512-1-0.map.scen,8,BFS,1.0,7,True,3.0000,3.0,6,0.0059,0.00
maze512-1-0.map,maze512-1-0.map.scen,8,BFS,1.0,8,True,0.0000,0.0,1,0.0010,0.00
maze512-1-0.map,maze512-1-0.map.scen,8,BFS,1.0,9,True,1.0000,1.0,3,0.0038,0.00
maze512-1-0.map,maze512-1-0.map.scen,8,Dijkstra,1.0,0,True,2.0000,2.0,4,0.0050,0.00
maze512-1-0.map,maze512-1-0.map.scen,8,Dijkstra,1.0,1,True,2.0000,2.0,5,0.0070,0.00
maze512-1-0.map,maze512-1-0.map.scen,8,Dijkstra,1.0,2,True,3.0000,3.0,7,0.0082,0.00
maze512-1-0.map,maze512-1-0.map.scen,8,Dijkstra,1.0,3,True,2.0000,2.0,5,0.0070,0.00
maze512-1-0.map,maze512-1-0.map.scen,8,Dijkstra,1.0,4,True,1.0000,1.0,3,0.0043,0.00
maze512-1-0.map,maze512-1-0.map.scen,8,Dijkstra,1.0,5,True,2.0000,2.0,5,0.0071,0.00
maze512-1-0.map,maze512-1-0.map.scen,8,Dijkstra,1.0,6,True,1.0000,1.0,3,0.0041,0.00
maze512-1-0.map,maze512-1-0.map.scen,8,Dijkstra,1.0,7,True,3.0000,3.0,6,0.0099,0.00
maze512-1-0.map,maze512-1-0.map.scen,8,Dijkstra,1.0,8,True,0.0000,0.0,1,0.0013,0.00
maze512-1-0.map,maze512-1-0.map.scen,8,Dijkstra,1.0,9,True,1.0000,1.0,3,0.0061,0.00
maze512-1-0.map,maze512-1-0.map.scen,8,A* (Manhattan),1.0,0,True,2.0000,2.0,3,0.0044,0.00
maze512-1-0.map,maze512-1-0.map.scen,8,A* (Manhattan),1.0,1,True,2.0000,2.0,3,0.0057,0.00
maze512-1-0.map,maze512-1-0.map.scen,8,A* (Manhattan),1.0,2,True,3.0000,3.0,4,0.0056,0.00
maze512-1-0.map,maze512-1-0.map.scen,8,A* (Manhattan),1.0,3,True,2.0000,2.0,3,0.0045,0.00
maze512-1-0.map,maze512-1-0.map.scen,8,A* (Manhattan),1.0,4,True,1.0000,1.0,2,0.0031,0.00
maze512-1-0.map,maze512-1-0.map.scen,8,A* (Manhattan),1.0,5,True,2.0000,2.0,3,0.0051,0.00
maze512-1-0.map,maze512-1-0.map.scen,8,A* (Manhattan),1.0,6,True,1.0000,1.0,2,0.0031,0.00
maze512-1-0.map,maze512-1-0.map.scen,8,A* (Manhattan),1.0,7,True,3.0000,3.0,4,0.0055,0.00
maze512-1-0.map,maze512-1-0.map.scen,8,A* (Manhattan),1.0,8,True,0.0000,0.0,1,0.0011,0.00
maze512-1-0.map,maze512-1-0.map.scen,8,A* (Manhattan),1.0,9,True,1.0000,1.0,2,0.0031,0.00
maze512-1-0.map,maze512-1-0.map.scen,8,A* (Euclid),1.0,0,True,2.0000,2.0,3,0.0043,0.00
maze512-1-0.map,maze512-1-0.map.scen,8,A* (Euclid),1.0,1,True,2.0000,2.0,3,0.0056,0.00
maze512-1-0.map,maze512-1-0.map.scen,8,A* (Euclid),1.0,2,True,3.0000,3.0,4,0.0055,0.00
maze512-1-0.map,maze512-1-0.map.scen,8,A* (Euclid),1.0,3,True,2.0000,2.0,3,0.0044,0.00
maze512-1-0.map,maze512-1-0.map.scen,8,A* (Euclid),1.0,4,True,1.0000,1.0,2,0.0031,0.00
maze512-1-0.map,maze512-1-0.map.scen,8,A* (Euclid),1.0,5,True,2.0000,2.0,3,0.0050,0.00
maze512-1-0.map,maze512-1-0.map.scen,8,A* (Euclid),1.0,6,True,1.0000,1.0,2,0.0031,0.00
maze512-1-0.map,maze512-1-0.map.scen,8,A* (Euclid),1.0,7,True,3.0000,3.0,4,0.0056,0.00
maze512-1-0.map,maze512-1-0.map.scen,8,A* (Euclid),1.0,8,True,0.0000,0.0,1,0.0011,0.00
maze512-1-0.map,maze512-1-0.map.scen,8,A* (Euclid),1.0,9,True,1.0000,1.0,2,0.0030,0.00
maze512-1-0.map,maze512-1-0.map.scen,8,A* (Octile),1.0,0,True,2.0000,2.0,3,0.0043,0.00
maze512-1-0.map,maze512-1-0.map.scen,8,A* (Octile),1.0,1,True,2.0000,2.0,3,0.0056,0.00
maze512-1-0.map,maze512-1-0.map.scen,8,A* (Octile),1.0,2,True,3.0000,3.0,4,0.0054,0.00
maze512-1-0.map,maze512-1-0.map.scen,8,A* (Octile),1.0,3,True,2.0000,2.0,3,0.0044,0.00
maze512-1-0.map,maze512-1-0.map.scen,8,A* (Octile),1.0,4,True,1.0000,1.0,2,0.0031,0.00
maze512-1-0.map,maze512-1-0.map.scen,8,A* (Octile),1.0,5,True,2.0000,2.0,3,0.0050,0.00
maze512-1-0.map,maze512-1-0.map.scen,8,A* (Octile),1.0,6,True,1.0000,1.0,2,0.0030,0.00
maze512-1-0.map,maze512-1-0.map.scen,8,A* (Octile),1.0,7,True,3.0000,3.0,4,0.0055,0.00
maze512-1-0.map,maze512-1-0.map.scen,8,A* (Octile),1.0,8,True,0.0000,0.0,1,0.0011,0.00
maze512-1-0.map,maze512-1-0.map.scen,8,A* (Octile),1.0,9,True,1.0000,1.0,2,0.0031,0.00
maze512-1-0.map,maze512-1-0.map.scen,8,WA* (x1.5),1.5,0,True,2.0000,2.0,3,0.0043,0.00
maze512-1-0.map,maze512-1-0.map.scen,8,WA* (x1.5),1.5,1,True,2.0000,2.0,3,0.0056,0.00
maze512-1-0.map,maze512-1-0.map.scen,8,WA* (x1.5),1.5,2,True,3.0000,3.0,4,0.0054,0.00
maze512-1-0.map,maze512-1-0.map.scen,8,WA* (x1.5),1.5,3,True,2.0000,2.0,3,0.0044,0.00
maze512-1-0.map,maze512-1-0.map.scen,8,WA* (x1.5),1.5,4,True,1.0000,1.0,2,0.0038,0.00
maze512-1-0.map,maze512-1-0.map.scen,8,WA* (x1.5),1.5,5,True,2.0000,2.0,3,0.0054,0.00
maze512-1-0.map,maze512-1-0.map.scen,8,WA* (x1.5),1.5,6,True,1.0000,1.0,2,0.0032,0.00
maze512-1-0.map,maze512-1-0.map.scen,8,WA* (x1.5),1.5,7,True,3.0000,3.0,4,0.0056,0.00
maze512-1-0.map,maze512-1-0.map.scen,8,WA* (x1.5),1.5,8,True,0.0000,0.0,1,0.0011,0.00
maze512-1-0.map,maze512-1-0.map.scen,8,WA* (x1.5),1.5,9,True,1.0000,1.0,2,0.0032,0.00
maze512-1-0.map,maze512-1-0.map.scen,8,WA* (x2.0),2.0,0,True,2.0000,2.0,3,0.0044,0.00
maze512-1-0.map,maze512-1-0.map.scen,8,WA* (x2.0),2.0,1,True,2.0000,2.0,3,0.0058,0.00
maze512-1-0.map,maze512-1-0.map.scen,8,WA* (x2.0),2.0,2,True,3.0000,3.0,4,0.0055,0.00
maze512-1-0.map,maze512-1-0.map.scen,8,WA* (x2.0),2.0,3,True,2.0000,2.0,3,0.0043,0.00
maze512-1-0.map,maze512-1-0.map.scen,8,WA* (x2.0),2.0,4,True,1.0000,1.0,2,0.0031,0.00
maze512-1-0.map,maze512-1-0.map.scen,8,WA* (x2.0),2.0,5,True,2.0000,2.0,3,0.0067,0.00
maze512-1-0.map,maze512-1-0.map.scen,8,WA* (x2.0),2.0,6,True,1.0000,1.0,2,0.0035,0.00
maze512-1-0.map,maze512-1-0.map.scen,8,WA* (x2.0),2.0,7,True,3.0000,3.0,4,0.0061,0.00
maze512-1-0.map,maze512-1-0.map.scen,8,WA* (x2.0),2.0,8,True,0.0000,0.0,1,0.0012,0.00
maze512-1-0.map,maze512-1-0.map.scen,8,WA* (x2.0),2.0,9,True,1.0000,1.0,2,0.0036,0.00
maze512-8-4.map,maze512-8-4.map.scen,4,BFS,1.0,0,True,5.0000,3.82842712,54,0.0679,30.60
maze512-8-4.map,maze512-8-4.map.scen,4,BFS,1.0,1,True,2.0000,2.0,9,0.0127,0.00
maze512-8-4.map,maze512-8-4.map.scen,4,BFS,1.0,2,True,2.0000,1.41421356,6,0.0086,41.42
maze512-8-4.map,maze512-8-4.map.scen,4,BFS,1.0,3,True,5.0000,3.82842712,36,0.0434,30.60
maze512-8-4.map,maze512-8-4.map.scen,4,BFS,1.0,4,True,4.0000,2.82842712,30,0.0370,41.42
maze512-8-4.map,maze512-8-4.map.scen,4,BFS,1.0,5,True,3.0000,2.41421356,17,0.0217,24.26
maze512-8-4.map,maze512-8-4.map.scen,4,BFS,1.0,6,True,3.0000,2.41421356,15,0.0191,24.26
maze512-8-4.map,maze512-8-4.map.scen,4,BFS,1.0,7,True,1.0000,1.0,3,0.0074,0.00
maze512-8-4.map,maze512-8-4.map.scen,4,BFS,1.0,8,True,3.0000,2.41421356,20,0.0271,24.26
maze512-8-4.map,maze512-8-4.map.scen,4,BFS,1.0,9,True,3.0000,2.41421356,15,0.0180,24.26
maze512-8-4.map,maze512-8-4.map.scen,4,Dijkstra,1.0,0,True,5.0000,3.82842712,59,0.1196,30.60
maze512-8-4.map,maze512-8-4.map.scen,4,Dijkstra,1.0,1,True,2.0000,2.0,7,0.0140,0.00
maze512-8-4.map,maze512-8-4.map.scen,4,Dijkstra,1.0,2,True,2.0000,1.41421356,12,0.0250,41.42
maze512-8-4.map,maze512-8-4.map.scen,4,Dijkstra,1.0,3,True,5.0000,3.82842712,40,0.0751,30.60
maze512-8-4.map,maze512-8-4.map.scen,4,Dijkstra,1.0,4,True,4.0000,2.82842712,26,0.0505,41.42
maze512-8-4.map,maze512-8-4.map.scen,4,Dijkstra,1.0,5,True,3.0000,2.41421356,14,0.0278,24.26
maze512-8-4.map,maze512-8-4.map.scen,4,Dijkstra,1.0,6,True,3.0000,2.41421356,23,0.0431,24.26
maze512-8-4.map,maze512-8-4.map.scen,4,Dijkstra,1.0,7,True,1.0000,1.0,3,0.0063,0.00
maze512-8-4.map,maze512-8-4.map.scen,4,Dijkstra,1.0,8,True,3.0000,2.41421356,20,0.0398,24.26
maze512-8-4.map,maze512-8-4.map.scen,4,Dijkstra,1.0,9,True,3.0000,2.41421356,16,0.0289,24.26
maze512-8-4.map,maze512-8-4.map.scen,4,A* (Manhattan),1.0,0,True,5.0000,3.82842712,11,0.0257,30.60
maze512-8-4.map,maze512-8-4.map.scen,4,A* (Manhattan),1.0,1,True,2.0000,2.0,3,0.0073,0.00
maze512-8-4.map,maze512-8-4.map.scen,4,A* (Manhattan),1.0,2,True,2.0000,1.41421356,4,0.0093,41.42
maze512-8-4.map,maze512-8-4.map.scen,4,A* (Manhattan),1.0,3,True,5.0000,3.82842712,10,0.0231,30.60
maze512-8-4.map,maze512-8-4.map.scen,4,A* (Manhattan),1.0,4,True,4.0000,2.82842712,9,0.0211,41.42
maze512-8-4.map,maze512-8-4.map.scen,4,A* (Manhattan),1.0,5,True,3.0000,2.41421356,6,0.0149,24.26
maze512-8-4.map,maze512-8-4.map.scen,4,A* (Manhattan),1.0,6,True,3.0000,2.41421356,6,0.0134,24.26
maze512-8-4.map,maze512-8-4.map.scen,4,A* (Manhattan),1.0,7,True,1.0000,1.0,2,0.0045,0.00
maze512-8-4.map,maze512-8-4.map.scen,4,A* (Manhattan),1.0,8,True,3.0000,2.41421356,6,0.0147,24.26
maze512-8-4.map,maze512-8-4.map.scen,4,A* (Manhattan),1.0,9,True,3.0000,2.41421356,6,0.0123,24.26
maze512-8-4.map,maze512-8-4.map.scen,4,A* (Euclid),1.0,0,True,5.0000,3.82842712,12,0.0278,30.60
maze512-8-4.map,maze512-8-4.map.scen,4,A* (Euclid),1.0,1,True,2.0000,2.0,3,0.0071,0.00
maze512-8-4.map,maze512-8-4.map.scen,4,A* (Euclid),1.0,2,True,2.0000,1.41421356,4,0.0088,41.42
maze512-8-4.map,maze512-8-4.map.scen,4,A* (Euclid),1.0,3,True,5.0000,3.82842712,12,0.0262,30.60
maze512-8-4.map,maze512-8-4.map.scen,4,A* (Euclid),1.0,4,True,4.0000,2.82842712,9,0.0205,41.42
maze512-8-4.map,maze512-8-4.map.scen,4,A* (Euclid),1.0,5,True,3.0000,2.41421356,6,0.0148,24.26
maze512-8-4.map,maze512-8-4.map.scen,4,A* (Euclid),1.0,6,True,3.0000,2.41421356,6,0.0131,24.26
maze512-8-4.map,maze512-8-4.map.scen,4,A* (Euclid),1.0,7,True,1.0000,1.0,2,0.0044,0.00
maze512-8-4.map,maze512-8-4.map.scen,4,A* (Euclid),1.0,8,True,3.0000,2.41421356,6,0.0151,24.26
maze512-8-4.map,maze512-8-4.map.scen,4,A* (Euclid),1.0,9,True,3.0000,2.41421356,6,0.0125,24.26
maze512-8-4.map,maze512-8-4.map.scen,4,A* (Octile),1.0,0,True,5.0000,3.82842712,12,0.0278,30.60
maze512-8-4.map,maze512-8-4.map.scen,4,A* (Octile),1.0,1,True,2.0000,2.0,3,0.0073,0.00
maze512-8-4.map,maze512-8-4.map.scen,4,A* (Octile),1.0,2,True,2.0000,1.41421356,4,0.0091,41.42
maze512-8-4.map,maze512-8-4.map.scen,4,A* (Octile),1.0,3,True,5.0000,3.82842712,12,0.0266,30.60
maze512-8-4.map,maze512-8-4.map.scen,4,A* (Octile),1.0,4,True,4.0000,2.82842712,9,0.0215,41.42
maze512-8-4.map,maze512-8-4.map.scen,4,A* (Octile),1.0,5,True,3.0000,2.41421356,6,0.0147,24.26
maze512-8-4.map,maze512-8-4.map.scen,4,A* (Octile),1.0,6,True,3.0000,2.41421356,6,0.0133,24.26
maze512-8-4.map,maze512-8-4.map.scen,4,A* (Octile),1.0,7,True,1.0000,1.0,2,0.0046,0.00
maze512-8-4.map,maze512-8-4.map.scen,4,A* (Octile),1.0,8,True,3.0000,2.41421356,6,0.0147,24.26
maze512-8-4.map,maze512-8-4.map.scen,4,A* (Octile),1.0,9,True,3.0000,2.41421356,6,0.0121,24.26
maze512-8-4.map,maze512-8-4.map.scen,4,WA* (x1.5),1.5,0,True,5.0000,3.82842712,6,0.0154,30.60
maze512-8-4.map,maze512-8-4.map.scen,4,WA* (x1.5),1.5,1,True,2.0000,2.0,3,0.0074,0.00
maze512-8-4.map,maze512-8-4.map.scen,4,WA* (x1.5),1.5,2,True,2.0000,1.41421356,3,0.0074,41.42
maze512-8-4.map,maze512-8-4.map.scen,4,WA* (x1.5),1.5,3,True,5.0000,3.82842712,6,0.0161,30.60
maze512-8-4.map,maze512-8-4.map.scen,4,WA* (x1.5),1.5,4,True,4.0000,2.82842712,5,0.0122,41.42
maze512-8-4.map,maze512-8-4.map.scen,4,WA* (x1.5),1.5,5,True,3.0000,2.41421356,4,0.0100,24.26
maze512-8-4.map,maze512-8-4.map.scen,4,WA* (x1.5),1.5,6,True,3.0000,2.41421356,4,0.0097,24.26
maze512-8-4.map,maze512-8-4.map.scen,4,WA* (x1.5),1.5,7,True,1.0000,1.0,2,0.0044,0.00
maze512-8-4.map,maze512-8-4.map.scen,4,WA* (x1.5),1.5,8,True,3.0000,2.41421356,4,0.0103,24.26
maze512-8-4.map,maze512-8-4.map.scen,4,WA* (x1.5),1.5,9,True,3.0000,2.41421356,4,0.0087,24.26
maze512-8-4.map,maze512-8-4.map.scen,4,WA* (x2.0),2.0,0,True,5.0000,3.82842712,6,0.0158,30.60
maze512-8-4.map,maze512-8-4.map.scen,4,WA* (x2.0),2.0,1,True,2.0000,2.0,3,0.0073,0.00
maze512-8-4.map,maze512-8-4.map.scen,4,WA* (x2.0),2.0,2,True,2.0000,1.41421356,3,0.0072,41.42
maze512-8-4.map,maze512-8-4.map.scen,4,WA* (x2.0),2.0,3,True,5.0000,3.82842712,6,0.0155,30.60
maze512-8-4.map,maze512-8-4.map.scen,4,WA* (x2.0),2.0,4,True,4.0000,2.82842712,5,0.0122,41.42
maze512-8-4.map,maze512-8-4.map.scen,4,WA* (x2.0),2.0,5,True,3.0000,2.41421356,4,0.0096,24.26
maze512-8-4.map,maze512-8-4.map.scen,4,WA* (x2.0),2.0,6,True,3.0000,2.41421356,4,0.0097,24.26
maze512-8-4.map,maze512-8-4.map.scen,4,WA* (x2.0),2.0,7,True,1.0000,1.0,2,0.0044,0.00
maze512-8-4.map,maze512-8-4.map.scen,4,WA* (x2.0),2.0,8,True,3.0000,2.41421356,4,0.0102,24.26
maze512-8-4.map,maze512-8-4.map.scen,4,WA* (x2.0),2.0,9,True,3.0000,2.41421356,4,0.0088,24.26
maze512-8-4.map,maze512-8-4.map.scen,8,BFS,1.0,0,True,3.0000,3.82842712,39,0.0668,-21.64
maze512-8-4.map,maze512-8-4.map.scen,8,BFS,1.0,1,True,2.0000,2.0,11,0.0187,0.00
maze512-8-4.map,maze512-8-4.map.scen,8,BFS,1.0,2,True,1.0000,1.41421356,6,0.0131,-29.29
maze512-8-4.map,maze512-8-4.map.scen,8,BFS,1.0,3,True,3.0000,3.82842712,24,0.0418,-21.64
maze512-8-4.map,maze512-8-4.map.scen,8,BFS,1.0,4,True,2.0000,2.82842712,20,0.0325,-29.29
maze512-8-4.map,maze512-8-4.map.scen,8,BFS,1.0,5,True,2.0000,2.41421356,21,0.0399,-17.16
maze512-8-4.map,maze512-8-4.map.scen,8,BFS,1.0,6,True,2.0000,2.41421356,12,0.0202,-17.16
maze512-8-4.map,maze512-8-4.map.scen,8,BFS,1.0,7,True,1.0000,1.0,3,0.0052,0.00
maze512-8-4.map,maze512-8-4.map.scen,8,BFS,1.0,8,True,2.0000,2.41421356,15,0.0250,-17.16
maze512-8-4.map,maze512-8-4.map.scen,8,BFS,1.0,9,True,2.0000,2.41421356,13,0.0183,-17.16
maze512-8-4.map,maze512-8-4.map.scen,8,Dijkstra,1.0,0,True,3.8284,3.82842712,44,0.1215,0.00
maze512-8-4.map,maze512-8-4.map.scen,8,Dijkstra,1.0,1,True,2.0000,2.0,7,0.0168,0.00
maze512-8-4.map,maze512-8-4.map.scen,8,Dijkstra,1.0,2,True,1.4142,1.41421356,8,0.0228,0.00
maze512-8-4.map,maze512-8-4.map.scen,8,Dijkstra,1.0,3,True,3.8284,3.82842712,33,0.0798,0.00
maze512-8-4.map,maze512-8-4.map.scen,8,Dijkstra,1.0,4,True,2.8284,2.82842712,19,0.0475,0.00
maze512-8-4.map,maze512-8-4.map.scen,8,Dijkstra,1.0,5,True,2.4142,2.41421356,17,0.0479,0.00
maze512-8-4.map,maze512-8-4.map.scen,8,Dijkstra,1.0,6,True,2.4142,2.41421356,21,0.0535,0.00
maze512-8-4.map,maze512-8-4.map.scen,8,Dijkstra,1.0,7,True,1.0000,1.0,4,0.0084,0.00
maze512-8-4.map,maze512-8-4.map.scen,8,Dijkstra,1.0,8,True,2.4142,2.41421356,15,0.0418,0.00
maze512-8-4.map,maze512-8-4.map.scen,8,Dijkstra,1.0,9,True,2.4142,2.41421356,10,0.0235,0.00
maze512-8-4.map,maze512-8-4.map.scen,8,A* (Manhattan),1.0,0,True,3.8284,3.82842712,4,0.0148,0.00
maze512-8-4.map,maze512-8-4.map.scen,8,A* (Manhattan),1.0,1,True,2.0000,2.0,3,0.0083,0.00
maze512-8-4.map,maze512-8-4.map.scen,8,A* (Manhattan),1.0,2,True,1.4142,1.41421356,2,0.0065,0.00
maze512-8-4.map,maze512-8-4.map.scen,8,A* (Manhattan),1.0,3,True,3.8284,3.82842712,4,0.0155,0.00
maze512-8-4.map,maze512-8-4.map.scen,8,A* (Manhattan),1.0,4,True,2.8284,2.82842712,3,0.0113,0.00
maze512-8-4.map,maze512-8-4.map.scen,8,A* (Manhattan),1.0,5,True,2.4142,2.41421356,3,0.0110,0.00
maze512-8-4.map,maze512-8-4.map.scen,8,A* (Manhattan),1.0,6,True,2.4142,2.41421356,3,0.0113,0.00
maze512-8-4.map,maze512-8-4.map.scen,8,A* (Manhattan),1.0,7,True,1.0000,1.0,2,0.0059,0.00
maze512-8-4.map,maze512-8-4.map.scen,8,A* (Manhattan),1.0,8,True,2.4142,2.41421356,3,0.0124,0.00
maze512-8-4.map,maze512-8-4.map.scen,8,A* (Manhattan),1.0,9,True,2.4142,2.41421356,3,0.0101,0.00
maze512-8-4.map,maze512-8-4.map.scen,8,A* (Euclid),1.0,0,True,3.8284,3.82842712,4,0.0147,0.00
maze512-8-4.map,maze512-8-4.map.scen,8,A* (Euclid),1.0,1,True,2.0000,2.0,3,0.0082,0.00
maze512-8-4.map,maze512-8-4.map.scen,8,A* (Euclid),1.0,2,True,1.4142,1.41421356,2,0.0066,0.00
maze512-8-4.map,maze512-8-4.map.scen,8,A* (Euclid),1.0,3,True,3.8284,3.82842712,4,0.0141,0.00
