MapName,Scenario,Connectivity,Algorithm,Weight,TaskID,Success,PathLength,OptimalLength,ExpandedNodes,TimeMS,Suboptimality
random512-10-2.map,random512-10-2.map.scen,4,BFS,1.0,0,True,5.0000,3.82842712,40,0.0857,30.60
random512-10-2.map,random512-10-2.map.scen,4,BFS,1.0,1,True,5.0000,3.82842712,45,0.1018,30.60
random512-10-2.map,random512-10-2.map.scen,4,BFS,1.0,2,True,3.0000,3.0,16,0.0255,0.00
random512-10-2.map,random512-10-2.map.scen,4,BFS,1.0,3,True,3.0000,3.0,25,0.0326,0.00
random512-10-2.map,random512-10-2.map.scen,4,BFS,1.0,4,True,3.0000,2.41421356,19,0.0277,24.26
random512-10-2.map,random512-10-2.map.scen,4,BFS,1.0,5,True,1.0000,1.0,2,0.0041,0.00
random512-10-2.map,random512-10-2.map.scen,4,BFS,1.0,6,True,3.0000,3.0,17,0.0208,0.00
random512-10-2.map,random512-10-2.map.scen,4,BFS,1.0,7,True,0.0000,0.0,1,0.0011,0.00
random512-10-2.map,random512-10-2.map.scen,4,BFS,1.0,8,True,2.0000,2.0,8,0.0104,0.00
random512-10-2.map,random512-10-2.map.scen,4,BFS,1.0,9,True,2.0000,2.0,5,0.0077,0.00
random512-10-2.map,random512-10-2.map.scen,4,BFS,1.0,10,True,5.0000,4.41421356,42,0.0545,13.27
random512-10-2.map,random512-10-2.map.scen,4,BFS,1.0,11,True,8.0000,7.41421356,100,0.1278,7.90
random512-10-2.map,random512-10-2.map.scen,4,BFS,1.0,12,True,8.0000,6.82842712,115,0.1386,17.16
random512-10-2.map,random512-10-2.map.scen,4,BFS,1.0,13,True,8.0000,6.82842712,97,0.1173,17.16
random512-10-2.map,random512-10-2.map.scen,4,BFS,1.0,14,True,6.0000,5.41421356,62,0.0903,10.82
random512-10-2.map,random512-10-2.map.scen,4,BFS,1.0,15,True,8.0000,6.24264069,103,0.1275,28.15
random512-10-2.map,random512-10-2.map.scen,4,BFS,1.0,16,True,6.0000,4.24264069,73,0.0842,41.42
random512-10-2.map,random512-10-2.map.scen,4,BFS,1.0,17,True,7.0000,5.82842712,88,0.0997,20.10
random512-10-2.map,random512-10-2.map.scen,4,BFS,1.0,18,True,6.0000,6.0,50,0.0618,0.00
random512-10-2.map,random512-10-2.map.scen,4,BFS,1.0,19,True,5.0000,4.41421356,38,0.0464,13.27
random512-10-2.map,random512-10-2.map.scen,4,BFS,1.0,20,True,13.0000,10.07106781,277,0.3433,29.08
random512-10-2.map,random512-10-2.map.scen,4,BFS,1.0,21,True,14.0000,10.48528137,353,0.4757,33.52
random512-10-2.map,random512-10-2.map.scen,4,BFS,1.0,22,True,8.0000,8.0,120,0.1602,0.00
random512-10-2.map,random512-10-2.map.scen,4,BFS,1.0,23,True,11.0000,10.41421356,223,0.3002,5.62
random512-10-2.map,random512-10-2.map.scen,4,BFS,1.0,24,True,11.0000,9.82842712,193,0.2502,11.92
random512-10-2.map,random512-10-2.map.scen,4,BFS,1.0,25,True,16.0000,11.89949493,455,0.5011,34.46
random512-10-2.map,random512-10-2.map.scen,4,BFS,1.0,26,True,8.0000,8.0,107,0.1329,0.00
random512-10-2.map,random512-10-2.map.scen,4,BFS,1.0,27,True,13.0000,11.82842712,271,0.4772,9.90
random512-10-2.map,random512-10-2.map.scen,4,BFS,1.0,28,True,13.0000,11.82842712,266,0.5531,9.90
random512-10-2.map,random512-10-2.map.scen,4,BFS,1.0,29,True,11.0000,10.41421356,217,0.3078,5.62
random512-10-2.map,random512-10-2.map.scen,4,BFS,1.0,30,True,18.0000,15.07106781,563,0.6930,19.43
random512-10-2.map,random512-10-2.map.scen,4,BFS,1.0,31,True,17.0000,14.07106781,249,0.3089,20.82
random512-10-2.map,random512-10-2.map.scen,4,BFS,1.0,32,True,15.0000,14.41421356,384,0.4681,4.06
random512-10-2.map,random512-10-2.map.scen,4,BFS,1.0,33,True,18.0000,13.3137085,592,0.6993,35.20
random512-10-2.map,random512-10-2.map.scen,4,BFS,1.0,34,True,17.0000,15.24264069,505,0.5996,11.53
random512-10-2.map,random512-10-2.map.scen,4,BFS,1.0,35,True,16.0000,12.48528137,433,0.5300,28.15
random512-10-2.map,random512-10-2.map.scen,4,BFS,1.0,36,True,15.0000,13.82842712,313,0.3827,8.47
random512-10-2.map,random512-10-2.map.scen,4,BFS,1.0,37,True,12.0000,12.0,255,0.3332,0.00
random512-10-2.map,random512-10-2.map.scen,4,BFS,1.0,38,True,17.0000,15.24264069,493,0.6765,11.53
random512-10-2.map,random512-10-2.map.scen,4,BFS,1.0,39,True,15.0000,12.65685425,368,0.4409,18.51
random512-10-2.map,random512-10-2.map.scen,4,BFS,1.0,40,True,24.0000,19.89949493,968,1.0653,20.61
random512-10-2.map,random512-10-2.map.scen,4,BFS,1.0,41,True,21.0000,19.82842712,774,0.8721,5.91
random512-10-2.map,random512-10-2.map.scen,4,BFS,1.0,42,True,23.0000,17.72792206,891,0.9536,29.74
random512-10-2.map,random512-10-2.map.scen,4,BFS,1.0,43,True,23.0000,18.89949493,920,0.9916,21.70
random512-10-2.map,random512-10-2.map.scen,4,BFS,1.0,44,True,24.0000,19.89949493,1082,1.2342,20.61
random512-10-2.map,random512-10-2.map.scen,4,BFS,1.0,45,True,20.0000,16.48528137,676,1.3147,21.32
random512-10-2.map,random512-10-2.map.scen,4,BFS,1.0,46,True,22.0000,17.3137085,768,1.5655,27.07
random512-10-2.map,random512-10-2.map.scen,4,BFS,1.0,47,True,19.0000,18.41421356,580,1.1922,3.18
random512-10-2.map,random512-10-2.map.scen,4,BFS,1.0,48,True,20.0000,18.24264069,719,1.6217,9.63
random512-10-2.map,random512-10-2.map.scen,4,BFS,1.0,49,True,23.0000,17.72792206,878,1.3399,29.74
random512-10-2.map,random512-10-2.map.scen,4,BFS,1.0,50,True,27.0000,20.55634918,1126,1.2830,31.35
random512-10-2.map,random512-10-2.map.scen,4,BFS,1.0,51,True,23.0000,20.07106781,932,1.0090,14.59
random512-10-2.map,random512-10-2.map.scen,4,BFS,1.0,52,True,25.0000,21.48528137,1060,1.2459,16.36
random512-10-2.map,random512-10-2.map.scen,4,BFS,1.0,53,True,24.0000,21.07106781,941,1.0554,13.90
random512-10-2.map,random512-10-2.map.scen,4,BFS,1.0,54,True,23.0000,20.65685425,605,0.7245,11.34
random512-10-2.map,random512-10-2.map.scen,4,BFS,1.0,55,True,29.0000,23.14213562,1401,1.5550,25.31
random512-10-2.map,random512-10-2.map.scen,4,BFS,1.0,56,True,25.0000,20.89949493,1093,1.2369,19.62
random512-10-2.map,random512-10-2.map.scen,4,BFS,1.0,57,True,22.0000,20.82842712,821,0.9915,5.62
random512-10-2.map,random512-10-2.map.scen,4,BFS,1.0,58,True,31.0000,23.38477631,1625,1.7494,32.56
random512-10-2.map,random512-10-2.map.scen,4,BFS,1.0,59,True,24.0000,22.24264069,1022,1.1409,7.90
random512-10-2.map,random512-10-2.map.scen,4,BFS,1.0,60,True,30.0000,27.65685425,1264,1.5060,8.47
random512-10-2.map,random512-10-2.map.scen,4,BFS,1.0,61,True,27.0000,24.65685425,1272,1.7624,9.50
random512-10-2.map,random512-10-2.map.scen,4,BFS,1.0,62,True,34.0000,26.38477631,2041,2.6393,28.86
random512-10-2.map,random512-10-2.map.scen,4,BFS,1.0,63,True,30.0000,25.3137085,1504,1.7950,18.51
random512-10-2.map,random512-10-2.map.scen,4,BFS,1.0,64,True,30.0000,27.65685425,1515,1.6115,8.47
random512-10-2.map,random512-10-2.map.scen,4,BFS,1.0,65,True,29.0000,26.07106781,1477,1.6215,11.23
random512-10-2.map,random512-10-2.map.scen,4,BFS,1.0,66,True,36.0000,27.79898987,2224,2.3392,29.50
random512-10-2.map,random512-10-2.map.scen,4,BFS,1.0,67,True,28.0000,24.48528137,1338,1.5318,14.35
random512-10-2.map,random512-10-2.map.scen,4,BFS,1.0,68,True,34.0000,27.55634918,1739,1.8855,23.38
random512-10-2.map,random512-10-2.map.scen,4,BFS,1.0,69,True,29.0000,27.24264069,1464,1.6646,6.45
random512-10-2.map,random512-10-2.map.scen,4,BFS,1.0,70,True,34.0000,31.07106781,2091,2.2571,9.43
random512-10-2.map,random512-10-2.map.scen,4,BFS,1.0,71,True,33.0000,30.07106781,1942,2.1359,9.74
random512-10-2.map,random512-10-2.map.scen,4,BFS,1.0,72,True,39.0000,30.79898987,2618,2.8317,26.63
random512-10-2.map,random512-10-2.map.scen,4,BFS,1.0,73,True,31.0000,29.24264069,1687,1.8319,6.01
random512-10-2.map,random512-10-2.map.scen,4,BFS,1.0,74,True,34.0000,31.07106781,1864,1.9266,9.43
random512-10-2.map,random512-10-2.map.scen,4,BFS,1.0,75,True,33.0000,28.3137085,1940,2.0736,16.55
random512-10-2.map,random512-10-2.map.scen,4,BFS,1.0,76,True,33.0000,28.89949493,1919,2.1030,14.19
random512-10-2.map,random512-10-2.map.scen,4,BFS,1.0,77,True,40.0000,31.21320343,2796,2.9229,28.15
random512-10-2.map,random512-10-2.map.scen,4,BFS,1.0,78,True,39.0000,30.79898987,2625,2.8097,26.63
random512-10-2.map,random512-10-2.map.scen,4,BFS,1.0,79,True,33.0000,30.65685425,1960,2.0376,7.64
random512-10-2.map,random512-10-2.map.scen,4,BFS,1.0,80,True,37.0000,32.3137085,2390,2.5710,14.50
random512-10-2.map,random512-10-2.map.scen,4,BFS,1.0,81,True,44.0000,35.21320343,3524,3.5685,24.95
random512-10-2.map,random512-10-2.map.scen,4,BFS,1.0,82,True,39.0000,33.14213562,2625,2.7552,17.67
random512-10-2.map,random512-10-2.map.scen,4,BFS,1.0,83,True,40.0000,35.3137085,2757,2.8653,13.27
random512-10-2.map,random512-10-2.map.scen,4,BFS,1.0,84,True,38.0000,34.48528137,2477,2.7266,10.19
random512-10-2.map,random512-10-2.map.scen,4,BFS,1.0,85,True,40.0000,35.89949493,2794,3.0084,11.42
random512-10-2.map,random512-10-2.map.scen,4,BFS,1.0,86,True,42.0000,33.21320343,3109,3.2165,26.46
random512-10-2.map,random512-10-2.map.scen,4,BFS,1.0,87,True,41.0000,35.72792206,3023,3.1934,14.76
random512-10-2.map,random512-10-2.map.scen,4,BFS,1.0,88,True,36.0000,33.07106781,2176,2.2114,8.86
random512-10-2.map,random512-10-2.map.scen,4,BFS,1.0,89,True,38.0000,35.65685425,2484,2.7488,6.57
random512-10-2.map,random512-10-2.map.scen,4,BFS,1.0,90,True,50.0000,38.28427124,4371,4.5089,30.60
random512-10-2.map,random512-10-2.map.scen,4,BFS,1.0,91,True,49.0000,38.45584412,4228,4.4381,27.42
random512-10-2.map,random512-10-2.map.scen,4,BFS,1.0,92,True,47.0000,38.21320343,3803,4.0486,22.99
random512-10-2.map,random512-10-2.map.scen,4,BFS,1.0,93,True,41.0000,36.3137085,2976,3.2551,12.91
random512-10-2.map,random512-10-2.map.scen,4,BFS,1.0,94,True,51.0000,39.87005768,4693,5.3455,27.92
random512-10-2.map,random512-10-2.map.scen,4,BFS,1.0,95,True,46.0000,36.04163055,3570,3.8711,27.63
random512-10-2.map,random512-10-2.map.scen,4,BFS,1.0,96,True,51.0000,39.87005768,4503,4.8586,27.92
random512-10-2.map,random512-10-2.map.scen,4,BFS,1.0,97,True,41.0000,37.48528137,3001,3.2633,9.38
random512-10-2.map,random512-10-2.map.scen,4,BFS,1.0,98,True,42.0000,38.48528137,2077,2.1485,9.13
random512-10-2.map,random512-10-2.map.scen,4,BFS,1.0,99,True,52.0000,39.6984848,4681,4.9756,30.99
random512-10-2.map,random512-10-2.map.scen,4,BFS,1.0,100,True,45.0000,43.82842712,3480,3.7384,2.67
random512-10-2.map,random512-10-2.map.scen,4,BFS,1.0,101,True,52.0000,42.04163055,4801,4.9736,23.69
random512-10-2.map,random512-10-2.map.scen,4,BFS,1.0,102,True,46.0000,41.89949493,3761,4.0001,9.79
random512-10-2.map,random512-10-2.map.scen,4,BFS,1.0,103,True,56.0000,41.35533905,5496,5.8445,35.41
random512-10-2.map,random512-10-2.map.scen,4,BFS,1.0,104,True,52.0000,42.62741699,3829,3.7840,21.99
random512-10-2.map,random512-10-2.map.scen,4,BFS,1.0,105,True,46.0000,43.65685425,3780,3.8339,5.37
random512-10-2.map,random512-10-2.map.scen,4,BFS,1.0,106,True,46.0000,42.48528137,3282,3.5045,8.27
random512-10-2.map,random512-10-2.map.scen,4,BFS,1.0,107,True,49.0000,43.72792206,3503,3.6325,12.06
random512-10-2.map,random512-10-2.map.scen,4,BFS,1.0,108,True,54.0000,42.87005768,5134,5.4721,25.96
random512-10-2.map,random512-10-2.map.scen,4,BFS,1.0,109,True,52.0000,40.28427124,4723,4.7528,29.08
random512-10-2.map,random512-10-2.map.scen,4,BFS,1.0,110,True,57.0000,44.11269836,2843,2.8601,29.21
random512-10-2.map,random512-10-2.map.scen,4,BFS,1.0,111,True,49.0000,45.48528137,4189,4.7636,7.73
random512-10-2.map,random512-10-2.map.scen,4,BFS,1.0,112,True,52.0000,47.89949493,4752,4.8635,8.56
random512-10-2.map,random512-10-2.map.scen,4,BFS,1.0,113,True,59.0000,45.52691193,5568,6.0722,29.59
random512-10-2.map,random512-10-2.map.scen,4,BFS,1.0,114,True,51.0000,46.3137085,4633,4.7835,10.12
random512-10-2.map,random512-10-2.map.scen,4,BFS,1.0,115,True,61.0000,46.35533905,6630,6.7811,31.59
random512-10-2.map,random512-10-2.map.scen,4,BFS,1.0,116,True,54.0000,44.04163055,5015,5.2335,22.61
random512-10-2.map,random512-10-2.map.scen,4,BFS,1.0,117,True,57.0000,45.87005768,4030,4.0268,24.26
random512-10-2.map,random512-10-2.map.scen,4,BFS,1.0,118,True,54.0000,47.55634918,3703,3.6826,13.55
random512-10-2.map,random512-10-2.map.scen,4,BFS,1.0,119,True,59.0000,46.11269836,6149,6.3390,27.95
random512-10-2.map,random512-10-2.map.scen,4,BFS,1.0,120,True,62.0000,49.11269836,6818,6.9304,26.24
random512-10-2.map,random512-10-2.map.scen,4,BFS,1.0,121,True,65.0000,51.52691193,5774,6.3901,26.15
random512-10-2.map,random512-10-2.map.scen,4,BFS,1.0,122,True,54.0000,48.72792206,5227,5.4281,10.82
random512-10-2.map,random512-10-2.map.scen,4,BFS,1.0,123,True,65.0000,51.52691193,7399,7.7753,26.15
random512-10-2.map,random512-10-2.map.scen,4,BFS,1.0,124,True,60.0000,51.79898987,6244,6.3951,15.83
random512-10-2.map,random512-10-2.map.scen,4,BFS,1.0,125,True,66.0000,49.59797974,7721,8.4488,33.07
random512-10-2.map,random512-10-2.map.scen,4,BFS,1.0,126,True,54.0000,51.07106781,5048,5.3330,5.74
random512-10-2.map,random512-10-2.map.scen,4,BFS,1.0,127,True,54.0000,50.48528137,5210,5.5332,6.96
random512-10-2.map,random512-10-2.map.scen,4,BFS,1.0,128,True,60.0000,50.04163055,6409,6.5628,19.90
random512-10-2.map,random512-10-2.map.scen,4,BFS,1.0,129,True,63.0000,51.28427124,6956,7.2523,22.84
random512-10-2.map,random512-10-2.map.scen,4,BFS,1.0,130,True,57.0000,52.3137085,5744,6.0235,8.96
random512-10-2.map,random512-10-2.map.scen,4,BFS,1.0,131,True,57.0000,52.89949493,4776,4.7768,7.75
random512-10-2.map,random512-10-2.map.scen,4,BFS,1.0,132,True,67.0000,54.6984848,7622,7.9329,22.49
random512-10-2.map,random512-10-2.map.scen,4,BFS,1.0,133,True,63.0000,54.79898987,6847,7.5010,14.97
random512-10-2.map,random512-10-2.map.scen,4,BFS,1.0,134,True,66.0000,53.6984848,7644,7.7862,22.91
random512-10-2.map,random512-10-2.map.scen,4,BFS,1.0,135,True,68.0000,55.6984848,8209,8.5578,22.09
random512-10-2.map,random512-10-2.map.scen,4,BFS,1.0,136,True,69.0000,52.0121933,8458,8.5831,32.66
random512-10-2.map,random512-10-2.map.scen,4,BFS,1.0,137,True,68.0000,55.6984848,8240,8.4529,22.09
random512-10-2.map,random512-10-2.map.scen,4,BFS,1.0,138,True,60.0000,54.14213562,6397,6.5676,10.82
random512-10-2.map,random512-10-2.map.scen,4,BFS,1.0,139,True,67.0000,54.11269836,7816,7.8941,23.82
random512-10-2.map,random512-10-2.map.scen,4,BFS,1.0,140,True,68.0000,58.62741699,8008,8.6888,15.99
random512-10-2.map,random512-10-2.map.scen,4,BFS,1.0,141,True,79.0000,59.08326111,8127,8.1814,33.71
random512-10-2.map,random512-10-2.map.scen,4,BFS,1.0,142,True,72.0000,58.52691193,9083,10.0079,23.02
random512-10-2.map,random512-10-2.map.scen,4,BFS,1.0,143,True,73.0000,58.94112549,9178,9.3244,23.85
random512-10-2.map,random512-10-2.map.scen,4,BFS,1.0,144,True,75.0000,57.42640686,8765,8.8432,30.60
random512-10-2.map,random512-10-2.map.scen,4,BFS,1.0,145,True,64.0000,56.97056274,7204,7.3627,12.34
random512-10-2.map,random512-10-2.map.scen,4,BFS,1.0,146,True,76.0000,56.66904755,10004,11.1477,34.11
random512-10-2.map,random512-10-2.map.scen,4,BFS,1.0,147,True,60.0000,57.07106781,6329,7.1595,5.13
random512-10-2.map,random512-10-2.map.scen,4,BFS,1.0,148,True,79.0000,59.66904755,11079,11.7931,32.40
random512-10-2.map,random512-10-2.map.scen,4,BFS,1.0,149,True,68.0000,58.62741699,7677,7.7865,15.99
random512-10-2.map,random512-10-2.map.scen,4,BFS,1.0,150,True,66.0000,61.3137085,7659,8.3996,7.64
random512-10-2.map,random512-10-2.map.scen,4,BFS,1.0,151,True,80.0000,63.0121933,8565,8.5702,26.96
random512-10-2.map,random512-10-2.map.scen,4,BFS,1.0,152,True,65.0000,61.48528137,3797,3.8927,5.72
random512-10-2.map,random512-10-2.map.scen,4,BFS,1.0,153,True,64.0000,60.48528137,5326,5.5706,5.81
random512-10-2.map,random512-10-2.map.scen,4,BFS,1.0,154,True,79.0000,63.18376617,10961,11.3579,25.03
random512-10-2.map,random512-10-2.map.scen,4,BFS,1.0,155,True,68.0000,61.55634918,8041,9.1119,10.47
random512-10-2.map,random512-10-2.map.scen,4,BFS,1.0,156,True,65.0000,60.89949493,7512,7.7633,6.73
random512-10-2.map,random512-10-2.map.scen,4,BFS,1.0,157,True,66.0000,63.65685425,7710,8.0753,3.68
random512-10-2.map,random512-10-2.map.scen,4,BFS,1.0,158,True,66.0000,61.89949493,7619,7.9675,6.62
random512-10-2.map,random512-10-2.map.scen,4,BFS,1.0,159,True,70.0000,62.97056274,8575,8.8039,11.16
random512-10-2.map,random512-10-2.map.scen,4,BFS,1.0,160,True,81.0000,64.0121933,9753,9.6699,26.54
random512-10-2.map,random512-10-2.map.scen,4,BFS,1.0,161,True,83.0000,64.84062042,10566,11.5097,28.01
random512-10-2.map,random512-10-2.map.scen,4,BFS,1.0,162,True,69.0000,64.89949493,7428,7.6611,6.32
random512-10-2.map,random512-10-2.map.scen,4,BFS,1.0,163,True,68.0000,64.48528137,8161,9.3021,5.45
random512-10-2.map,random512-10-2.map.scen,4,BFS,1.0,164,True,80.0000,64.76955261,11094,11.6705,23.51
random512-10-2.map,random512-10-2.map.scen,4,BFS,1.0,165,True,83.0000,66.25483398,12050,12.3502,25.27
random512-10-2.map,random512-10-2.map.scen,4,BFS,1.0,166,True,84.0000,65.25483398,12291,13.2810,28.73
random512-10-2.map,random512-10-2.map.scen,4,BFS,1.0,167,True,86.0000,67.25483398,12942,13.4570,27.87
random512-10-2.map,random512-10-2.map.scen,4,BFS,1.0,168,True,70.0000,65.89949493,8631,8.6722,6.22
random512-10-2.map,random512-10-2.map.scen,4,BFS,1.0,169,True,82.0000,64.42640686,11744,12.6085,27.28
random512-10-2.map,random512-10-2.map.scen,4,BFS,1.0,170,True,75.0000,69.72792206,9876,10.0903,7.56
random512-10-2.map,random512-10-2.map.scen,4,BFS,1.0,171,True,75.0000,70.3137085,9987,11.0013,6.66
random512-10-2.map,random512-10-2.map.scen,4,BFS,1.0,172,True,91.0000,69.91168823,14573,14.8275,30.16
random512-10-2.map,random512-10-2.map.scen,4,BFS,1.0,173,True,83.0000,70.6984848,12044,12.7074,17.40
random512-10-2.map,random512-10-2.map.scen,4,BFS,1.0,174,True,91.0000,70.49747467,13311,13.8251,29.08
random512-10-2.map,random512-10-2.map.scen,4,BFS,1.0,175,True,85.0000,68.0121933,6918,6.8970,24.98
random512-10-2.map,random512-10-2.map.scen,4,BFS,1.0,176,True,86.0000,69.59797974,6739,6.8640,23.57
random512-10-2.map,random512-10-2.map.scen,4,BFS,1.0,177,True,71.0000,69.24264069,8770,9.0789,2.54
random512-10-2.map,random512-10-2.map.scen,4,BFS,1.0,178,True,75.0000,69.72792206,9990,9.9355,7.56
random512-10-2.map,random512-10-2.map.scen,4,BFS,1.0,179,True,70.0000,68.24264069,8723,9.4535,2.58
random512-10-2.map,random512-10-2.map.scen,4,BFS,1.0,180,True,88.0000,73.35533905,13769,14.1739,19.96
random512-10-2.map,random512-10-2.map.scen,4,BFS,1.0,181,True,96.0000,73.15432892,16042,16.2447,31.23
random512-10-2.map,random512-10-2.map.scen,4,BFS,1.0,182,True,97.0000,74.74011536,16438,16.9840,29.78
random512-10-2.map,random512-10-2.map.scen,4,BFS,1.0,183,True,101.0000,75.81118317,12129,12.2703,33.23
random512-10-2.map,random512-10-2.map.scen,4,BFS,1.0,184,True,85.0000,75.62741699,12657,13.2880,12.39
random512-10-2.map,random512-10-2.map.scen,4,BFS,1.0,185,True,97.0000,74.74011536,16715,17.5662,29.78
random512-10-2.map,random512-10-2.map.scen,4,BFS,1.0,186,True,90.0000,72.42640686,14124,15.2409,24.26
random512-10-2.map,random512-10-2.map.scen,4,BFS,1.0,187,True,91.0000,73.42640686,14497,14.9107,23.93
random512-10-2.map,random512-10-2.map.scen,4,BFS,1.0,188,True,90.0000,74.18376617,13237,13.6747,21.32
random512-10-2.map,random512-10-2.map.scen,4,BFS,1.0,189,True,80.0000,74.14213562,7085,7.2912,7.90
random512-10-2.map,random512-10-2.map.scen,4,BFS,1.0,190,True,102.0000,77.3969696,18274,18.0888,31.79
random512-10-2.map,random512-10-2.map.scen,4,BFS,1.0,191,True,101.0000,78.74011536,18001,17.6309,28.27
random512-10-2.map,random512-10-2.map.scen,4,BFS,1.0,192,True,82.0000,77.89949493,11755,12.5182,5.26
random512-10-2.map,random512-10-2.map.scen,4,BFS,1.0,193,True,81.0000,76.89949493,10502,11.3070,5.33
random512-10-2.map,random512-10-2.map.scen,4,BFS,1.0,194,True,95.0000,77.42640686,12184,13.0369,22.70
random512-10-2.map,random512-10-2.map.scen,4,BFS,1.0,195,True,82.0000,76.14213562,11059,11.6055,7.69
random512-10-2.map,random512-10-2.map.scen,4,BFS,1.0,196,True,84.0000,77.55634918,12270,12.9359,8.31
random512-10-2.map,random512-10-2.map.scen,4,BFS,1.0,197,True,95.0000,79.18376617,11840,12.2405,19.97
random512-10-2.map,random512-10-2.map.scen,4,BFS,1.0,198,True,87.0000,79.97056274,13416,13.4716,8.79
random512-10-2.map,random512-10-2.map.scen,4,BFS,1.0,199,True,89.0000,76.6984848,7468,7.4503,16.04
random512-10-2.map,random512-10-2.map.scen,4,BFS,1.0,200,True,105.0000,80.98275604,19454,19.4797,29.66
random512-10-2.map,random512-10-2.map.scen,4,BFS,1.0,201,True,84.0000,81.07106781,10610,11.1060,3.61
random512-10-2.map,random512-10-2.map.scen,4,BFS,1.0,202,True,106.0000,81.3969696,19641,19.1931,30.23
random512-10-2.map,random512-10-2.map.scen,4,BFS,1.0,203,True,86.0000,82.48528137,12290,12.6942,4.26
random512-10-2.map,random512-10-2.map.scen,4,BFS,1.0,204,True,95.0000,83.28427124,15826,15.7837,14.07
random512-10-2.map,random512-10-2.map.scen,4,BFS,1.0,205,True,106.0000,81.3969696,19991,19.9109,30.23
random512-10-2.map,random512-10-2.map.scen,4,BFS,1.0,206,True,84.0000,80.48528137,12350,12.6068,4.37
random512-10-2.map,random512-10-2.map.scen,4,BFS,1.0,207,True,91.0000,81.04163055,14600,14.8411,12.29
random512-10-2.map,random512-10-2.map.scen,4,BFS,1.0,208,True,104.0000,82.91168823,19141,19.2230,25.43
random512-10-2.map,random512-10-2.map.scen,4,BFS,1.0,209,True,99.0000,81.42640686,9725,9.5903,21.58
random512-10-2.map,random512-10-2.map.scen,4,BFS,1.0,210,True,114.0000,87.63961029,22828,23.3474,30.08
random512-10-2.map,random512-10-2.map.scen,4,BFS,1.0,211,True,93.0000,85.38477631,13225,13.3356,8.92
random512-10-2.map,random512-10-2.map.scen,4,BFS,1.0,212,True,100.0000,86.52691193,15084,15.4362,15.57
random512-10-2.map,random512-10-2.map.scen,4,BFS,1.0,213,True,105.0000,86.25483398,18550,18.4197,21.73
random512-10-2.map,random512-10-2.map.scen,4,BFS,1.0,214,True,96.0000,84.87005768,8793,8.8696,13.11
random512-10-2.map,random512-10-2.map.scen,4,BFS,1.0,215,True,94.0000,85.21320343,9468,9.5628,10.31
random512-10-2.map,random512-10-2.map.scen,4,BFS,1.0,216,True,107.0000,84.15432892,20312,20.6298,27.15
random512-10-2.map,random512-10-2.map.scen,4,BFS,1.0,217,True,102.0000,87.35533905,16072,16.0644,16.76
random512-10-2.map,random512-10-2.map.scen,4,BFS,1.0,218,True,92.0000,86.14213562,15039,15.1486,6.80
random512-10-2.map,random512-10-2.map.scen,4,BFS,1.0,219,True,90.0000,84.14213562,12233,12.5576,6.96
random512-10-2.map,random512-10-2.map.scen,4,BFS,1.0,220,True,117.0000,91.22539673,23633,24.2220,28.25
random512-10-2.map,random512-10-2.map.scen,4,BFS,1.0,221,True,96.0000,90.72792206,14142,14.1599,5.81
random512-10-2.map,random512-10-2.map.scen,4,BFS,1.0,222,True,121.0000,91.7106781,25923,25.7530,31.94
random512-10-2.map,random512-10-2.map.scen,4,BFS,1.0,223,True,116.0000,91.98275604,22524,23.4147,26.11
random512-10-2.map,random512-10-2.map.scen,4,BFS,1.0,224,True,98.0000,91.55634918,14140,14.1382,7.04
random512-10-2.map,random512-10-2.map.scen,4,BFS,1.0,225,True,93.0000,88.3137085,8854,8.8311,5.31
random512-10-2.map,random512-10-2.map.scen,4,BFS,1.0,226,True,96.0000,90.14213562,10269,10.5124,6.50
random512-10-2.map,random512-10-2.map.scen,4,BFS,1.0,227,True,105.0000,91.52691193,18852,18.5584,14.72
random512-10-2.map,random512-10-2.map.scen,4,BFS,1.0,228,True,110.0000,88.91168823,21546,22.4309,23.72
random512-10-2.map,random512-10-2.map.scen,4,BFS,1.0,229,True,99.0000,89.04163055,14869,14.8810,11.18
random512-10-2.map,random512-10-2.map.scen,4,BFS,1.0,230,True,121.0000,92.29646454,26058,26.3036,31.10
random512-10-2.map,random512-10-2.map.scen,4,BFS,1.0,231,True,111.0000,95.76955261,15806,15.7136,15.90
random512-10-2.map,random512-10-2.map.scen,4,BFS,1.0,232,True,122.0000,93.88225098,21439,21.7669,29.95
random512-10-2.map,random512-10-2.map.scen,4,BFS,1.0,233,True,124.0000,95.29646454,25201,25.4571,30.12
random512-10-2.map,random512-10-2.map.scen,4,BFS,1.0,234,True,98.0000,93.3137085,11748,12.0459,5.02
random512-10-2.map,random512-10-2.map.scen,4,BFS,1.0,235,True,111.0000,94.0121933,20875,21.6981,18.07
random512-10-2.map,random512-10-2.map.scen,4,BFS,1.0,236,True,112.0000,93.84062042,22125,22.5790,19.35
random512-10-2.map,random512-10-2.map.scen,4,BFS,1.0,237,True,105.0000,92.6984848,17149,16.8661,13.27
random512-10-2.map,random512-10-2.map.scen,4,BFS,1.0,238,True,107.0000,93.52691193,20192,20.6107,14.41
random512-10-2.map,random512-10-2.map.scen,4,BFS,1.0,239,True,103.0000,95.04163055,18728,18.9406,8.37
random512-10-2.map,random512-10-2.map.scen,4,BFS,1.0,240,True,128.0000,99.88225098,28011,28.7588,28.15
random512-10-2.map,random512-10-2.map.scen,4,BFS,1.0,241,True,122.0000,98.56854248,26517,26.5006,23.77
random512-10-2.map,random512-10-2.map.scen,4,BFS,1.0,242,True,120.0000,97.15432892,20084,20.1640,23.51
random512-10-2.map,random512-10-2.map.scen,4,BFS,1.0,243,True,128.0000,99.29646454,29050,29.3150,28.91
random512-10-2.map,random512-10-2.map.scen,4,BFS,1.0,244,True,105.0000,99.14213562,19296,19.5628,5.91
random512-10-2.map,random512-10-2.map.scen,4,BFS,1.0,245,True,111.0000,96.94112549,20468,21.8606,14.50
random512-10-2.map,random512-10-2.map.scen,4,BFS,1.0,246,True,111.0000,98.6984848,19820,19.7555,12.46
random512-10-2.map,random512-10-2.map.scen,4,BFS,1.0,247,True,126.0000,97.29646454,24523,25.0219,29.50
random512-10-2.map,random512-10-2.map.scen,4,BFS,1.0,248,True,114.0000,98.76955261,23055,24.6982,15.42
random512-10-2.map,random512-10-2.map.scen,4,BFS,1.0,249,True,129.0000,99.12489166,15429,15.5680,30.14
random512-10-2.map,random512-10-2.map.scen,4,BFS,1.0,250,True,134.0000,102.36753235,18398,19.3471,30.90
random512-10-2.map,random512-10-2.map.scen,4,BFS,1.0,251,True,133.0000,100.19595947,31174,33.8539,32.74
random512-10-2.map,random512-10-2.map.scen,4,BFS,1.0,252,True,124.0000,101.74011536,27148,27.7824,21.88
random512-10-2.map,random512-10-2.map.scen,4,BFS,1.0,253,True,130.0000,103.63961029,27094,27.7410,25.43
random512-10-2.map,random512-10-2.map.scen,4,BFS,1.0,254,True,128.0000,101.63961029,20813,23.2072,25.94
random512-10-2.map,random512-10-2.map.scen,4,BFS,1.0,255,True,113.0000,103.62741699,22300,22.9548,9.04
random512-10-2.map,random512-10-2.map.scen,4,BFS,1.0,256,True,131.0000,101.12489166,19412,19.7940,29.54
random512-10-2.map,random512-10-2.map.scen,4,BFS,1.0,257,True,131.0000,100.53910522,25324,25.9626,30.30
random512-10-2.map,random512-10-2.map.scen,4,BFS,1.0,258,True,107.0000,100.55634918,15461,16.1077,6.41
random512-10-2.map,random512-10-2.map.scen,4,BFS,1.0,259,True,126.0000,101.98275604,23669,25.2518,23.55
random512-10-2.map,random512-10-2.map.scen,4,BFS,1.0,260,True,142.0000,106.85281372,18023,18.9068,32.89
random512-10-2.map,random512-10-2.map.scen,4,BFS,1.0,261,True,146.0000,107.92388153,37891,39.4215,35.28
random512-10-2.map,random512-10-2.map.scen,4,BFS,1.0,262,True,117.0000,105.87005768,24004,25.4246,10.51
random512-10-2.map,random512-10-2.map.scen,4,BFS,1.0,263,True,135.0000,105.12489166,30902,31.4747,28.42
random512-10-2.map,random512-10-2.map.scen,4,BFS,1.0,264,True,117.0000,107.62741699,24409,24.7263,8.71
random512-10-2.map,random512-10-2.map.scen,4,BFS,1.0,265,True,117.0000,107.62741699,24062,24.9250,8.71
random512-10-2.map,random512-10-2.map.scen,4,BFS,1.0,266,True,116.0000,104.87005768,24017,24.4536,10.61
random512-10-2.map,random512-10-2.map.scen,4,BFS,1.0,267,True,115.0000,107.38477631,23272,24.6821,7.09
random512-10-2.map,random512-10-2.map.scen,4,BFS,1.0,268,True,141.0000,107.0243866,32873,33.7100,31.75
random512-10-2.map,random512-10-2.map.scen,4,BFS,1.0,269,True,115.0000,107.97056274,22445,22.9243,6.51
random512-10-2.map,random512-10-2.map.scen,4,BFS,1.0,270,True,117.0000,108.79898987,24075,24.8025,7.54
random512-10-2.map,random512-10-2.map.scen,4,BFS,1.0,271,True,139.0000,110.88225098,34401,34.1748,25.36
random512-10-2.map,random512-10-2.map.scen,4,BFS,1.0,272,True,147.0000,111.26702728,28159,28.7310,32.11
random512-10-2.map,random512-10-2.map.scen,4,BFS,1.0,273,True,143.0000,110.78174591,31138,31.2637,29.08
random512-10-2.map,random512-10-2.map.scen,4,BFS,1.0,274,True,131.0000,111.08326111,30617,30.7566,17.93
random512-10-2.map,random512-10-2.map.scen,4,BFS,1.0,275,True,114.0000,111.65685425,12766,12.6761,2.10
random512-10-2.map,random512-10-2.map.scen,4,BFS,1.0,276,True,122.0000,109.6984848,21320,23.2706,11.21
random512-10-2.map,random512-10-2.map.scen,4,BFS,1.0,277,True,145.0000,110.43860016,31022,31.8099,31.29
random512-10-2.map,random512-10-2.map.scen,4,BFS,1.0,278,True,146.0000,110.85281372,35487,34.8758,31.71
random512-10-2.map,random512-10-2.map.scen,4,BFS,1.0,279,True,124.0000,109.35533905,16601,16.1440,13.39
random512-10-2.map,random512-10-2.map.scen,4,BFS,1.0,280,True,130.0000,112.66904755,29879,30.2372,15.38
random512-10-2.map,random512-10-2.map.scen,4,BFS,1.0,281,True,126.0000,114.87005768,27348,27.9736,9.69
random512-10-2.map,random512-10-2.map.scen,4,BFS,1.0,282,True,149.0000,115.0243866,35787,36.5064,29.54
random512-10-2.map,random512-10-2.map.scen,4,BFS,1.0,283,True,128.0000,115.11269836,28857,29.7975,11.20
random512-10-2.map,random512-10-2.map.scen,4,BFS,1.0,284,True,141.0000,115.22539673,35051,35.4886,22.37
random512-10-2.map,random512-10-2.map.scen,4,BFS,1.0,285,True,130.0000,114.76955261,18997,18.8653,13.27
random512-10-2.map,random512-10-2.map.scen,4,BFS,1.0,286,True,148.0000,112.26702728,38550,39.1889,31.83
random512-10-2.map,random512-10-2.map.scen,4,BFS,1.0,287,True,145.0000,113.36753235,33541,33.3814,27.90
random512-10-2.map,random512-10-2.map.scen,4,BFS,1.0,288,True,133.0000,113.66904755,25640,26.2430,17.01
random512-10-2.map,random512-10-2.map.scen,4,BFS,1.0,289,True,120.0000,112.97056274,24130,24.8093,6.22
random512-10-2.map,random512-10-2.map.scen,4,BFS,1.0,290,True,124.0000,116.38477631,25867,26.8141,6.54
random512-10-2.map,random512-10-2.map.scen,4,BFS,1.0,291,True,142.0000,119.74011536,20446,20.7697,18.59
random512-10-2.map,random512-10-2.map.scen,4,BFS,1.0,292,True,143.0000,116.05382385,24293,25.1756,23.22
random512-10-2.map,random512-10-2.map.scen,4,BFS,1.0,293,True,148.0000,119.29646454,23142,25.0522,24.06
random512-10-2.map,random512-10-2.map.scen,4,BFS,1.0,294,True,133.0000,118.94112549,16679,16.9389,11.82
random512-10-2.map,random512-10-2.map.scen,4,BFS,1.0,295,True,146.0000,118.46803741,37481,37.4671,23.24
random512-10-2.map,random512-10-2.map.scen,4,BFS,1.0,296,True,158.0000,119.92388153,33856,34.5888,31.75
random512-10-2.map,random512-10-2.map.scen,4,BFS,1.0,297,True,127.0000,119.97056274,25390,26.1982,5.86
random512-10-2.map,random512-10-2.map.scen,4,BFS,1.0,298,True,133.0000,117.18376617,17632,17.4031,13.50
random512-10-2.map,random512-10-2.map.scen,4,BFS,1.0,299,True,148.0000,116.95331879,38513,38.8399,26.55
random512-10-2.map,random512-10-2.map.scen,4,BFS,1.0,300,True,139.0000,121.42640686,34284,34.4361,14.47
random512-10-2.map,random512-10-2.map.scen,4,BFS,1.0,301,True,130.0000,123.55634918,29654,29.6953,5.22
random512-10-2.map,random512-10-2.map.scen,4,BFS,1.0,302,True,161.0000,121.16652222,45746,48.1954,32.87
random512-10-2.map,random512-10-2.map.scen,4,BFS,1.0,303,True,150.0000,121.29646454,39644,39.5190,23.66
random512-10-2.map,random512-10-2.map.scen,4,BFS,1.0,304,True,161.0000,122.33809509,32913,32.6354,31.60
random512-10-2.map,random512-10-2.map.scen,4,BFS,1.0,305,True,139.0000,122.59797974,34399,34.8091,13.38
random512-10-2.map,random512-10-2.map.scen,4,BFS,1.0,306,True,160.0000,121.92388153,32153,32.9657,31.23
random512-10-2.map,random512-10-2.map.scen,4,BFS,1.0,307,True,150.0000,122.46803741,39858,39.5667,22.48
random512-10-2.map,random512-10-2.map.scen,4,BFS,1.0,308,True,136.0000,122.52691193,30434,30.8938,11.00
random512-10-2.map,random512-10-2.map.scen,4,BFS,1.0,309,True,149.0000,122.63961029,31507,32.1276,21.49
random512-10-2.map,random512-10-2.map.scen,4,BFS,1.0,310,True,132.0000,124.38477631,28307,28.6629,6.12
random512-10-2.map,random512-10-2.map.scen,4,BFS,1.0,311,True,156.0000,126.7106781,42646,44.7742,23.12
random512-10-2.map,random512-10-2.map.scen,4,BFS,1.0,312,True,134.0000,127.55634918,20440,20.4794,5.05
random512-10-2.map,random512-10-2.map.scen,4,BFS,1.0,313,True,155.0000,127.46803741,42539,46.4648,21.60
random512-10-2.map,random512-10-2.map.scen,4,BFS,1.0,314,True,164.0000,124.75230865,44620,47.5309,31.46
random512-10-2.map,random512-10-2.map.scen,4,BFS,1.0,315,True,131.0000,125.14213562,25415,26.0240,4.68
random512-10-2.map,random512-10-2.map.scen,4,BFS,1.0,316,True,163.0000,127.85281372,47264,49.0357,27.49
random512-10-2.map,random512-10-2.map.scen,4,BFS,1.0,317,True,151.0000,125.81118317,39011,40.2436,20.02
random512-10-2.map,random512-10-2.map.scen,4,BFS,1.0,318,True,133.0000,127.14213562,23493,23.7845,4.61
random512-10-2.map,random512-10-2.map.scen,4,BFS,1.0,319,True,162.0000,127.43860016,39630,40.2690,27.12
random512-10-2.map,random512-10-2.map.scen,4,BFS,1.0,320,True,169.0000,129.16652222,50370,53.5684,30.84
random512-10-2.map,random512-10-2.map.scen,4,BFS,1.0,321,True,141.0000,131.62741699,22799,23.6635,7.12
random512-10-2.map,random512-10-2.map.scen,4,BFS,1.0,322,True,165.0000,128.09545441,48179,53.5793,28.81
random512-10-2.map,random512-10-2.map.scen,4,BFS,1.0,323,True,168.0000,129.92388153,46805,50.8337,29.31
random512-10-2.map,random512-10-2.map.scen,4,BFS,1.0,324,True,148.0000,131.84062042,38746,38.9088,12.26
random512-10-2.map,random512-10-2.map.scen,4,BFS,1.0,325,True,168.0000,129.33809509,49626,51.6252,29.89
random512-10-2.map,random512-10-2.map.scen,4,BFS,1.0,326,True,168.0000,131.09545441,47745,51.5530,28.15
random512-10-2.map,random512-10-2.map.scen,4,BFS,1.0,327,True,139.0000,130.79898987,30185,30.5660,6.27
random512-10-2.map,random512-10-2.map.scen,4,BFS,1.0,328,True,143.0000,131.28427124,36205,37.3803,8.92
random512-10-2.map,random512-10-2.map.scen,4,BFS,1.0,329,True,170.0000,129.58073578,44029,46.9417,31.19
random512-10-2.map,random512-10-2.map.scen,4,BFS,1.0,330,True,140.0000,134.72792206,22415,23.1146,3.91
random512-10-2.map,random512-10-2.map.scen,4,BFS,1.0,331,True,145.0000,133.87005768,14285,14.7138,8.31
random512-10-2.map,random512-10-2.map.scen,4,BFS,1.0,332,True,157.0000,135.32590179,43723,47.6246,16.02
random512-10-2.map,random512-10-2.map.scen,4,BFS,1.0,333,True,146.0000,132.52691193,27213,27.2607,10.17
random512-10-2.map,random512-10-2.map.scen,4,BFS,1.0,334,True,147.0000,133.52691193,35104,36.2401,10.09
random512-10-2.map,random512-10-2.map.scen,4,BFS,1.0,335,True,172.0000,133.33809509,34521,35.0685,29.00
random512-10-2.map,random512-10-2.map.scen,4,BFS,1.0,336,True,170.0000,134.26702728,33158,33.9454,26.61
random512-10-2.map,random512-10-2.map.scen,4,BFS,1.0,337,True,172.0000,132.75230865,52198,55.4763,29.56
random512-10-2.map,random512-10-2.map.scen,4,BFS,1.0,338,True,166.0000,133.19595947,47867,49.5025,24.63
random512-10-2.map,random512-10-2.map.scen,4,BFS,1.0,339,True,152.0000,135.59797974,25543,26.4188,12.10
random512-10-2.map,random512-10-2.map.scen,4,BFS,1.0,340,True,171.0000,139.36753235,40576,41.3313,22.70
random512-10-2.map,random512-10-2.map.scen,4,BFS,1.0,341,True,144.0000,136.97056274,35553,37.2243,5.13
random512-10-2.map,random512-10-2.map.scen,4,BFS,1.0,342,True,182.0000,138.65180359,45037,48.1656,31.26
random512-10-2.map,random512-10-2.map.scen,4,BFS,1.0,343,True,144.0000,137.55634918,29152,29.3465,4.68
random512-10-2.map,random512-10-2.map.scen,4,BFS,1.0,344,True,146.0000,137.79898987,22087,22.7233,5.95
random512-10-2.map,random512-10-2.map.scen,4,BFS,1.0,345,True,163.0000,137.81118317,46636,49.3323,18.28
random512-10-2.map,random512-10-2.map.scen,4,BFS,1.0,346,True,180.0000,137.82337646,56525,58.2366,30.60
random512-10-2.map,random512-10-2.map.scen,4,BFS,1.0,347,True,155.0000,137.42640686,34560,34.8248,12.79
random512-10-2.map,random512-10-2.map.scen,4,BFS,1.0,348,True,181.0000,139.99494934,57665,59.6781,29.29
random512-10-2.map,random512-10-2.map.scen,4,BFS,1.0,349,True,172.0000,139.78174591,26249,26.1124,23.05
random512-10-2.map,random512-10-2.map.scen,4,BFS,1.0,350,True,173.0000,141.95331879,51203,53.5010,21.87
random512-10-2.map,random512-10-2.map.scen,4,BFS,1.0,351,True,184.0000,140.65180359,59664,60.8653,30.82
random512-10-2.map,random512-10-2.map.scen,4,BFS,1.0,352,True,154.0000,140.52691193,29417,29.6860,9.59
random512-10-2.map,random512-10-2.map.scen,4,BFS,1.0,353,True,165.0000,143.91168823,25771,26.4272,14.65
random512-10-2.map,random512-10-2.map.scen,4,BFS,1.0,354,True,152.0000,141.45584412,30732,31.8584,7.45
random512-10-2.map,random512-10-2.map.scen,4,BFS,1.0,355,True,148.0000,141.55634918,29478,30.2610,4.55
random512-10-2.map,random512-10-2.map.scen,4,BFS,1.0,356,True,150.0000,140.04163055,39937,40.7607,7.11
random512-10-2.map,random512-10-2.map.scen,4,BFS,1.0,357,True,178.0000,141.09545441,50749,53.7651,26.16
random512-10-2.map,random512-10-2.map.scen,4,BFS,1.0,358,True,172.0000,142.12489166,49809,53.3490,21.02
random512-10-2.map,random512-10-2.map.scen,4,BFS,1.0,359,True,183.0000,143.75230865,58687,60.2735,27.30
random512-10-2.map,random512-10-2.map.scen,4,BFS,1.0,360,True,169.0000,146.74011536,43284,45.1950,15.17
random512-10-2.map,random512-10-2.map.scen,4,BFS,1.0,361,True,173.0000,144.29646454,33586,33.1661,19.89
random512-10-2.map,random512-10-2.map.scen,4,BFS,1.0,362,True,169.0000,147.91168823,48349,50.9105,14.26
random512-10-2.map,random512-10-2.map.scen,4,BFS,1.0,363,True,152.0000,145.55634918,33468,43.7979,4.43
random512-10-2.map,random512-10-2.map.scen,4,BFS,1.0,364,True,177.0000,144.19595947,53659,61.3919,22.75
random512-10-2.map,random512-10-2.map.scen,4,BFS,1.0,365,True,172.0000,147.98275604,43417,52.6148,16.23
random512-10-2.map,random512-10-2.map.scen,4,BFS,1.0,366,True,179.0000,144.43860016,27430,33.8361,23.93
random512-10-2.map,random512-10-2.map.scen,4,BFS,1.0,367,True,180.0000,144.85281372,54349,63.6896,24.26
random512-10-2.map,random512-10-2.map.scen,4,BFS,1.0,368,True,176.0000,147.29646454,55122,60.2675,19.49
random512-10-2.map,random512-10-2.map.scen,4,BFS,1.0,369,True,157.0000,145.87005768,43379,51.6579,7.63
random512-10-2.map,random512-10-2.map.scen,4,BFS,1.0,370,True,192.0000,150.99494934,60420,63.5478,27.16
random512-10-2.map,random512-10-2.map.scen,4,BFS,1.0,371,True,185.0000,151.0243866,58243,59.2768,22.50
random512-10-2.map,random512-10-2.map.scen,4,BFS,1.0,372,True,183.0000,150.19595947,42177,45.1704,21.84
random512-10-2.map,random512-10-2.map.scen,4,BFS,1.0,373,True,195.0000,151.06601715,32701,33.8564,29.08
random512-10-2.map,random512-10-2.map.scen,4,BFS,1.0,374,True,191.0000,150.58073578,64518,67.2485,26.84
random512-10-2.map,random512-10-2.map.scen,4,BFS,1.0,375,True,195.0000,148.13708496,67217,67.9871,31.63
random512-10-2.map,random512-10-2.map.scen,4,BFS,1.0,376,True,182.0000,151.53910522,55341,57.6568,20.10
random512-10-2.map,random512-10-2.map.scen,4,BFS,1.0,377,True,158.0000,149.79898987,35272,36.1219,5.47
random512-10-2.map,random512-10-2.map.scen,4,BFS,1.0,378,True,171.0000,149.91168823,29252,41.1797,14.07
random512-10-2.map,random512-10-2.map.scen,4,BFS,1.0,379,True,158.0000,151.55634918,44495,66.9758,4.25
random512-10-2.map,random512-10-2.map.scen,4,BFS,1.0,380,True,201.0000,155.89444427,47037,87.3213,28.93
random512-10-2.map,random512-10-2.map.scen,4,BFS,1.0,381,True,178.0000,155.74011536,51706,73.6885,14.29
random512-10-2.map,random512-10-2.map.scen,4,BFS,1.0,382,True,164.0000,155.79898987,30812,45.8291,5.26
random512-10-2.map,random512-10-2.map.scen,4,BFS,1.0,383,True,160.0000,155.3137085,39449,53.0698,3.02
random512-10-2.map,random512-10-2.map.scen,4,BFS,1.0,384,True,173.0000,153.08326111,30216,42.1003,13.01
random512-10-2.map,random512-10-2.map.scen,4,BFS,1.0,385,True,158.0000,152.14213562,43938,62.3688,3.85
random512-10-2.map,random512-10-2.map.scen,4,BFS,1.0,386,True,180.0000,152.46803741,56033,78.9669,18.06
random512-10-2.map,random512-10-2.map.scen,4,BFS,1.0,387,True,202.0000,152.20815277,42969,60.3942,32.71
random512-10-2.map,random512-10-2.map.scen,4,BFS,1.0,388,True,200.0000,154.30865784,65951,90.1150,29.61
random512-10-2.map,random512-10-2.map.scen,4,BFS,1.0,389,True,197.0000,152.48023071,56276,76.8826,29.20
random512-10-2.map,random512-10-2.map.scen,4,BFS,1.0,390,True,198.0000,156.99494934,47032,67.5373,26.12
random512-10-2.map,random512-10-2.map.scen,4,BFS,1.0,391,True,208.0000,157.03657989,75240,105.9740,32.45
random512-10-2.map,random512-10-2.map.scen,4,BFS,1.0,392,True,170.0000,159.45584412,31308,25346450.8411,6.61
random512-10-2.map,random512-10-2.map.scen,4,BFS,1.0,393,True,177.0000,157.08326111,48139,1180.1971,12.68
random512-10-2.map,random512-10-2.map.scen,4,BFS,1.0,394,True,180.0000,158.32590179,34798,593.9391,13.69
random512-10-2.map,random512-10-2.map.scen,4,BFS,1.0,395,True,207.0000,157.79393921,61731,860.3463,31.18
random512-10-2.map,random512-10-2.map.scen,4,BFS,1.0,396,True,190.0000,158.36753235,19043,267.7796,19.97
random512-10-2.map,random512-10-2.map.scen,4,BFS,1.0,397,True,192.0000,158.61017303,47008,651.9681,21.05
random512-10-2.map,random512-10-2.map.scen,4,BFS,1.0,398,True,171.0000,156.94112549,52016,810.8283,8.96
random512-10-2.map,random512-10-2.map.scen,4,BFS,1.0,399,True,163.0000,158.89949493,38282,520.8293,2.58
random512-10-2.map,random512-10-2.map.scen,4,BFS,1.0,400,True,172.0000,161.6984848,50546,652.0008,6.37
random512-10-2.map,random512-10-2.map.scen,4,BFS,1.0,401,True,212.0000,162.79393921,68047,934.7756,30.23
random512-10-2.map,random512-10-2.map.scen,4,BFS,1.0,402,True,188.0000,162.81118317,62794,959.3331,15.47
random512-10-2.map,random512-10-2.map.scen,4,BFS,1.0,403,True,194.0000,161.43860016,45935,645.0582,20.17
random512-10-2.map,random512-10-2.map.scen,4,BFS,1.0,404,True,197.0000,160.09545441,67739,1070.5112,23.05
random512-10-2.map,random512-10-2.map.scen,4,BFS,1.0,405,True,183.0000,163.08326111,42231,686.9091,12.21
random512-10-2.map,random512-10-2.map.scen,4,BFS,1.0,406,True,178.0000,160.42640686,55810,1256.8125,10.95
random512-10-2.map,random512-10-2.map.scen,4,BFS,1.0,407,True,184.0000,160.56854248,36056,574.4782,14.59
random512-10-2.map,random512-10-2.map.scen,4,BFS,1.0,408,True,198.0000,161.68124084,69370,992.6163,22.46
random512-10-2.map,random512-10-2.map.scen,4,BFS,1.0,409,True,200.0000,160.75230865,70641,1116.8977,24.42
random512-10-2.map,random512-10-2.map.scen,4,BFS,1.0,410,True,180.0000,167.6984848,51792,868.4447,7.34
random512-10-2.map,random512-10-2.map.scen,4,BFS,1.0,411,True,171.0000,164.55634918,42108,863.1216,3.92
random512-10-2.map,random512-10-2.map.scen,4,BFS,1.0,412,True,204.0000,167.09545441,39236,769.2052,22.09
random512-10-2.map,random512-10-2.map.scen,4,BFS,1.0,413,True,193.0000,165.46803741,60626,914.7967,16.64
random512-10-2.map,random512-10-2.map.scen,4,BFS,1.0,414,True,215.0000,165.79393921,81737,1295.9287,29.68
random512-10-2.map,random512-10-2.map.scen,4,BFS,1.0,415,True,208.0000,165.82337646,59951,1128.4340,25.43
random512-10-2.map,random512-10-2.map.scen,4,BFS,1.0,416,True,191.0000,166.98275604,64236,1112.7153,14.38
random512-10-2.map,random512-10-2.map.scen,4,BFS,1.0,417,True,194.0000,165.88225098,57455,842.1177,16.95
random512-10-2.map,random512-10-2.map.scen,4,BFS,1.0,418,True,219.0000,164.52186127,65953,906.6046,33.11
random512-10-2.map,random512-10-2.map.scen,4,BFS,1.0,419,True,174.0000,165.79898987,53640,679.4786,4.95
random512-10-2.map,random512-10-2.map.scen,4,BFS,1.0,420,True,205.0000,168.68124084,69822,964.7942,21.53
random512-10-2.map,random512-10-2.map.scen,4,BFS,1.0,421,True,207.0000,170.68124084,75875,1022.6903,21.28
random512-10-2.map,random512-10-2.map.scen,4,BFS,1.0,422,True,200.0000,168.95331879,67581,946.6304,18.38
random512-10-2.map,random512-10-2.map.scen,4,BFS,1.0,423,True,217.0000,170.13708496,44910,699.7976,27.54
random512-10-2.map,random512-10-2.map.scen,4,BFS,1.0,424,True,190.0000,171.84062042,54266,603.6756,10.57
random512-10-2.map,random512-10-2.map.scen,4,BFS,1.0,425,True,177.0000,170.55634918,55659,729.5482,3.78
random512-10-2.map,random512-10-2.map.scen,4,BFS,1.0,426,True,184.0000,169.35533905,56603,659.1354,8.65
random512-10-2.map,random512-10-2.map.scen,4,BFS,1.0,427,True,177.0000,168.21320343,38471,498.5958,5.22
random512-10-2.map,random512-10-2.map.scen,4,BFS,1.0,428,True,179.0000,171.97056274,54857,733.7427,4.09
random512-10-2.map,random512-10-2.map.scen,4,BFS,1.0,429,True,182.0000,169.35533905,36291,474.1713,7.47
random512-10-2.map,random512-10-2.map.scen,4,BFS,1.0,430,True,232.0000,175.17871551,80339,911.0366,32.44
random512-10-2.map,random512-10-2.map.scen,4,BFS,1.0,431,True,187.0000,175.87005768,61778,700.9508,6.33
random512-10-2.map,random512-10-2.map.scen,4,BFS,1.0,432,True,216.0000,174.4091629,69849,754.4308,23.85
random512-10-2.map,random512-10-2.map.scen,4,BFS,1.0,433,True,227.0000,174.27922058,42543,495.1165,30.25
random512-10-2.map,random512-10-2.map.scen,4,BFS,1.0,434,True,193.0000,173.08326111,60525,712.5203,11.51
random512-10-2.map,random512-10-2.map.scen,4,BFS,1.0,435,True,200.0000,174.81118317,38325,496.2454,14.41
random512-10-2.map,random512-10-2.map.scen,4,BFS,1.0,436,True,183.0000,174.21320343,38936,466.1022,5.04
random512-10-2.map,random512-10-2.map.scen,4,BFS,1.0,437,True,220.0000,174.55129852,82941,987.3657,26.04
random512-10-2.map,random512-10-2.map.scen,4,BFS,1.0,438,True,182.0000,174.38477631,30876,345.2238,4.37
random512-10-2.map,random512-10-2.map.scen,4,BFS,1.0,439,True,182.0000,173.79898987,58510,771.3559,4.72
random512-10-2.map,random512-10-2.map.scen,4,BFS,1.0,440,True,186.0000,177.79898987,33427,391.4512,4.61
random512-10-2.map,random512-10-2.map.scen,4,BFS,1.0,441,True,235.0000,177.59292908,39070,410.7526,32.33
random512-10-2.map,random512-10-2.map.scen,4,BFS,1.0,442,True,219.0000,179.75230865,80412,977.0776,21.83
random512-10-2.map,random512-10-2.map.scen,4,BFS,1.0,443,True,193.0000,178.94112549,65782,698.3331,7.86
random512-10-2.map,random512-10-2.map.scen,4,BFS,1.0,444,True,235.0000,179.93607483,63505,668.9372,30.60
random512-10-2.map,random512-10-2.map.scen,4,BFS,1.0,445,True,192.0000,178.52691193,29349,322.1472,7.55
random512-10-2.map,random512-10-2.map.scen,4,BFS,1.0,446,True,214.0000,177.68124084,72889,824.9474,20.44
random512-10-2.map,random512-10-2.map.scen,4,BFS,1.0,447,True,241.0000,177.7350647,76494,836.6504,35.60
random512-10-2.map,random512-10-2.map.scen,4,BFS,1.0,448,True,191.0000,179.28427124,35162,376.6267,6.53
random512-10-2.map,random512-10-2.map.scen,4,BFS,1.0,449,True,231.0000,176.52186127,92607,1408.3146,30.86
random512-10-2.map,random512-10-2.map.scen,4,BFS,1.0,450,True,224.0000,181.82337646,53731,711.0083,23.20
random512-10-2.map,random512-10-2.map.scen,4,BFS,1.0,451,True,188.0000,182.14213562,62229,691.9639,3.22
random512-10-2.map,random512-10-2.map.scen,4,BFS,1.0,452,True,196.0000,183.35533905,54897,617.1308,6.90
random512-10-2.map,random512-10-2.map.scen,4,BFS,1.0,453,True,227.0000,183.65180359,91154,1046.7413,23.60
random512-10-2.map,random512-10-2.map.scen,4,BFS,1.0,454,True,221.0000,181.75230865,86335,995.7385,21.59
random512-10-2.map,random512-10-2.map.scen,4,BFS,1.0,455,True,189.0000,182.55634918,51250,571.3915,3.53
random512-10-2.map,random512-10-2.map.scen,4,BFS,1.0,456,True,203.0000,181.91168823,38682,394.7014,11.59
random512-10-2.map,random512-10-2.map.scen,4,BFS,1.0,457,True,242.0000,180.49242401,69379,717.0644,34.08
random512-10-2.map,random512-10-2.map.scen,4,BFS,1.0,458,True,212.0000,180.95331879,46087,522.0878,17.16
random512-10-2.map,random512-10-2.map.scen,4,BFS,1.0,459,True,224.0000,181.82337646,48588,515.0098,23.20
random512-10-2.map,random512-10-2.map.scen,4,BFS,1.0,460,True,203.0000,187.18376617,73356,773.6812,8.45
random512-10-2.map,random512-10-2.map.scen,4,BFS,1.0,461,True,238.0000,185.86500702,38558,399.7426,28.05
random512-10-2.map,random512-10-2.map.scen,4,BFS,1.0,462,True,219.0000,184.43860016,76304,831.5479,18.74
random512-10-2.map,random512-10-2.map.scen,4,BFS,1.0,463,True,211.0000,187.56854248,54807,596.8960,12.49
random512-10-2.map,random512-10-2.map.scen,4,BFS,1.0,464,True,243.0000,185.59292908,82611,895.2293,30.93
random512-10-2.map,random512-10-2.map.scen,4,BFS,1.0,465,True,245.0000,185.24978332,86418,1000.0662,32.25
random512-10-2.map,random512-10-2.map.scen,4,BFS,1.0,466,True,240.0000,186.69343414,56805,604.8164,28.55
random512-10-2.map,random512-10-2.map.scen,4,BFS,1.0,467,True,231.0000,187.06601715,33923,360.5001,23.49
random512-10-2.map,random512-10-2.map.scen,4,BFS,1.0,468,True,207.0000,184.74011536,75713,812.4481,12.05
random512-10-2.map,random512-10-2.map.scen,4,BFS,1.0,469,True,211.0000,185.22539673,69068,730.4587,13.92
random512-10-2.map,random512-10-2.map.scen,4,BFS,1.0,470,True,230.0000,188.99494934,79612,842.2743,21.70
random512-10-2.map,random512-10-2.map.scen,4,BFS,1.0,471,True,215.0000,190.98275604,48104,502.6174,12.58
random512-10-2.map,random512-10-2.map.scen,4,BFS,1.0,472,True,214.0000,189.3969696,41832,463.9323,12.99
random512-10-2.map,random512-10-2.map.scen,4,BFS,1.0,473,True,250.0000,189.07821045,92205,993.1686,32.22
random512-10-2.map,random512-10-2.map.scen,4,BFS,1.0,474,True,241.0000,188.27922058,96962,1064.2076,28.00
random512-10-2.map,random512-10-2.map.scen,4,BFS,1.0,475,True,255.0000,191.14927826,105088,1220.9997,33.40
random512-10-2.map,random512-10-2.map.scen,4,BFS,1.0,476,True,219.0000,190.88225098,62761,641.0181,14.73
random512-10-2.map,random512-10-2.map.scen,4,BFS,1.0,477,True,249.0000,190.4213562,63075,698.6044,30.76
random512-10-2.map,random512-10-2.map.scen,4,BFS,1.0,478,True,222.0000,190.36753235,45685,492.1163,16.62
random512-10-2.map,random512-10-2.map.scen,4,BFS,1.0,479,True,254.0000,191.90663757,99894,1081.8939,32.36
random512-10-2.map,random512-10-2.map.scen,4,BFS,1.0,480,True,256.0000,193.90663757,61554,751.0436,32.02
random512-10-2.map,random512-10-2.map.scen,4,BFS,1.0,481,True,229.0000,195.0243866,90783,1108.6819,17.42
random512-10-2.map,random512-10-2.map.scen,4,BFS,1.0,482,True,253.0000,192.07821045,59463,738.8154,31.72
random512-10-2.map,random512-10-2.map.scen,4,BFS,1.0,483,True,235.0000,192.82337646,94040,1227.8597,21.87
random512-10-2.map,random512-10-2.map.scen,4,BFS,1.0,484,True,226.0000,194.36753235,59867,734.4163,16.27
random512-10-2.map,random512-10-2.map.scen,4,BFS,1.0,485,True,239.0000,192.7228714,37236,431.5494,24.01
random512-10-2.map,random512-10-2.map.scen,4,BFS,1.0,486,True,248.0000,194.1076477,83510,1130.0134,27.76
random512-10-2.map,random512-10-2.map.scen,4,BFS,1.0,487,True,258.0000,194.14927826,115605,1450.6813,32.89
random512-10-2.map,random512-10-2.map.scen,4,BFS,1.0,488,True,215.0000,192.15432892,53644,675.4700,11.89
random512-10-2.map,random512-10-2.map.scen,4,BFS,1.0,489,True,236.0000,194.4091629,90079,1180.7290,21.39
random512-10-2.map,random512-10-2.map.scen,4,BFS,1.0,490,True,226.0000,199.05382385,89253,1181.3582,13.54
random512-10-2.map,random512-10-2.map.scen,4,BFS,1.0,491,True,266.0000,199.22034607,112042,1424.6798,33.52
random512-10-2.map,random512-10-2.map.scen,4,BFS,1.0,492,True,245.0000,197.55129852,72426,865.8215,24.02
random512-10-2.map,random512-10-2.map.scen,4,BFS,1.0,493,True,257.0000,196.07821045,98262,1329.8827,31.07
random512-10-2.map,random512-10-2.map.scen,4,BFS,1.0,494,True,250.0000,196.1076477,104426,1144.5196,27.48
random512-10-2.map,random512-10-2.map.scen,4,BFS,1.0,495,True,206.0000,198.62741699,54651,187.2828,3.71
random512-10-2.map,random512-10-2.map.scen,4,BFS,1.0,496,True,225.0000,197.46803741,82615,133.7305,13.94
random512-10-2.map,random512-10-2.map.scen,4,BFS,1.0,497,True,215.0000,198.84062042,79639,104.3069,8.13
random512-10-2.map,random512-10-2.map.scen,4,BFS,1.0,498,True,229.0000,198.53910522,92306,125.8811,15.34
random512-10-2.map,random512-10-2.map.scen,4,BFS,1.0,499,True,247.0000,197.20815277,107211,145.6096,25.25
random512-10-2.map,random512-10-2.map.scen,4,BFS,1.0,500,True,264.0000,202.49242401,100901,135.6328,30.38
random512-10-2.map,random512-10-2.map.scen,4,BFS,1.0,501,True,253.0000,202.03657989,77187,100.7145,25.22
random512-10-2.map,random512-10-2.map.scen,4,BFS,1.0,502,True,248.0000,202.30865784,95124,126.8122,22.58
random512-10-2.map,random512-10-2.map.scen,4,BFS,1.0,503,True,239.0000,203.26702728,53399,72.0398,17.58
random512-10-2.map,random512-10-2.map.scen,4,BFS,1.0,504,True,265.0000,201.14927826,98244,131.8604,31.74
random512-10-2.map,random512-10-2.map.scen,4,BFS,1.0,505,True,221.0000,202.25483398,86719,119.7389,9.27
random512-10-2.map,random512-10-2.map.scen,4,BFS,1.0,506,True,228.0000,203.98275604,88567,121.4460,11.77
random512-10-2.map,random512-10-2.map.scen,4,BFS,1.0,507,True,272.0000,202.87720032,104124,139.2434,34.07
random512-10-2.map,random512-10-2.map.scen,4,BFS,1.0,508,True,209.0000,200.79898987,71176,92.1150,4.08
random512-10-2.map,random512-10-2.map.scen,4,BFS,1.0,509,True,267.0000,200.80613251,98300,132.9233,32.96
random512-10-2.map,random512-10-2.map.scen,4,BFS,1.0,510,True,266.0000,206.24978332,124987,163.9555,28.97
random512-10-2.map,random512-10-2.map.scen,4,BFS,1.0,511,True,230.0000,207.15432892,81587,104.9414,11.03
random512-10-2.map,random512-10-2.map.scen,4,BFS,1.0,512,True,216.0000,205.6984848,48373,65.3213,5.01
random512-10-2.map,random512-10-2.map.scen,4,BFS,1.0,513,True,238.0000,205.78174591,83229,105.5276,15.66
random512-10-2.map,random512-10-2.map.scen,4,BFS,1.0,514,True,227.0000,205.91168823,79056,101.6539,10.24
random512-10-2.map,random512-10-2.map.scen,4,BFS,1.0,515,True,235.0000,205.36753235,62004,81.6302,14.43
random512-10-2.map,random512-10-2.map.scen,4,BFS,1.0,516,True,230.0000,204.22539673,70155,91.4383,12.62
random512-10-2.map,random512-10-2.map.scen,4,BFS,1.0,517,True,266.0000,205.66399689,118644,158.5358,29.34
random512-10-2.map,random512-10-2.map.scen,4,BFS,1.0,518,True,249.0000,207.4091629,80731,104.1114,20.05
random512-10-2.map,random512-10-2.map.scen,4,BFS,1.0,519,True,264.0000,206.00714264,97759,132.4666,28.15
random512-10-2.map,random512-10-2.map.scen,4,BFS,1.0,520,True,238.0000,209.29646454,90514,126.6503,13.71
random512-10-2.map,random512-10-2.map.scen,4,BFS,1.0,521,True,228.0000,209.25483398,81141,103.8150,8.96
random512-10-2.map,random512-10-2.map.scen,4,BFS,1.0,522,True,267.0000,210.17871551,73595,96.5598,27.03
random512-10-2.map,random512-10-2.map.scen,4,BFS,1.0,523,True,230.0000,209.49747467,49729,65.6941,9.79
random512-10-2.map,random512-10-2.map.scen,4,BFS,1.0,524,True,220.0000,210.62741699,48108,65.9987,4.45
random512-10-2.map,random512-10-2.map.scen,4,BFS,1.0,525,True,225.0000,211.52691193,47283,64.0979,6.37
random512-10-2.map,random512-10-2.map.scen,4,BFS,1.0,526,True,218.0000,208.62741699,77814,98.9162,4.49
random512-10-2.map,random512-10-2.map.scen,4,BFS,1.0,527,True,219.0000,211.38477631,82863,106.1243,3.60
random512-10-2.map,random512-10-2.map.scen,4,BFS,1.0,528,True,223.0000,209.52691193,28883,36.7413,6.43
random512-10-2.map,random512-10-2.map.scen,4,BFS,1.0,529,True,279.0000,210.46298675,130642,173.3870,32.56
random512-10-2.map,random512-10-2.map.scen,4,BFS,1.0,530,True,221.0000,212.21320343,55221,74.9734,4.14
random512-10-2.map,random512-10-2.map.scen,4,BFS,1.0,531,True,257.0000,214.23759003,94312,166.6640,19.96
random512-10-2.map,random512-10-2.map.scen,4,BFS,1.0,532,True,281.0000,215.97770538,54887,72.2840,30.11
random512-10-2.map,random512-10-2.map.scen,4,BFS,1.0,533,True,255.0000,212.23759003,47545,62.8750,20.15
random512-10-2.map,random512-10-2.map.scen,4,BFS,1.0,534,True,280.0000,215.56349182,133606,171.8355,29.89
random512-10-2.map,random512-10-2.map.scen,4,BFS,1.0,535,True,284.0000,212.53405456,114030,147.8786,33.63
random512-10-2.map,random512-10-2.map.scen,4,BFS,1.0,536,True,277.0000,212.56349182,72999,93.4420,30.31
random512-10-2.map,random512-10-2.map.scen,4,BFS,1.0,537,True,287.0000,213.77669525,118253,162.0173,34.25
random512-10-2.map,random512-10-2.map.scen,4,BFS,1.0,538,True,248.0000,213.43860016,90929,125.2729,16.19
random512-10-2.map,random512-10-2.map.scen,4,BFS,1.0,539,True,246.0000,214.95331879,76088,102.6887,14.44
random512-10-2.map,random512-10-2.map.scen,4,BFS,1.0,540,True,280.0000,219.07821045,76895,104.3354,27.81
random512-10-2.map,random512-10-2.map.scen,4,BFS,1.0,541,True,231.0000,219.87005768,92965,132.1069,5.06
random512-10-2.map,random512-10-2.map.scen,4,BFS,1.0,542,True,240.0000,217.3969696,61816,85.4635,10.40
random512-10-2.map,random512-10-2.map.scen,4,BFS,1.0,543,True,229.0000,217.28427124,62477,86.5570,5.39
random512-10-2.map,random512-10-2.map.scen,4,BFS,1.0,544,True,287.0000,216.70562744,119693,176.8302,32.44
random512-10-2.map,random512-10-2.map.scen,4,BFS,1.0,545,True,237.0000,219.42640686,53603,75.6951,8.01
random512-10-2.map,random512-10-2.map.scen,4,BFS,1.0,546,True,284.0000,219.56349182,73664,104.5638,29.35
random512-10-2.map,random512-10-2.map.scen,4,BFS,1.0,547,True,286.0000,216.29141388,137824,183.8665,32.23
random512-10-2.map,random512-10-2.map.scen,4,BFS,1.0,548,True,273.0000,216.17871551,98136,129.4961,26.28
random512-10-2.map,random512-10-2.map.scen,4,BFS,1.0,549,True,234.0000,218.76955261,80385,100.3408,6.96
random512-10-2.map,random512-10-2.map.scen,4,BFS,1.0,550,True,293.0000,220.94826813,81945,113.0143,32.61
random512-10-2.map,random512-10-2.map.scen,4,BFS,1.0,551,True,261.0000,221.16652222,77936,176.1866,18.01
random512-10-2.map,random512-10-2.map.scen,4,BFS,1.0,552,True,230.0000,220.04163055,77085,108.9114,4.53
random512-10-2.map,random512-10-2.map.scen,4,BFS,1.0,553,True,232.0000,222.62741699,69400,90.8675,4.21
random512-10-2.map,random512-10-2.map.scen,4,BFS,1.0,554,True,277.0000,220.4213562,86114,119.8102,25.67
random512-10-2.map,random512-10-2.map.scen,4,BFS,1.0,555,True,239.0000,220.84062042,79112,113.3818,8.22
random512-10-2.map,random512-10-2.map.scen,4,BFS,1.0,556,True,276.0000,222.1076477,126469,179.1067,24.26
random512-10-2.map,random512-10-2.map.scen,4,BFS,1.0,557,True,265.0000,220.48023071,119583,164.2367,20.19
random512-10-2.map,random512-10-2.map.scen,4,BFS,1.0,558,True,231.0000,221.04163055,47755,74.7655,4.51
random512-10-2.map,random512-10-2.map.scen,4,BFS,1.0,559,True,283.0000,222.66399689,115320,169.6912,27.10
random512-10-2.map,random512-10-2.map.scen,4,BFS,1.0,560,True,259.0000,225.61017303,72631,102.7670,14.80
random512-10-2.map,random512-10-2.map.scen,4,BFS,1.0,561,True,247.0000,224.74011536,97581,136.1232,9.90
random512-10-2.map,random512-10-2.map.scen,4,BFS,1.0,562,True,265.0000,225.16652222,83359,111.6854,17.69
random512-10-2.map,random512-10-2.map.scen,4,BFS,1.0,563,True,271.0000,224.7228714,102518,135.4578,20.59
random512-10-2.map,random512-10-2.map.scen,4,BFS,1.0,564,True,256.0000,227.29646454,60235,76.5645,12.63
random512-10-2.map,random512-10-2.map.scen,4,BFS,1.0,565,True,241.0000,224.25483398,102892,135.9184,7.47
random512-10-2.map,random512-10-2.map.scen,4,BFS,1.0,566,True,289.0000,226.90663757,141751,185.9928,27.37
random512-10-2.map,random512-10-2.map.scen,4,BFS,1.0,567,True,263.0000,225.50966797,86537,116.6180,16.62
random512-10-2.map,random512-10-2.map.scen,4,BFS,1.0,568,True,277.0000,226.62236633,76771,94.8716,22.23
random512-10-2.map,random512-10-2.map.scen,4,BFS,1.0,569,True,295.0000,224.70562744,77727,98.7535,31.28
random512-10-2.map,random512-10-2.map.scen,4,BFS,1.0,570,True,295.0000,229.39191894,129883,166.6677,28.60
random512-10-2.map,random512-10-2.map.scen,4,BFS,1.0,571,True,291.0000,230.66399689,126822,163.5215,26.16
random512-10-2.map,random512-10-2.map.scen,4,BFS,1.0,572,True,255.0000,228.05382385,99151,130.2266,11.82
random512-10-2.map,random512-10-2.map.scen,4,BFS,1.0,573,True,304.0000,230.77669525,128369,163.7530,31.73
random512-10-2.map,random512-10-2.map.scen,4,BFS,1.0,574,True,256.0000,230.22539673,67930,85.4695,11.20
random512-10-2.map,random512-10-2.map.scen,4,BFS,1.0,575,True,289.0000,231.59292908,84224,105.4169,24.79
random512-10-2.map,random512-10-2.map.scen,4,BFS,1.0,576,True,291.0000,229.49242401,101474,133.2000,26.80
random512-10-2.map,random512-10-2.map.scen,4,BFS,1.0,577,True,267.0000,230.09545441,103317,131.9402,16.04
random512-10-2.map,random512-10-2.map.scen,4,BFS,1.0,578,True,308.0000,231.84776306,118535,151.3956,32.85
random512-10-2.map,random512-10-2.map.scen,4,BFS,1.0,579,True,285.0000,229.35028839,127740,162.9921,24.26
