MapName,Scenario,Connectivity,Algorithm,Weight,TaskID,Success,PathLength,OptimalLength,ExpandedNodes,TimeMS,Suboptimality
random512-10-1.map,random512-10-1.map.scen,4,BFS,1.0,0,True,2.0000,2.0,9,0.0218,0.00
random512-10-1.map,random512-10-1.map.scen,4,BFS,1.0,1,True,4.0000,3.41421356,31,0.0396,17.16
random512-10-1.map,random512-10-1.map.scen,4,BFS,1.0,3,True,3.0000,2.41421356,21,0.0289,24.26
random512-10-1.map,random512-10-1.map.scen,4,BFS,1.0,5,True,1.0000,1.0,2,0.0036,0.00
random512-10-1.map,random512-10-1.map.scen,4,BFS,1.0,7,True,1.0000,1.0,2,0.0035,0.00
random512-10-1.map,random512-10-1.map.scen,4,BFS,1.0,9,True,4.0000,2.82842712,23,0.0288,41.42
random512-10-1.map,random512-10-1.map.scen,4,BFS,1.0,10,True,7.0000,5.82842712,95,0.1093,20.10
random512-10-1.map,random512-10-1.map.scen,4,BFS,1.0,12,True,6.0000,4.24264069,64,0.0758,41.42
random512-10-1.map,random512-10-1.map.scen,4,BFS,1.0,14,True,7.0000,5.82842712,90,0.1003,20.10
random512-10-1.map,random512-10-1.map.scen,4,BFS,1.0,16,True,4.0000,4.0,22,0.0282,0.00
random512-10-1.map,random512-10-1.map.scen,4,BFS,1.0,18,True,6.0000,6.0,70,0.0825,0.00
random512-10-1.map,random512-10-1.map.scen,4,BFS,1.0,19,True,7.0000,6.41421356,94,0.1060,9.13
random512-10-1.map,random512-10-1.map.scen,4,BFS,1.0,21,True,12.0000,10.24264069,196,0.2462,17.16
random512-10-1.map,random512-10-1.map.scen,4,BFS,1.0,23,True,14.0000,11.07106781,316,0.3863,26.46
random512-10-1.map,random512-10-1.map.scen,4,BFS,1.0,25,True,10.0000,8.82842712,166,0.2282,13.27
random512-10-1.map,random512-10-1.map.scen,4,BFS,1.0,27,True,13.0000,10.07106781,317,0.3803,29.08
random512-10-1.map,random512-10-1.map.scen,4,BFS,1.0,28,True,13.0000,11.82842712,292,0.3452,9.90
random512-10-1.map,random512-10-1.map.scen,4,BFS,1.0,30,True,14.0000,12.82842712,333,0.4008,9.13
random512-10-1.map,random512-10-1.map.scen,4,BFS,1.0,32,True,14.0000,13.41421356,366,0.4282,4.37
random512-10-1.map,random512-10-1.map.scen,4,BFS,1.0,34,True,14.0000,13.41421356,328,0.4216,4.37
random512-10-1.map,random512-10-1.map.scen,4,BFS,1.0,36,True,16.0000,13.07106781,435,0.4827,22.41
random512-10-1.map,random512-10-1.map.scen,4,BFS,1.0,38,True,15.0000,13.82842712,415,0.4936,8.47
random512-10-1.map,random512-10-1.map.scen,4,BFS,1.0,39,True,16.0000,12.48528137,427,0.4783,28.15
random512-10-1.map,random512-10-1.map.scen,4,BFS,1.0,41,True,22.0000,19.65685425,877,0.9513,11.92
random512-10-1.map,random512-10-1.map.scen,4,BFS,1.0,43,True,18.0000,16.24264069,535,0.6114,10.82
random512-10-1.map,random512-10-1.map.scen,4,BFS,1.0,45,True,23.0000,18.89949493,917,0.9782,21.70
random512-10-1.map,random512-10-1.map.scen,4,BFS,1.0,47,True,20.0000,16.48528137,707,0.7901,21.32
random512-10-1.map,random512-10-1.map.scen,4,BFS,1.0,48,True,21.0000,19.24264069,721,0.7985,9.13
random512-10-1.map,random512-10-1.map.scen,4,BFS,1.0,50,True,30.0000,22.97056274,1547,1.8052,30.60
random512-10-1.map,random512-10-1.map.scen,4,BFS,1.0,52,True,30.0000,23.55634918,1556,1.6220,27.35
random512-10-1.map,random512-10-1.map.scen,4,BFS,1.0,54,True,25.0000,22.07106781,1135,1.2361,13.27
random512-10-1.map,random512-10-1.map.scen,4,BFS,1.0,56,True,25.0000,23.82842712,1094,1.3124,4.92
random512-10-1.map,random512-10-1.map.scen,4,BFS,1.0,57,True,23.0000,20.65685425,915,0.9957,11.34
random512-10-1.map,random512-10-1.map.scen,4,BFS,1.0,59,True,27.0000,20.55634918,1268,1.5096,31.35
random512-10-1.map,random512-10-1.map.scen,4,BFS,1.0,61,True,34.0000,27.55634918,2059,2.0540,23.38
random512-10-1.map,random512-10-1.map.scen,4,BFS,1.0,63,True,33.0000,25.97056274,1926,2.0357,27.07
random512-10-1.map,random512-10-1.map.scen,4,BFS,1.0,65,True,28.0000,26.82842712,1433,1.5602,4.37
random512-10-1.map,random512-10-1.map.scen,4,BFS,1.0,66,True,29.0000,27.82842712,1375,1.4413,4.21
random512-10-1.map,random512-10-1.map.scen,4,BFS,1.0,68,True,34.0000,27.55634918,2116,2.1252,23.38
random512-10-1.map,random512-10-1.map.scen,4,BFS,1.0,70,True,36.0000,29.55634918,1873,2.0126,21.80
random512-10-1.map,random512-10-1.map.scen,4,BFS,1.0,72,True,35.0000,29.72792206,2193,2.2634,17.73
random512-10-1.map,random512-10-1.map.scen,4,BFS,1.0,74,True,34.0000,31.65685425,1976,2.0695,7.40
random512-10-1.map,random512-10-1.map.scen,4,BFS,1.0,76,True,33.0000,28.3137085,1920,1.9987,16.55
random512-10-1.map,random512-10-1.map.scen,4,BFS,1.0,77,True,38.0000,31.55634918,2463,2.6033,20.42
random512-10-1.map,random512-10-1.map.scen,4,BFS,1.0,79,True,36.0000,28.38477631,2251,2.5080,26.83
random512-10-1.map,random512-10-1.map.scen,4,BFS,1.0,81,True,47.0000,34.6984848,3920,3.8101,35.45
random512-10-1.map,random512-10-1.map.scen,4,BFS,1.0,83,True,43.0000,34.79898987,3330,3.4186,23.57
random512-10-1.map,random512-10-1.map.scen,4,BFS,1.0,85,True,37.0000,34.07106781,2400,2.4906,8.60
random512-10-1.map,random512-10-1.map.scen,4,BFS,1.0,86,True,38.0000,32.72792206,2513,2.5695,16.11
random512-10-1.map,random512-10-1.map.scen,4,BFS,1.0,88,True,46.0000,34.87005768,3628,3.5955,31.92
random512-10-1.map,random512-10-1.map.scen,4,BFS,1.0,90,True,42.0000,36.72792206,3135,3.2312,14.35
random512-10-1.map,random512-10-1.map.scen,4,BFS,1.0,92,True,42.0000,37.89949493,3063,3.1685,10.82
random512-10-1.map,random512-10-1.map.scen,4,BFS,1.0,94,True,48.0000,38.62741699,3976,4.0447,24.26
random512-10-1.map,random512-10-1.map.scen,4,BFS,1.0,95,True,43.0000,37.14213562,3247,3.1852,15.77
random512-10-1.map,random512-10-1.map.scen,4,BFS,1.0,97,True,44.0000,36.62741699,3496,3.4078,20.13
random512-10-1.map,random512-10-1.map.scen,4,BFS,1.0,99,True,47.0000,36.45584412,3797,3.7153,28.92
random512-10-1.map,random512-10-1.map.scen,4,BFS,1.0,101,True,42.0000,40.24264069,3093,3.1487,4.37
random512-10-1.map,random512-10-1.map.scen,4,BFS,1.0,103,True,49.0000,41.97056274,4126,4.0599,16.75
random512-10-1.map,random512-10-1.map.scen,4,BFS,1.0,104,True,55.0000,42.6984848,5247,5.3400,28.81
random512-10-1.map,random512-10-1.map.scen,4,BFS,1.0,106,True,45.0000,41.48528137,3463,3.5118,8.47
random512-10-1.map,random512-10-1.map.scen,4,BFS,1.0,108,True,50.0000,41.21320343,4428,4.3724,21.32
random512-10-1.map,random512-10-1.map.scen,4,BFS,1.0,110,True,56.0000,45.45584412,5099,5.2247,23.20
random512-10-1.map,random512-10-1.map.scen,4,BFS,1.0,112,True,50.0000,45.89949493,4439,4.4134,8.93
random512-10-1.map,random512-10-1.map.scen,4,BFS,1.0,114,True,59.0000,46.6984848,6127,6.1831,26.34
random512-10-1.map,random512-10-1.map.scen,4,BFS,1.0,115,True,56.0000,46.62741699,5536,5.5221,20.10
random512-10-1.map,random512-10-1.map.scen,4,BFS,1.0,117,True,59.0000,47.87005768,6071,6.1104,23.25
random512-10-1.map,random512-10-1.map.scen,4,BFS,1.0,119,True,49.0000,46.07106781,4189,4.1449,6.36
random512-10-1.map,random512-10-1.map.scen,4,BFS,1.0,121,True,61.0000,51.62741699,6652,6.5778,18.15
random512-10-1.map,random512-10-1.map.scen,4,BFS,1.0,123,True,63.0000,51.28427124,6907,6.9093,22.84
random512-10-1.map,random512-10-1.map.scen,4,BFS,1.0,124,True,59.0000,51.97056274,5280,5.4667,13.53
random512-10-1.map,random512-10-1.map.scen,4,BFS,1.0,126,True,54.0000,48.72792206,4169,4.0075,10.82
random512-10-1.map,random512-10-1.map.scen,4,BFS,1.0,128,True,57.0000,50.55634918,5111,5.1575,12.75
random512-10-1.map,random512-10-1.map.scen,4,BFS,1.0,130,True,66.0000,53.6984848,7647,7.5100,22.91
random512-10-1.map,random512-10-1.map.scen,4,BFS,1.0,132,True,67.0000,52.35533905,8033,8.0156,27.97
random512-10-1.map,random512-10-1.map.scen,4,BFS,1.0,133,True,70.0000,55.35533905,8762,8.7016,26.46
random512-10-1.map,random512-10-1.map.scen,4,BFS,1.0,135,True,72.0000,55.0121933,8921,8.7107,30.88
random512-10-1.map,random512-10-1.map.scen,4,BFS,1.0,137,True,68.0000,55.11269836,8197,8.0706,23.38
random512-10-1.map,random512-10-1.map.scen,4,BFS,1.0,139,True,56.0000,54.24264069,5577,5.6286,3.24
random512-10-1.map,random512-10-1.map.scen,4,BFS,1.0,141,True,73.0000,56.0121933,8138,7.8337,30.33
random512-10-1.map,random512-10-1.map.scen,4,BFS,1.0,142,True,60.0000,57.65685425,4143,3.9974,4.06
random512-10-1.map,random512-10-1.map.scen,4,BFS,1.0,144,True,73.0000,56.0121933,4651,4.5339,30.33
random512-10-1.map,random512-10-1.map.scen,4,BFS,1.0,146,True,69.0000,57.87005768,8056,8.1289,19.23
random512-10-1.map,random512-10-1.map.scen,4,BFS,1.0,148,True,64.0000,59.3137085,7288,7.3252,7.90
random512-10-1.map,random512-10-1.map.scen,4,BFS,1.0,150,True,68.0000,63.3137085,8131,8.0941,7.40
random512-10-1.map,random512-10-1.map.scen,4,BFS,1.0,152,True,75.0000,60.94112549,7336,7.2597,23.07
random512-10-1.map,random512-10-1.map.scen,4,BFS,1.0,153,True,83.0000,63.08326111,12238,12.3061,31.57
random512-10-1.map,random512-10-1.map.scen,4,BFS,1.0,155,True,78.0000,62.76955261,10548,10.6604,24.26
random512-10-1.map,random512-10-1.map.scen,4,BFS,1.0,157,True,82.0000,62.08326111,6842,6.7987,32.08
random512-10-1.map,random512-10-1.map.scen,4,BFS,1.0,159,True,72.0000,60.87005768,8238,8.1490,18.28
random512-10-1.map,random512-10-1.map.scen,4,BFS,1.0,161,True,78.0000,65.6984848,10763,10.7774,18.72
random512-10-1.map,random512-10-1.map.scen,4,BFS,1.0,162,True,89.0000,66.74011536,13901,13.5689,33.35
random512-10-1.map,random512-10-1.map.scen,4,BFS,1.0,164,True,81.0000,64.0121933,11699,11.6100,26.54
random512-10-1.map,random512-10-1.map.scen,4,BFS,1.0,166,True,81.0000,66.94112549,11514,11.4125,21.00
random512-10-1.map,random512-10-1.map.scen,4,BFS,1.0,168,True,87.0000,67.66904755,13266,13.0944,28.57
random512-10-1.map,random512-10-1.map.scen,4,BFS,1.0,170,True,75.0000,70.89949493,6992,7.5320,5.78
random512-10-1.map,random512-10-1.map.scen,4,BFS,1.0,171,True,92.0000,69.15432892,14374,14.2272,33.04
random512-10-1.map,random512-10-1.map.scen,4,BFS,1.0,173,True,80.0000,71.21320343,11333,11.3104,12.34
random512-10-1.map,random512-10-1.map.scen,4,BFS,1.0,175,True,91.0000,69.32590179,12611,12.3686,31.26
random512-10-1.map,random512-10-1.map.scen,4,BFS,1.0,177,True,92.0000,71.49747467,15104,14.8796,28.68
random512-10-1.map,random512-10-1.map.scen,4,BFS,1.0,179,True,77.0000,70.55634918,10092,10.2104,9.13
random512-10-1.map,random512-10-1.map.scen,4,BFS,1.0,181,True,92.0000,73.25483398,9320,8.8383,25.59
random512-10-1.map,random512-10-1.map.scen,4,BFS,1.0,182,True,93.0000,73.66904755,15431,14.9116,26.24
random512-10-1.map,random512-10-1.map.scen,4,BFS,1.0,184,True,90.0000,73.0121933,14331,14.0564,23.27
random512-10-1.map,random512-10-1.map.scen,4,BFS,1.0,186,True,84.0000,74.04163055,12468,12.3728,13.45
random512-10-1.map,random512-10-1.map.scen,4,BFS,1.0,188,True,79.0000,74.3137085,11201,11.2301,6.31
random512-10-1.map,random512-10-1.map.scen,4,BFS,1.0,190,True,84.0000,78.72792206,12460,12.3665,6.70
random512-10-1.map,random512-10-1.map.scen,4,BFS,1.0,191,True,94.0000,76.42640686,15408,14.8681,22.99
random512-10-1.map,random512-10-1.map.scen,4,BFS,1.0,193,True,89.0000,79.62741699,11252,12.7804,11.77
random512-10-1.map,random512-10-1.map.scen,4,BFS,1.0,195,True,91.0000,79.28427124,13338,13.7751,14.78
random512-10-1.map,random512-10-1.map.scen,4,BFS,1.0,197,True,82.0000,76.14213562,11896,12.0007,7.69
random512-10-1.map,random512-10-1.map.scen,4,BFS,1.0,199,True,87.0000,76.45584412,13330,13.3630,13.79
random512-10-1.map,random512-10-1.map.scen,4,BFS,1.0,200,True,95.0000,83.87005768,16094,15.7074,13.27
random512-10-1.map,random512-10-1.map.scen,4,BFS,1.0,202,True,109.0000,83.81118317,20235,20.0555,30.05
random512-10-1.map,random512-10-1.map.scen,4,BFS,1.0,204,True,88.0000,80.97056274,13870,14.0248,8.68
random512-10-1.map,random512-10-1.map.scen,4,BFS,1.0,206,True,97.0000,82.94112549,16647,16.2805,16.95
random512-10-1.map,random512-10-1.map.scen,4,BFS,1.0,208,True,99.0000,82.59797974,17077,16.7672,19.86
random512-10-1.map,random512-10-1.map.scen,4,BFS,1.0,209,True,93.0000,80.11269836,15445,15.1743,16.09
random512-10-1.map,random512-10-1.map.scen,4,BFS,1.0,211,True,112.0000,86.81118317,22136,22.5539,29.02
random512-10-1.map,random512-10-1.map.scen,4,BFS,1.0,213,True,96.0000,87.79898987,16418,15.9261,9.34
random512-10-1.map,random512-10-1.map.scen,4,BFS,1.0,215,True,110.0000,84.81118317,21140,21.2770,29.70
random512-10-1.map,random512-10-1.map.scen,4,BFS,1.0,217,True,101.0000,86.94112549,18052,17.3119,16.17
random512-10-1.map,random512-10-1.map.scen,4,BFS,1.0,219,True,116.0000,87.29646454,23397,22.8621,32.88
random512-10-1.map,random512-10-1.map.scen,4,BFS,1.0,220,True,117.0000,90.05382385,13993,13.5552,29.92
random512-10-1.map,random512-10-1.map.scen,4,BFS,1.0,222,True,118.0000,89.29646454,22449,22.1373,32.14
random512-10-1.map,random512-10-1.map.scen,4,BFS,1.0,224,True,105.0000,88.59797974,18316,17.3691,18.51
random512-10-1.map,random512-10-1.map.scen,4,BFS,1.0,226,True,94.0000,88.14213562,15661,15.2630,6.65
random512-10-1.map,random512-10-1.map.scen,4,BFS,1.0,228,True,99.0000,90.79898987,9261,9.0080,9.03
random512-10-1.map,random512-10-1.map.scen,4,BFS,1.0,229,True,118.0000,89.29646454,24813,24.3684,32.14
random512-10-1.map,random512-10-1.map.scen,4,BFS,1.0,231,True,123.0000,93.7106781,26373,25.5505,31.26
random512-10-1.map,random512-10-1.map.scen,4,BFS,1.0,233,True,103.0000,94.21320343,19054,18.1131,9.33
random512-10-1.map,random512-10-1.map.scen,4,BFS,1.0,235,True,111.0000,92.84062042,21722,21.5113,19.56
random512-10-1.map,random512-10-1.map.scen,4,BFS,1.0,237,True,100.0000,95.89949493,17486,16.6635,4.28
random512-10-1.map,random512-10-1.map.scen,4,BFS,1.0,238,True,121.0000,93.46803741,25881,25.3905,29.46
random512-10-1.map,random512-10-1.map.scen,4,BFS,1.0,240,True,104.0000,99.89949493,11516,11.5289,4.10
random512-10-1.map,random512-10-1.map.scen,4,BFS,1.0,242,True,130.0000,99.53910522,29827,30.7393,30.60
random512-10-1.map,random512-10-1.map.scen,4,BFS,1.0,244,True,109.0000,98.45584412,20990,21.3282,10.71
random512-10-1.map,random512-10-1.map.scen,4,BFS,1.0,246,True,121.0000,98.15432892,20721,21.6272,23.28
random512-10-1.map,random512-10-1.map.scen,4,BFS,1.0,247,True,129.0000,97.95331879,26468,26.8736,31.70
random512-10-1.map,random512-10-1.map.scen,4,BFS,1.0,249,True,111.0000,97.18376617,21784,21.9979,14.22
random512-10-1.map,random512-10-1.map.scen,4,BFS,1.0,251,True,123.0000,101.32590179,26501,27.3679,21.39
random512-10-1.map,random512-10-1.map.scen,4,BFS,1.0,253,True,124.0000,102.91168823,24239,24.2506,20.49
random512-10-1.map,random512-10-1.map.scen,4,BFS,1.0,255,True,124.0000,101.15432892,26991,27.8580,22.58
random512-10-1.map,random512-10-1.map.scen,4,BFS,1.0,257,True,109.0000,103.72792206,15895,15.9259,5.08
random512-10-1.map,random512-10-1.map.scen,4,BFS,1.0,258,True,129.0000,101.46803741,26892,31.3225,27.13
random512-10-1.map,random512-10-1.map.scen,4,BFS,1.0,260,True,140.0000,106.0243866,34826,39.3010,32.05
random512-10-1.map,random512-10-1.map.scen,4,BFS,1.0,262,True,136.0000,104.36753235,31873,35.6505,30.31
random512-10-1.map,random512-10-1.map.scen,4,BFS,1.0,264,True,136.0000,104.36753235,24909,29.5109,30.31
random512-10-1.map,random512-10-1.map.scen,4,BFS,1.0,266,True,137.0000,104.19595947,27199,31.2991,31.48
random512-10-1.map,random512-10-1.map.scen,4,BFS,1.0,267,True,119.0000,106.11269836,16475,17.9830,12.14
random512-10-1.map,random512-10-1.map.scen,4,BFS,1.0,269,True,121.0000,107.52691193,26011,31.2323,12.53
random512-10-1.map,random512-10-1.map.scen,4,BFS,1.0,271,True,139.0000,108.53910522,32751,37.0150,28.06
random512-10-1.map,random512-10-1.map.scen,4,BFS,1.0,273,True,116.0000,110.38477631,21226,23.4580,5.09
random512-10-1.map,random512-10-1.map.scen,4,BFS,1.0,275,True,126.0000,110.18376617,28347,32.3176,14.35
random512-10-1.map,random512-10-1.map.scen,4,BFS,1.0,276,True,116.0000,108.97056274,23839,27.8089,6.45
random512-10-1.map,random512-10-1.map.scen,4,BFS,1.0,278,True,134.0000,109.3969696,31018,35.0851,22.49
random512-10-1.map,random512-10-1.map.scen,4,BFS,1.0,280,True,121.0000,112.21320343,18255,21.0541,7.83
random512-10-1.map,random512-10-1.map.scen,4,BFS,1.0,282,True,129.0000,114.35533905,27503,34.7486,12.81
random512-10-1.map,random512-10-1.map.scen,4,BFS,1.0,284,True,146.0000,113.78174591,19050,18.5747,28.32
random512-10-1.map,random512-10-1.map.scen,4,BFS,1.0,285,True,149.0000,115.0243866,38968,38.8199,29.54
random512-10-1.map,random512-10-1.map.scen,4,BFS,1.0,287,True,141.0000,115.81118317,21226,21.4131,21.75
random512-10-1.map,random512-10-1.map.scen,4,BFS,1.0,289,True,135.0000,115.08326111,30612,31.0640,17.31
random512-10-1.map,random512-10-1.map.scen,4,BFS,1.0,291,True,153.0000,116.09545441,21877,22.5012,31.79
random512-10-1.map,random512-10-1.map.scen,4,BFS,1.0,293,True,125.0000,116.21320343,21340,21.5760,7.56
random512-10-1.map,random512-10-1.map.scen,4,BFS,1.0,295,True,123.0000,116.55634918,26830,26.2725,5.53
random512-10-1.map,random512-10-1.map.scen,4,BFS,1.0,296,True,129.0000,119.04163055,26920,26.5364,8.37
random512-10-1.map,random512-10-1.map.scen,4,BFS,1.0,298,True,125.0000,119.72792206,18223,18.0058,4.40
random512-10-1.map,random512-10-1.map.scen,4,BFS,1.0,300,True,155.0000,121.0243866,41549,40.3815,28.07
random512-10-1.map,random512-10-1.map.scen,4,BFS,1.0,302,True,131.0000,120.45584412,16282,15.5806,8.75
random512-10-1.map,random512-10-1.map.scen,4,BFS,1.0,304,True,149.0000,120.29646454,37768,36.1878,23.86
random512-10-1.map,random512-10-1.map.scen,4,BFS,1.0,305,True,130.0000,122.38477631,29883,29.1201,6.22
random512-10-1.map,random512-10-1.map.scen,4,BFS,1.0,307,True,155.0000,121.0243866,41845,42.0036,28.07
random512-10-1.map,random512-10-1.map.scen,4,BFS,1.0,309,True,133.0000,123.62741699,16133,15.4463,7.58
random512-10-1.map,random512-10-1.map.scen,4,BFS,1.0,311,True,145.0000,125.08326111,28088,27.0903,15.92
random512-10-1.map,random512-10-1.map.scen,4,BFS,1.0,313,True,148.0000,126.32590179,32655,31.3241,17.16
random512-10-1.map,random512-10-1.map.scen,4,BFS,1.0,314,True,164.0000,125.33809509,44118,44.5540,30.85
random512-10-1.map,random512-10-1.map.scen,4,BFS,1.0,316,True,156.0000,126.7106781,43020,43.1415,23.12
random512-10-1.map,random512-10-1.map.scen,4,BFS,1.0,318,True,134.0000,126.38477631,16881,16.1172,6.03
random512-10-1.map,random512-10-1.map.scen,4,BFS,1.0,320,True,148.0000,128.08326111,38816,38.1718,15.55
random512-10-1.map,random512-10-1.map.scen,4,BFS,1.0,322,True,143.0000,130.11269836,36068,35.0410,9.90
random512-10-1.map,random512-10-1.map.scen,4,BFS,1.0,323,True,147.0000,130.0121933,37945,36.2728,13.07
random512-10-1.map,random512-10-1.map.scen,4,BFS,1.0,325,True,152.0000,129.15432892,40880,39.3400,17.69
random512-10-1.map,random512-10-1.map.scen,4,BFS,1.0,327,True,145.0000,130.35533905,36591,34.7910,11.23
random512-10-1.map,random512-10-1.map.scen,4,BFS,1.0,329,True,166.0000,128.50966797,44031,44.3135,29.17
random512-10-1.map,random512-10-1.map.scen,4,BFS,1.0,331,True,168.0000,132.85281372,49863,49.2141,26.46
random512-10-1.map,random512-10-1.map.scen,4,BFS,1.0,333,True,158.0000,135.74011536,41314,39.8913,16.40
random512-10-1.map,random512-10-1.map.scen,4,BFS,1.0,334,True,140.0000,133.55634918,34850,33.8706,4.82
random512-10-1.map,random512-10-1.map.scen,4,BFS,1.0,336,True,167.0000,134.19595947,47589,47.8104,24.44
random512-10-1.map,random512-10-1.map.scen,4,BFS,1.0,338,True,179.0000,133.30865784,56336,55.0022,34.27
random512-10-1.map,random512-10-1.map.scen,4,BFS,1.0,340,True,142.0000,136.72792206,35796,34.6439,3.86
random512-10-1.map,random512-10-1.map.scen,4,BFS,1.0,342,True,152.0000,137.94112549,38489,37.4428,10.19
random512-10-1.map,random512-10-1.map.scen,4,BFS,1.0,343,True,183.0000,137.30865784,55739,54.6851,33.28
random512-10-1.map,random512-10-1.map.scen,4,BFS,1.0,345,True,169.0000,137.36753235,51230,49.7472,23.03
random512-10-1.map,random512-10-1.map.scen,4,BFS,1.0,347,True,147.0000,138.21320343,32882,31.4668,6.36
random512-10-1.map,random512-10-1.map.scen,4,BFS,1.0,349,True,175.0000,136.92388153,40440,39.0347,27.81
random512-10-1.map,random512-10-1.map.scen,4,BFS,1.0,351,True,185.0000,142.23759003,59247,59.3322,30.06
random512-10-1.map,random512-10-1.map.scen,4,BFS,1.0,352,True,165.0000,143.32590179,27904,26.8199,15.12
random512-10-1.map,random512-10-1.map.scen,4,BFS,1.0,354,True,156.0000,142.52691193,27322,26.3440,9.45
random512-10-1.map,random512-10-1.map.scen,4,BFS,1.0,356,True,150.0000,143.55634918,40203,38.5285,4.49
random512-10-1.map,random512-10-1.map.scen,4,BFS,1.0,358,True,151.0000,143.97056274,40003,38.6646,4.88
random512-10-1.map,random512-10-1.map.scen,4,BFS,1.0,360,True,190.0000,144.89444427,64244,61.2968,31.13
random512-10-1.map,random512-10-1.map.scen,4,BFS,1.0,362,True,187.0000,147.75230865,45933,45.4061,26.56
random512-10-1.map,random512-10-1.map.scen,4,BFS,1.0,363,True,158.0000,145.11269836,44147,44.0798,8.88
random512-10-1.map,random512-10-1.map.scen,4,BFS,1.0,365,True,153.0000,145.38477631,41433,40.0694,5.24
random512-10-1.map,random512-10-1.map.scen,4,BFS,1.0,367,True,161.0000,147.52691193,34393,33.5820,9.13
random512-10-1.map,random512-10-1.map.scen,4,BFS,1.0,369,True,179.0000,145.61017303,46696,46.4673,22.93
random512-10-1.map,random512-10-1.map.scen,4,BFS,1.0,371,True,176.0000,151.98275604,54983,52.6965,15.80
random512-10-1.map,random512-10-1.map.scen,4,BFS,1.0,372,True,176.0000,149.63961029,51571,50.7837,17.62
random512-10-1.map,random512-10-1.map.scen,4,BFS,1.0,374,True,175.0000,149.22539673,42093,42.4210,17.27
random512-10-1.map,random512-10-1.map.scen,4,BFS,1.0,376,True,189.0000,151.50966797,43809,43.3087,24.74
random512-10-1.map,random512-10-1.map.scen,4,BFS,1.0,378,True,173.0000,149.56854248,47770,46.8763,15.67
random512-10-1.map,random512-10-1.map.scen,4,BFS,1.0,380,True,205.0000,155.79393921,59049,57.3876,31.58
random512-10-1.map,random512-10-1.map.scen,4,BFS,1.0,381,True,165.0000,155.04163055,26325,25.4873,6.42
random512-10-1.map,random512-10-1.map.scen,4,BFS,1.0,383,True,170.0000,154.76955261,44531,44.5240,9.84
random512-10-1.map,random512-10-1.map.scen,4,BFS,1.0,385,True,200.0000,152.55129852,50078,48.9821,31.10
random512-10-1.map,random512-10-1.map.scen,4,BFS,1.0,387,True,165.0000,155.62741699,48553,47.6497,6.02
random512-10-1.map,random512-10-1.map.scen,4,BFS,1.0,389,True,198.0000,153.48023071,57362,55.7389,29.01
random512-10-1.map,random512-10-1.map.scen,4,BFS,1.0,390,True,170.0000,157.11269836,32581,31.4984,8.20
random512-10-1.map,random512-10-1.map.scen,4,BFS,1.0,392,True,183.0000,158.98275604,44857,44.8977,15.11
random512-10-1.map,random512-10-1.map.scen,4,BFS,1.0,394,True,171.0000,158.11269836,33992,33.0475,8.15
random512-10-1.map,random512-10-1.map.scen,4,BFS,1.0,396,True,208.0000,159.37972565,63928,60.6816,30.51
random512-10-1.map,random512-10-1.map.scen,4,BFS,1.0,398,True,189.0000,157.95331879,44291,43.7251,19.66
random512-10-1.map,random512-10-1.map.scen,4,BFS,1.0,400,True,190.0000,162.46803741,63287,61.0448,16.95
random512-10-1.map,random512-10-1.map.scen,4,BFS,1.0,401,True,167.0000,161.14213562,28601,27.6890,3.64
random512-10-1.map,random512-10-1.map.scen,4,BFS,1.0,403,True,173.0000,163.87005768,51873,50.8668,5.57
random512-10-1.map,random512-10-1.map.scen,4,BFS,1.0,405,True,199.0000,163.85281372,54539,53.4998,21.45
random512-10-1.map,random512-10-1.map.scen,4,BFS,1.0,407,True,201.0000,162.33809509,64332,61.0389,23.82
random512-10-1.map,random512-10-1.map.scen,4,BFS,1.0,409,True,172.0000,162.04163055,52426,50.9997,6.15
random512-10-1.map,random512-10-1.map.scen,4,BFS,1.0,410,True,182.0000,165.59797974,58595,56.8212,9.90
random512-10-1.map,random512-10-1.map.scen,4,BFS,1.0,412,True,215.0000,164.03657989,78452,74.5128,31.07
random512-10-1.map,random512-10-1.map.scen,4,BFS,1.0,414,True,197.0000,165.95331879,64740,62.0602,18.71
random512-10-1.map,random512-10-1.map.scen,4,BFS,1.0,416,True,214.0000,164.20815277,49318,48.3506,30.32
random512-10-1.map,random512-10-1.map.scen,4,BFS,1.0,418,True,173.0000,166.55634918,29296,28.2170,3.87
random512-10-1.map,random512-10-1.map.scen,4,BFS,1.0,419,True,200.0000,166.0243866,61493,58.5329,20.46
random512-10-1.map,random512-10-1.map.scen,4,BFS,1.0,421,True,182.0000,169.6984848,40486,38.7151,7.25
random512-10-1.map,random512-10-1.map.scen,4,BFS,1.0,423,True,207.0000,168.33809509,54754,52.9900,22.97
random512-10-1.map,random512-10-1.map.scen,4,BFS,1.0,425,True,180.0000,168.28427124,54662,53.2316,6.96
random512-10-1.map,random512-10-1.map.scen,4,BFS,1.0,427,True,210.0000,168.4091629,43357,42.8966,24.70
random512-10-1.map,random512-10-1.map.scen,4,BFS,1.0,428,True,201.0000,171.12489166,39937,38.8232,17.46
random512-10-1.map,random512-10-1.map.scen,4,BFS,1.0,430,True,237.0000,175.49242401,91021,91.3128,35.05
random512-10-1.map,random512-10-1.map.scen,4,BFS,1.0,432,True,190.0000,175.35533905,46297,45.1247,8.35
random512-10-1.map,random512-10-1.map.scen,4,BFS,1.0,434,True,220.0000,175.48023071,49493,49.6352,25.37
random512-10-1.map,random512-10-1.map.scen,4,BFS,1.0,436,True,203.0000,172.53910522,72983,70.0712,17.65
random512-10-1.map,random512-10-1.map.scen,4,BFS,1.0,438,True,213.0000,172.58073578,59447,56.8719,23.42
random512-10-1.map,random512-10-1.map.scen,4,BFS,1.0,439,True,222.0000,175.7228714,80333,76.4685,26.34
random512-10-1.map,random512-10-1.map.scen,4,BFS,1.0,441,True,188.0000,179.21320343,62542,59.9428,4.90
random512-10-1.map,random512-10-1.map.scen,4,BFS,1.0,443,True,227.0000,179.55129852,79011,74.5767,26.43
random512-10-1.map,random512-10-1.map.scen,4,BFS,1.0,445,True,237.0000,178.4213562,85533,87.3903,32.83
random512-10-1.map,random512-10-1.map.scen,4,BFS,1.0,447,True,212.0000,178.61017303,80077,76.0698,18.69
random512-10-1.map,random512-10-1.map.scen,4,BFS,1.0,448,True,202.0000,177.3969696,72201,68.5377,13.87
random512-10-1.map,random512-10-1.map.scen,4,BFS,1.0,450,True,220.0000,182.50966797,79265,75.0457,20.54
random512-10-1.map,random512-10-1.map.scen,4,BFS,1.0,452,True,222.0000,182.16652222,51361,50.0663,21.87
random512-10-1.map,random512-10-1.map.scen,4,BFS,1.0,454,True,204.0000,182.91168823,39307,37.8695,11.53
random512-10-1.map,random512-10-1.map.scen,4,BFS,1.0,456,True,189.0000,180.21320343,60652,58.5683,4.88
random512-10-1.map,random512-10-1.map.scen,4,BFS,1.0,457,True,230.0000,182.55129852,93544,95.0217,25.99
random512-10-1.map,random512-10-1.map.scen,4,BFS,1.0,459,True,227.0000,180.7228714,64887,62.6525,25.61
random512-10-1.map,random512-10-1.map.scen,4,BFS,1.0,461,True,237.0000,185.45079346,92298,93.2704,27.80
random512-10-1.map,random512-10-1.map.scen,4,BFS,1.0,463,True,212.0000,184.46803741,58355,56.4238,14.93
random512-10-1.map,random512-10-1.map.scen,4,BFS,1.0,465,True,233.0000,184.96551208,71868,76.3434,25.97
random512-10-1.map,random512-10-1.map.scen,4,BFS,1.0,466,True,197.0000,186.45584412,54344,53.8833,5.66
random512-10-1.map,random512-10-1.map.scen,4,BFS,1.0,468,True,196.0000,187.79898987,44588,44.3415,4.37
random512-10-1.map,random512-10-1.map.scen,4,BFS,1.0,470,True,222.0000,190.0243866,57015,55.4398,16.83
random512-10-1.map,random512-10-1.map.scen,4,BFS,1.0,472,True,197.0000,189.87005768,61619,59.6124,3.76
random512-10-1.map,random512-10-1.map.scen,4,BFS,1.0,474,True,251.0000,189.49242401,99640,100.7548,32.46
random512-10-1.map,random512-10-1.map.scen,4,BFS,1.0,476,True,247.0000,189.59292908,103722,103.2543,30.28
random512-10-1.map,random512-10-1.map.scen,4,BFS,1.0,477,True,212.0000,189.15432892,64865,62.2228,12.08
random512-10-1.map,random512-10-1.map.scen,4,BFS,1.0,479,True,239.0000,190.96551208,67639,65.0009,25.15
random512-10-1.map,random512-10-1.map.scen,4,BFS,1.0,481,True,215.0000,193.32590179,82323,78.1265,11.21
random512-10-1.map,random512-10-1.map.scen,4,BFS,1.0,483,True,203.0000,195.38477631,73312,70.0427,3.90
random512-10-1.map,random512-10-1.map.scen,4,BFS,1.0,485,True,234.0000,194.16652222,55135,53.7765,20.52
random512-10-1.map,random512-10-1.map.scen,4,BFS,1.0,486,True,250.0000,195.52186127,81467,77.2455,27.86
random512-10-1.map,random512-10-1.map.scen,4,BFS,1.0,488,True,243.0000,195.55129852,85104,88.0030,24.26
random512-10-1.map,random512-10-1.map.scen,4,BFS,1.0,490,True,205.0000,197.38477631,38852,37.5464,3.86
random512-10-1.map,random512-10-1.map.scen,4,BFS,1.0,492,True,215.0000,196.25483398,69559,66.2092,9.55
random512-10-1.map,random512-10-1.map.scen,4,BFS,1.0,494,True,214.0000,197.0121933,72286,69.4469,8.62
random512-10-1.map,random512-10-1.map.scen,4,BFS,1.0,495,True,247.0000,197.79393921,108116,105.7074,24.88
random512-10-1.map,random512-10-1.map.scen,4,BFS,1.0,497,True,240.0000,196.65180359,94312,93.1080,22.04
random512-10-1.map,random512-10-1.map.scen,4,BFS,1.0,499,True,249.0000,197.45079346,103889,103.1273,26.11
random512-10-1.map,random512-10-1.map.scen,4,BFS,1.0,501,True,211.0000,202.79898987,48799,48.9809,4.04
random512-10-1.map,random512-10-1.map.scen,4,BFS,1.0,503,True,254.0000,200.69343414,84904,86.0008,26.56
random512-10-1.map,random512-10-1.map.scen,4,BFS,1.0,504,True,220.0000,200.66904755,74845,72.0231,9.63
random512-10-1.map,random512-10-1.map.scen,4,BFS,1.0,506,True,265.0000,202.32085113,101857,99.4742,30.98
random512-10-1.map,random512-10-1.map.scen,4,BFS,1.0,508,True,206.0000,200.38477631,68226,65.2056,2.80
random512-10-1.map,random512-10-1.map.scen,4,BFS,1.0,510,True,219.0000,206.11269836,57493,55.8197,6.25
random512-10-1.map,random512-10-1.map.scen,4,BFS,1.0,512,True,227.0000,204.15432892,61257,59.5602,11.19
random512-10-1.map,random512-10-1.map.scen,4,BFS,1.0,514,True,249.0000,205.06601715,70499,67.3999,21.42
random512-10-1.map,random512-10-1.map.scen,4,BFS,1.0,515,True,272.0000,206.39191894,71181,69.2575,31.79
random512-10-1.map,random512-10-1.map.scen,4,BFS,1.0,517,True,227.0000,205.91168823,69405,67.4645,10.24
random512-10-1.map,random512-10-1.map.scen,4,BFS,1.0,519,True,267.0000,204.32085113,110210,106.8506,30.68
random512-10-1.map,random512-10-1.map.scen,4,BFS,1.0,521,True,248.0000,209.33809509,81265,78.3823,18.47
random512-10-1.map,random512-10-1.map.scen,4,BFS,1.0,523,True,219.0000,208.45584412,65374,63.4105,5.06
random512-10-1.map,random512-10-1.map.scen,4,BFS,1.0,524,True,231.0000,210.49747467,61226,59.9422,9.74
random512-10-1.map,random512-10-1.map.scen,4,BFS,1.0,526,True,220.0000,211.21320343,84436,80.6260,4.16
random512-10-1.map,random512-10-1.map.scen,4,BFS,1.0,528,True,276.0000,209.80613251,68835,66.6136,31.55
random512-10-1.map,random512-10-1.map.scen,4,BFS,1.0,530,True,230.0000,215.94112549,71537,69.3171,6.51
random512-10-1.map,random512-10-1.map.scen,4,BFS,1.0,532,True,238.0000,212.22539673,87755,87.2116,12.14
random512-10-1.map,random512-10-1.map.scen,4,BFS,1.0,533,True,265.0000,215.79393921,120777,116.8695,22.80
random512-10-1.map,random512-10-1.map.scen,4,BFS,1.0,535,True,274.0000,214.83556976,113166,109.1155,27.54
random512-10-1.map,random512-10-1.map.scen,4,BFS,1.0,537,True,227.0000,215.87005768,52250,51.0646,5.16
random512-10-1.map,random512-10-1.map.scen,4,BFS,1.0,539,True,223.0000,213.04163055,88158,87.8841,4.67
random512-10-1.map,random512-10-1.map.scen,4,BFS,1.0,541,True,280.0000,216.14927826,97509,98.1083,29.54
random512-10-1.map,random512-10-1.map.scen,4,BFS,1.0,543,True,292.0000,219.94826813,100435,100.3734,32.76
random512-10-1.map,random512-10-1.map.scen,4,BFS,1.0,544,True,267.0000,217.20815277,114866,111.7788,22.92
random512-10-1.map,random512-10-1.map.scen,4,BFS,1.0,546,True,292.0000,219.94826813,106298,105.1756,32.76
random512-10-1.map,random512-10-1.map.scen,4,BFS,1.0,548,True,266.0000,217.96551208,95984,95.7367,22.04
random512-10-1.map,random512-10-1.map.scen,4,BFS,1.0,550,True,286.0000,220.39191894,57503,55.2925,29.77
random512-10-1.map,random512-10-1.map.scen,4,BFS,1.0,552,True,245.0000,223.91168823,62169,61.2732,9.42
random512-10-1.map,random512-10-1.map.scen,4,BFS,1.0,553,True,293.0000,223.29141388,83811,81.1229,31.22
random512-10-1.map,random512-10-1.map.scen,4,BFS,1.0,555,True,278.0000,221.17871551,102518,101.8126,25.69
random512-10-1.map,random512-10-1.map.scen,4,BFS,1.0,557,True,231.0000,222.21320343,47119,46.5153,3.95
random512-10-1.map,random512-10-1.map.scen,4,BFS,1.0,559,True,297.0000,223.77669525,114097,111.8156,32.72
random512-10-1.map,random512-10-1.map.scen,4,BFS,1.0,561,True,259.0000,227.95331879,116877,113.5485,13.62
random512-10-1.map,random512-10-1.map.scen,4,BFS,1.0,562,True,261.0000,224.68124084,117850,114.7947,16.16
random512-10-1.map,random512-10-1.map.scen,4,BFS,1.0,564,True,236.0000,226.04163055,39722,39.4165,4.41
random512-10-1.map,random512-10-1.map.scen,4,BFS,1.0,566,True,279.0000,225.69343414,93746,96.1312,23.62
random512-10-1.map,random512-10-1.map.scen,4,BFS,1.0,568,True,295.0000,224.70562744,67386,65.3271,31.28
random512-10-1.map,random512-10-1.map.scen,4,BFS,1.0,570,True,291.0000,230.66399689,97811,101.5341,26.16
random512-10-1.map,random512-10-1.map.scen,4,BFS,1.0,571,True,283.0000,229.1076477,120661,129.2740,23.52
random512-10-1.map,random512-10-1.map.scen,4,BFS,1.0,573,True,297.0000,231.97770538,84210,83.1256,28.03
random512-10-1.map,random512-10-1.map.scen,4,BFS,1.0,575,True,285.0000,231.69343414,124032,122.6730,23.01
random512-10-1.map,random512-10-1.map.scen,4,BFS,1.0,577,True,275.0000,228.13708496,128954,126.8562,20.54
random512-10-1.map,random512-10-1.map.scen,4,BFS,1.0,579,True,299.0000,228.119841,80383,78.4268,31.07
random512-10-1.map,random512-10-1.map.scen,4,BFS,1.0,581,True,255.0000,234.49747467,58879,58.8753,8.74
random512-10-1.map,random512-10-1.map.scen,4,BFS,1.0,582,True,251.0000,235.18376617,94156,99.4396,6.73
random512-10-1.map,random512-10-1.map.scen,4,BFS,1.0,584,True,311.0000,235.4335495,124870,132.7556,32.10
random512-10-1.map,random512-10-1.map.scen,4,BFS,1.0,586,True,243.0000,235.97056274,72397,78.1224,2.98
random512-10-1.map,random512-10-1.map.scen,4,BFS,1.0,588,True,277.0000,233.30865784,108959,110.1792,18.73
random512-10-1.map,random512-10-1.map.scen,4,BFS,1.0,590,True,252.0000,236.76955261,89957,91.2397,6.43
random512-10-1.map,random512-10-1.map.scen,4,BFS,1.0,591,True,315.0000,237.09040375,70844,69.2787,32.86
random512-10-1.map,random512-10-1.map.scen,4,BFS,1.0,593,True,317.0000,237.91883087,156745,152.4727,33.24
random512-10-1.map,random512-10-1.map.scen,4,BFS,1.0,595,True,250.0000,237.6984848,55467,54.9908,5.18
random512-10-1.map,random512-10-1.map.scen,4,BFS,1.0,597,True,270.0000,238.36753235,90110,92.2499,13.27
random512-10-1.map,random512-10-1.map.scen,4,BFS,1.0,599,True,273.0000,239.0243866,127840,124.8859,14.21
random512-10-1.map,random512-10-1.map.scen,4,BFS,1.0,600,True,274.0000,241.43860016,92771,92.8843,13.49
random512-10-1.map,random512-10-1.map.scen,4,BFS,1.0,602,True,268.0000,242.81118317,69416,68.7977,10.37
random512-10-1.map,random512-10-1.map.scen,4,BFS,1.0,604,True,298.0000,241.17871551,105269,105.0179,23.56
random512-10-1.map,random512-10-1.map.scen,4,BFS,1.0,606,True,312.0000,241.119841,97973,99.8719,29.40
random512-10-1.map,random512-10-1.map.scen,4,BFS,1.0,608,True,253.0000,241.28427124,63223,61.6529,4.86
random512-10-1.map,random512-10-1.map.scen,4,BFS,1.0,609,True,304.0000,243.07821045,60035,59.8890,25.06
random512-10-1.map,random512-10-1.map.scen,4,BFS,1.0,611,True,289.0000,247.99494934,130078,127.8785,16.53
random512-10-1.map,random512-10-1.map.scen,4,BFS,1.0,613,True,255.0000,245.04163055,44077,43.8092,4.06
random512-10-1.map,random512-10-1.map.scen,4,BFS,1.0,615,True,255.0000,245.28427124,75493,74.0978,3.96
random512-10-1.map,random512-10-1.map.scen,4,BFS,1.0,617,True,254.0000,244.62741699,70938,69.4565,3.83
random512-10-1.map,random512-10-1.map.scen,4,BFS,1.0,619,True,290.0000,245.48023071,127623,127.1120,18.14
random512-10-1.map,random512-10-1.map.scen,4,BFS,1.0,620,True,312.0000,248.7350647,142156,138.7490,25.43
random512-10-1.map,random512-10-1.map.scen,4,BFS,1.0,622,True,331.0000,250.74725799,73721,71.4653,32.01
random512-10-1.map,random512-10-1.map.scen,4,BFS,1.0,624,True,269.0000,249.66904755,57487,56.2272,7.74
random512-10-1.map,random512-10-1.map.scen,4,BFS,1.0,626,True,319.0000,249.87720032,105376,105.8817,27.66
random512-10-1.map,random512-10-1.map.scen,4,BFS,1.0,628,True,295.0000,248.7228714,120291,117.6065,18.61
random512-10-1.map,random512-10-1.map.scen,4,BFS,1.0,629,True,319.0000,248.70562744,156819,153.0280,28.26
random512-10-1.map,random512-10-1.map.scen,4,BFS,1.0,631,True,341.0000,255.47518005,146151,142.1346,33.48
random512-10-1.map,random512-10-1.map.scen,4,BFS,1.0,633,True,284.0000,252.95331879,112630,112.4042,12.27
random512-10-1.map,random512-10-1.map.scen,4,BFS,1.0,635,True,291.0000,254.09545441,141535,138.7191,14.52
random512-10-1.map,random512-10-1.map.scen,4,BFS,1.0,637,True,327.0000,252.60512237,137797,136.1562,29.45
random512-10-1.map,random512-10-1.map.scen,4,BFS,1.0,638,True,262.0000,253.21320343,77763,75.7666,3.47
random512-10-1.map,random512-10-1.map.scen,4,BFS,1.0,640,True,273.0000,256.84062042,83668,81.8028,6.29
random512-10-1.map,random512-10-1.map.scen,4,BFS,1.0,642,True,335.0000,258.26197662,158325,154.6093,29.71
random512-10-1.map,random512-10-1.map.scen,4,BFS,1.0,644,True,341.0000,259.57568512,101593,101.7748,31.37
random512-10-1.map,random512-10-1.map.scen,4,BFS,1.0,646,True,322.0000,258.7350647,97625,99.1111,24.45
random512-10-1.map,random512-10-1.map.scen,4,BFS,1.0,647,True,318.0000,257.07821045,86555,88.0227,23.70
random512-10-1.map,random512-10-1.map.scen,4,BFS,1.0,649,True,308.0000,258.20815277,85220,86.5365,19.28
random512-10-1.map,random512-10-1.map.scen,4,BFS,1.0,651,True,349.0000,263.47518005,169052,167.8865,32.46
random512-10-1.map,random512-10-1.map.scen,4,BFS,1.0,653,True,329.0000,261.63455963,168455,173.0146,25.75
random512-10-1.map,random512-10-1.map.scen,4,BFS,1.0,655,True,274.0000,262.28427124,63738,72.3625,4.47
random512-10-1.map,random512-10-1.map.scen,4,BFS,1.0,657,True,350.0000,263.88939361,124304,125.4293,32.63
random512-10-1.map,random512-10-1.map.scen,4,BFS,1.0,658,True,282.0000,260.91168823,82566,80.6927,8.08
random512-10-1.map,random512-10-1.map.scen,4,BFS,1.0,660,True,294.0000,267.63961029,136076,140.4537,9.85
random512-10-1.map,random512-10-1.map.scen,4,BFS,1.0,662,True,326.0000,265.66399689,116297,119.4868,22.71
random512-10-1.map,random512-10-1.map.scen,4,BFS,1.0,664,True,355.0000,266.54624786,173254,182.2778,33.19
random512-10-1.map,random512-10-1.map.scen,4,BFS,1.0,666,True,292.0000,265.05382385,111250,116.1411,10.17
random512-10-1.map,random512-10-1.map.scen,4,BFS,1.0,667,True,312.0000,267.48023071,149048,146.0584,16.64
random512-10-1.map,random512-10-1.map.scen,4,BFS,1.0,669,True,279.0000,265.76955261,76387,75.1023,4.98
random512-10-1.map,random512-10-1.map.scen,4,BFS,1.0,671,True,293.0000,268.3969696,82314,85.2451,9.17
random512-10-1.map,random512-10-1.map.scen,4,BFS,1.0,673,True,281.0000,269.28427124,56445,55.9505,4.35
random512-10-1.map,random512-10-1.map.scen,4,BFS,1.0,675,True,314.0000,271.23759003,128741,128.6615,15.77
random512-10-1.map,random512-10-1.map.scen,4,BFS,1.0,676,True,332.0000,268.14927826,109088,109.2043,23.81
random512-10-1.map,random512-10-1.map.scen,4,BFS,1.0,678,True,352.0000,269.98989868,105989,108.6915,30.38
random512-10-1.map,random512-10-1.map.scen,4,BFS,1.0,680,True,286.0000,273.6984848,68764,67.7445,4.49
random512-10-1.map,random512-10-1.map.scen,4,BFS,1.0,682,True,363.0000,275.71782074,175774,184.2738,31.66
random512-10-1.map,random512-10-1.map.scen,4,BFS,1.0,684,True,333.0000,275.59292908,109081,110.2643,20.83
random512-10-1.map,random512-10-1.map.scen,4,BFS,1.0,685,True,341.0000,275.97770538,88693,90.4844,23.56
random512-10-1.map,random512-10-1.map.scen,4,BFS,1.0,687,True,349.0000,274.60512237,117371,117.2593,27.09
random512-10-1.map,random512-10-1.map.scen,4,BFS,1.0,689,True,369.0000,274.68838348,125630,127.2303,34.33
random512-10-1.map,random512-10-1.map.scen,4,BFS,1.0,691,True,305.0000,276.29646454,94372,96.2552,10.39
random512-10-1.map,random512-10-1.map.scen,4,BFS,1.0,693,True,319.0000,276.82337646,133645,132.2817,15.24
random512-10-1.map,random512-10-1.map.scen,4,BFS,1.0,695,True,346.0000,277.46298675,132716,130.8605,24.70
random512-10-1.map,random512-10-1.map.scen,4,BFS,1.0,696,True,339.0000,276.32085113,151587,150.8123,22.68
random512-10-1.map,random512-10-1.map.scen,4,BFS,1.0,698,True,321.0000,277.65180359,88457,90.5974,15.61
random512-10-1.map,random512-10-1.map.scen,4,BFS,1.0,700,True,346.0000,283.90663757,145914,145.3844,21.87
random512-10-1.map,random512-10-1.map.scen,4,BFS,1.0,702,True,292.0000,283.79898987,57317,56.6544,2.89
random512-10-1.map,random512-10-1.map.scen,4,BFS,1.0,704,True,321.0000,280.82337646,103627,105.2870,14.31
random512-10-1.map,random512-10-1.map.scen,4,BFS,1.0,705,True,329.0000,283.89444427,56724,57.2445,15.89
random512-10-1.map,random512-10-1.map.scen,4,BFS,1.0,707,True,342.0000,282.83556976,182456,190.9491,20.92
random512-10-1.map,random512-10-1.map.scen,4,BFS,1.0,709,True,346.0000,280.39191894,172965,182.0194,23.40
random512-10-1.map,random512-10-1.map.scen,4,BFS,1.0,711,True,351.0000,286.56349182,147032,145.7778,22.49
random512-10-1.map,random512-10-1.map.scen,4,BFS,1.0,713,True,309.0000,287.32590179,117944,118.5380,7.54
random512-10-1.map,random512-10-1.map.scen,4,BFS,1.0,714,True,330.0000,284.30865784,162018,160.4519,16.07
random512-10-1.map,random512-10-1.map.scen,4,BFS,1.0,716,True,327.0000,285.4091629,87151,91.1245,14.57
random512-10-1.map,random512-10-1.map.scen,4,BFS,1.0,718,True,365.0000,285.33304443,119866,120.7266,27.92
random512-10-1.map,random512-10-1.map.scen,4,BFS,1.0,720,True,385.0000,290.10259704,128900,128.7924,32.71
random512-10-1.map,random512-10-1.map.scen,4,BFS,1.0,722,True,306.0000,291.94112549,147861,146.8644,4.82
random512-10-1.map,random512-10-1.map.scen,4,BFS,1.0,724,True,325.0000,289.26702728,150794,150.7169,12.35
random512-10-1.map,random512-10-1.map.scen,4,BFS,1.0,725,True,388.0000,291.34523773,206798,214.4757,33.18
random512-10-1.map,random512-10-1.map.scen,4,BFS,1.0,727,True,383.0000,290.4457428,103205,106.0058,31.87
random512-10-1.map,random512-10-1.map.scen,4,BFS,1.0,729,True,305.0000,290.35533905,83755,90.6489,5.04
random512-10-1.map,random512-10-1.map.scen,4,BFS,1.0,731,True,370.0000,295.01933594,141796,141.2318,25.42
random512-10-1.map,random512-10-1.map.scen,4,BFS,1.0,733,True,377.0000,294.98989868,170940,172.6918,27.80
random512-10-1.map,random512-10-1.map.scen,4,BFS,1.0,734,True,377.0000,292.06096649,163314,161.8966,29.08
random512-10-1.map,random512-10-1.map.scen,4,BFS,1.0,736,True,342.0000,293.37972565,153212,151.3939,16.57
random512-10-1.map,random512-10-1.map.scen,4,BFS,1.0,738,True,338.0000,294.65180359,132434,133.4979,14.71
random512-10-1.map,random512-10-1.map.scen,4,BFS,1.0,740,True,372.0000,297.01933594,113983,114.5557,25.24
random512-10-1.map,random512-10-1.map.scen,4,BFS,1.0,742,True,323.0000,298.3969696,137138,136.8728,8.25
random512-10-1.map,random512-10-1.map.scen,4,BFS,1.0,743,True,307.0000,297.04163055,78904,78.4434,3.35
random512-10-1.map,random512-10-1.map.scen,4,BFS,1.0,745,True,325.0000,299.81118317,67307,68.2889,8.40
random512-10-1.map,random512-10-1.map.scen,4,BFS,1.0,747,True,336.0000,297.92388153,133862,133.7196,12.78
random512-10-1.map,random512-10-1.map.scen,4,BFS,1.0,749,True,397.0000,299.75945129,211720,216.9584,32.44
random512-10-1.map,random512-10-1.map.scen,4,BFS,1.0,751,True,320.0000,302.66904755,81340,82.0486,5.73
random512-10-1.map,random512-10-1.map.scen,4,BFS,1.0,752,True,361.0000,301.83556976,146262,146.2286,19.60
random512-10-1.map,random512-10-1.map.scen,4,BFS,1.0,754,True,331.0000,302.29646454,116517,117.8115,9.50
random512-10-1.map,random512-10-1.map.scen,4,BFS,1.0,756,True,317.0000,303.76955261,73453,73.7968,4.36
random512-10-1.map,random512-10-1.map.scen,4,BFS,1.0,758,True,328.0000,300.46803741,97063,100.5296,9.16
random512-10-1.map,random512-10-1.map.scen,4,BFS,1.0,760,True,359.0000,304.52186127,109085,111.5848,17.89
random512-10-1.map,random512-10-1.map.scen,4,BFS,1.0,762,True,336.0000,306.12489166,81699,81.8288,9.76
random512-10-1.map,random512-10-1.map.scen,4,BFS,1.0,763,True,328.0000,304.56854248,98594,101.3769,7.69
random512-10-1.map,random512-10-1.map.scen,4,BFS,1.0,765,True,406.0000,307.00209198,214402,219.9352,32.25
random512-10-1.map,random512-10-1.map.scen,4,BFS,1.0,767,True,412.0000,307.1442276,122909,124.1700,34.14
random512-10-1.map,random512-10-1.map.scen,4,BFS,1.0,769,True,408.0000,307.8305191,90181,96.1169,32.54
random512-10-1.map,random512-10-1.map.scen,4,BFS,1.0,771,True,408.0000,309.00209198,169171,171.3924,32.04
random512-10-1.map,random512-10-1.map.scen,4,BFS,1.0,772,True,326.0000,311.94112549,155350,154.1360,4.51
random512-10-1.map,random512-10-1.map.scen,4,BFS,1.0,774,True,398.0000,308.37467499,211935,218.8985,29.06
random512-10-1.map,random512-10-1.map.scen,4,BFS,1.0,776,True,364.0000,308.35028839,124391,126.7267,18.05
random512-10-1.map,random512-10-1.map.scen,4,BFS,1.0,778,True,319.0000,308.11269836,93610,96.6493,3.53
random512-10-1.map,random512-10-1.map.scen,4,BFS,1.0,780,True,343.0000,313.7106781,153109,151.7353,9.34
random512-10-1.map,random512-10-1.map.scen,4,BFS,1.0,781,True,346.0000,313.43860016,86413,90.8972,10.39
random512-10-1.map,random512-10-1.map.scen,4,BFS,1.0,783,True,411.0000,312.58787842,132205,135.0082,31.48
random512-10-1.map,random512-10-1.map.scen,4,BFS,1.0,785,True,367.0000,314.27922058,133642,134.1875,16.78
random512-10-1.map,random512-10-1.map.scen,4,BFS,1.0,787,True,331.0000,312.84062042,121745,121.8706,5.80
random512-10-1.map,random512-10-1.map.scen,4,BFS,1.0,789,True,378.0000,312.39191894,107243,108.3586,21.00
random512-10-1.map,random512-10-1.map.scen,4,BFS,1.0,790,True,419.0000,317.65894623,143943,146.8306,31.90
random512-10-1.map,random512-10-1.map.scen,4,BFS,1.0,792,True,406.0000,316.61731567,117378,119.4867,28.23
random512-10-1.map,random512-10-1.map.scen,4,BFS,1.0,794,True,345.0000,319.81118317,97676,100.4538,7.88
random512-10-1.map,random512-10-1.map.scen,4,BFS,1.0,796,True,358.0000,318.75230865,128377,130.0640,12.31
random512-10-1.map,random512-10-1.map.scen,4,BFS,1.0,798,True,422.0000,319.48737335,187491,196.8746,32.09
random512-10-1.map,random512-10-1.map.scen,4,BFS,1.0,800,True,361.0000,322.33809509,68627,67.8617,11.99
random512-10-1.map,random512-10-1.map.scen,4,BFS,1.0,801,True,336.0000,321.35533905,88153,91.9012,4.56
random512-10-1.map,random512-10-1.map.scen,4,BFS,1.0,803,True,408.0000,323.64675293,181568,191.8612,26.06
random512-10-1.map,random512-10-1.map.scen,4,BFS,1.0,805,True,418.0000,320.17366485,107097,110.0053,30.55
random512-10-1.map,random512-10-1.map.scen,4,BFS,1.0,807,True,418.0000,321.34523773,182536,193.8552,30.08
random512-10-1.map,random512-10-1.map.scen,4,BFS,1.0,809,True,381.0000,322.4213562,133387,134.0691,18.17
random512-10-1.map,random512-10-1.map.scen,4,BFS,1.0,810,True,427.0000,325.07315979,162253,166.0644,31.36
random512-10-1.map,random512-10-1.map.scen,4,BFS,1.0,812,True,423.0000,324.00209198,204511,214.8255,30.55
random512-10-1.map,random512-10-1.map.scen,4,BFS,1.0,814,True,429.0000,325.90158691,157675,159.5130,31.63
random512-10-1.map,random512-10-1.map.scen,4,BFS,1.0,816,True,373.0000,324.37972565,114201,125.8849,14.99
random512-10-1.map,random512-10-1.map.scen,4,BFS,1.0,818,True,340.0000,325.35533905,143783,146.8609,4.50
random512-10-1.map,random512-10-1.map.scen,4,BFS,1.0,819,True,341.0000,325.18376617,71161,70.3533,4.86
random512-10-1.map,random512-10-1.map.scen,4,BFS,1.0,821,True,373.0000,331.99494934,109257,113.0155,12.35
random512-10-1.map,random512-10-1.map.scen,4,BFS,1.0,823,True,398.0000,328.87720032,138781,140.4573,21.02
random512-10-1.map,random512-10-1.map.scen,4,BFS,1.0,825,True,404.0000,330.4335495,130522,132.0446,22.26
random512-10-1.map,random512-10-1.map.scen,4,BFS,1.0,827,True,436.0000,329.38686828,215540,222.7002,32.37
random512-10-1.map,random512-10-1.map.scen,4,BFS,1.0,828,True,435.0000,328.97265472,222080,228.5747,32.23
random512-10-1.map,random512-10-1.map.scen,4,BFS,1.0,830,True,384.0000,333.62236633,147255,149.5660,15.10
random512-10-1.map,random512-10-1.map.scen,4,BFS,1.0,832,True,422.0000,332.37467499,154892,156.9236,26.97
random512-10-1.map,random512-10-1.map.scen,4,BFS,1.0,834,True,425.0000,335.37467499,195419,206.0634,26.72
random512-10-1.map,random512-10-1.map.scen,4,BFS,1.0,836,True,367.0000,333.61017303,172789,186.1447,10.01
random512-10-1.map,random512-10-1.map.scen,4,BFS,1.0,838,True,356.0000,334.32590179,95277,101.0395,6.48
random512-10-1.map,random512-10-1.map.scen,4,BFS,1.0,839,True,376.0000,333.82337646,180756,192.0068,12.63
random512-10-1.map,random512-10-1.map.scen,4,BFS,1.0,841,True,431.0000,337.51681061,138726,139.7103,27.70
random512-10-1.map,random512-10-1.map.scen,4,BFS,1.0,843,True,381.0000,339.99494934,102394,106.0891,12.06
random512-10-1.map,random512-10-1.map.scen,4,BFS,1.0,845,True,353.0000,336.25483398,125035,130.0120,4.98
random512-10-1.map,random512-10-1.map.scen,4,BFS,1.0,847,True,410.0000,336.77669525,159830,160.1392,21.74
random512-10-1.map,random512-10-1.map.scen,4,BFS,1.0,848,True,356.0000,336.08326111,87023,92.3859,5.93
random512-10-1.map,random512-10-1.map.scen,4,BFS,1.0,850,True,399.0000,343.93607483,134534,134.2098,16.01
random512-10-1.map,random512-10-1.map.scen,4,BFS,1.0,852,True,452.0000,341.87214966,200710,210.5431,32.21
random512-10-1.map,random512-10-1.map.scen,4,BFS,1.0,854,True,400.0000,343.76450195,121591,123.7993,16.36
random512-10-1.map,random512-10-1.map.scen,4,BFS,1.0,856,True,413.0000,342.70562744,169909,169.5231,20.51
random512-10-1.map,random512-10-1.map.scen,4,BFS,1.0,857,True,456.0000,343.5290039,176671,188.3870,32.74
random512-10-1.map,random512-10-1.map.scen,4,BFS,1.0,859,True,447.0000,340.97265472,178392,188.8324,31.10
random512-10-1.map,random512-10-1.map.scen,4,BFS,1.0,861,True,445.0000,344.8305191,123674,126.8413,29.05
random512-10-1.map,random512-10-1.map.scen,4,BFS,1.0,863,True,419.0000,345.19090881,187675,201.0571,21.38
random512-10-1.map,random512-10-1.map.scen,4,BFS,1.0,865,True,461.0000,346.18585815,180907,197.1770,33.17
random512-10-1.map,random512-10-1.map.scen,4,BFS,1.0,866,True,440.0000,346.85995636,195418,210.5613,26.85
random512-10-1.map,random512-10-1.map.scen,4,BFS,1.0,868,True,384.0000,346.50966797,163949,165.1172,10.82
random512-10-1.map,random512-10-1.map.scen,4,BFS,1.0,870,True,426.0000,351.01933594,174817,186.6612,21.36
random512-10-1.map,random512-10-1.map.scen,4,BFS,1.0,872,True,404.0000,350.69343414,198158,207.7540,15.20
random512-10-1.map,random512-10-1.map.scen,4,BFS,1.0,874,True,396.0000,350.30865784,199596,208.0697,13.04
random512-10-1.map,random512-10-1.map.scen,4,BFS,1.0,876,True,411.0000,348.90663757,136171,137.9225,17.80
random512-10-1.map,random512-10-1.map.scen,4,BFS,1.0,877,True,373.0000,348.63961029,136289,137.7801,6.99
random512-10-1.map,random512-10-1.map.scen,4,BFS,1.0,879,True,457.0000,349.21529541,213835,221.5943,30.86
random512-10-1.map,random512-10-1.map.scen,4,BFS,1.0,881,True,380.0000,352.46803741,183743,195.2912,7.81
random512-10-1.map,random512-10-1.map.scen,4,BFS,1.0,883,True,406.0000,353.27922058,136524,138.7833,14.92
random512-10-1.map,random512-10-1.map.scen,4,BFS,1.0,885,True,466.0000,354.70057678,151944,152.7485,31.38
random512-10-1.map,random512-10-1.map.scen,4,BFS,1.0,886,True,374.0000,354.91168823,108940,113.4299,5.38
random512-10-1.map,random512-10-1.map.scen,4,BFS,1.0,888,True,447.0000,352.68838348,201174,210.0233,26.74
random512-10-1.map,random512-10-1.map.scen,4,BFS,1.0,890,True,382.0000,356.22539673,132791,135.2005,7.24
random512-10-1.map,random512-10-1.map.scen,4,BFS,1.0,892,True,396.0000,359.09545441,136122,139.0399,10.28
random512-10-1.map,random512-10-1.map.scen,4,BFS,1.0,894,True,473.0000,358.77164459,157929,159.1549,31.84
random512-10-1.map,random512-10-1.map.scen,4,BFS,1.0,895,True,431.0000,356.60512237,151497,153.4982,20.86
random512-10-1.map,random512-10-1.map.scen,4,BFS,1.0,897,True,433.0000,359.77669525,138186,140.6487,20.35
random512-10-1.map,random512-10-1.map.scen,4,BFS,1.0,899,True,466.0000,358.21529541,189928,200.1970,30.09
random512-10-1.map,random512-10-1.map.scen,4,BFS,1.0,901,True,415.0000,361.69343414,100106,104.6891,14.74
random512-10-1.map,random512-10-1.map.scen,4,BFS,1.0,903,True,478.0000,360.8427124,222397,231.1852,32.47
random512-10-1.map,random512-10-1.map.scen,4,BFS,1.0,905,True,448.0000,361.30360718,147874,152.2129,24.00
random512-10-1.map,random512-10-1.map.scen,4,BFS,1.0,906,True,376.0000,361.94112549,109338,113.6805,3.88
random512-10-1.map,random512-10-1.map.scen,4,BFS,1.0,908,True,448.0000,362.47518005,131433,134.8603,23.59
random512-10-1.map,random512-10-1.map.scen,4,BFS,1.0,910,True,439.0000,365.19090881,160810,161.0633,20.21
random512-10-1.map,random512-10-1.map.scen,4,BFS,1.0,912,True,475.0000,367.21529541,209154,217.8227,29.35
random512-10-1.map,random512-10-1.map.scen,4,BFS,1.0,914,True,488.0000,366.74220733,184719,197.3965,33.06
random512-10-1.map,random512-10-1.map.scen,4,BFS,1.0,915,True,416.0000,366.79393921,140037,143.4627,13.42
random512-10-1.map,random512-10-1.map.scen,4,BFS,1.0,917,True,410.0000,364.30865784,188043,198.3564,12.54
random512-10-1.map,random512-10-1.map.scen,4,BFS,1.0,919,True,437.0000,367.29141388,205773,217.0909,18.98
random512-10-1.map,random512-10-1.map.scen,4,BFS,1.0,921,True,425.0000,369.35028839,177106,191.1875,15.07
random512-10-1.map,random512-10-1.map.scen,4,BFS,1.0,923,True,386.0000,371.59797974,156986,160.6760,3.88
random512-10-1.map,random512-10-1.map.scen,4,BFS,1.0,924,True,387.0000,371.18376617,107129,111.2666,4.26
random512-10-1.map,random512-10-1.map.scen,4,BFS,1.0,926,True,485.0000,370.18585815,165250,168.4567,31.02
random512-10-1.map,random512-10-1.map.scen,4,BFS,1.0,928,True,490.0000,371.08535309,230340,239.0848,32.05
random512-10-1.map,random512-10-1.map.scen,4,BFS,1.0,930,True,386.0000,374.28427124,126796,130.0256,3.13
random512-10-1.map,random512-10-1.map.scen,4,BFS,1.0,932,True,450.0000,373.84776306,179038,191.8513,20.37
random512-10-1.map,random512-10-1.map.scen,4,BFS,1.0,933,True,424.0000,373.03657989,181992,192.4840,13.66
random512-10-1.map,random512-10-1.map.scen,4,BFS,1.0,935,True,491.0000,375.01428528,196171,210.3176,30.93
random512-10-1.map,random512-10-1.map.scen,4,BFS,1.0,937,True,388.0000,374.18376617,110551,113.3830,3.69
random512-10-1.map,random512-10-1.map.scen,4,BFS,1.0,939,True,453.0000,375.67619018,147740,150.7871,20.58
random512-10-1.map,random512-10-1.map.scen,4,BFS,1.0,941,True,470.0000,377.4457428,198583,210.5362,24.52
random512-10-1.map,random512-10-1.map.scen,4,BFS,1.0,943,True,465.0000,378.88939361,163788,165.5786,22.73
random512-10-1.map,random512-10-1.map.scen,4,BFS,1.0,944,True,466.0000,378.1320343,191486,204.7445,23.24
random512-10-1.map,random512-10-1.map.scen,4,BFS,1.0,946,True,436.0000,379.76450195,150682,153.6474,14.81
random512-10-1.map,random512-10-1.map.scen,4,BFS,1.0,948,True,397.0000,376.49747467,132628,135.4854,5.45
random512-10-1.map,random512-10-1.map.scen,4,BFS,1.0,950,True,445.0000,382.32085113,177658,189.3791,16.39
random512-10-1.map,random512-10-1.map.scen,4,BFS,1.0,952,True,509.0000,381.29855652,230072,239.1363,33.49
random512-10-1.map,random512-10-1.map.scen,4,BFS,1.0,953,True,500.0000,381.67113952,207686,216.3959,31.00
random512-10-1.map,random512-10-1.map.scen,4,BFS,1.0,955,True,506.0000,381.81327514,215807,223.0611,32.53
random512-10-1.map,random512-10-1.map.scen,4,BFS,1.0,957,True,452.0000,380.77669525,179026,193.4502,18.70
random512-10-1.map,random512-10-1.map.scen,4,BFS,1.0,959,True,408.0000,380.46803741,147210,149.3986,7.24
random512-10-1.map,random512-10-1.map.scen,4,BFS,1.0,961,True,499.0000,384.77164459,117167,121.4662,29.69
random512-10-1.map,random512-10-1.map.scen,4,BFS,1.0,962,True,405.0000,385.08326111,127928,132.8399,5.17
random512-10-1.map,random512-10-1.map.scen,4,BFS,1.0,964,True,451.0000,387.14927826,149865,152.6789,16.49
random512-10-1.map,random512-10-1.map.scen,4,BFS,1.0,966,True,417.0000,384.78174591,121597,124.0341,8.37
random512-10-1.map,random512-10-1.map.scen,4,BFS,1.0,968,True,434.0000,385.96551208,154046,157.3093,12.45
random512-10-1.map,random512-10-1.map.scen,4,BFS,1.0,970,True,511.0000,388.57063446,154162,157.6161,31.51
random512-10-1.map,random512-10-1.map.scen,4,BFS,1.0,971,True,434.0000,389.13708496,194956,204.9087,11.53
random512-10-1.map,random512-10-1.map.scen,4,BFS,1.0,973,True,446.0000,389.17871551,181437,194.3700,14.60
random512-10-1.map,random512-10-1.map.scen,4,BFS,1.0,975,True,507.0000,388.67113952,184416,198.8731,30.44
random512-10-1.map,random512-10-1.map.scen,4,BFS,1.0,977,True,424.0000,390.0243866,119145,123.1804,8.71
random512-10-1.map,random512-10-1.map.scen,4,BFS,1.0,979,True,464.0000,389.01933594,155680,159.1942,19.27
random512-10-1.map,random512-10-1.map.scen,4,BFS,1.0,981,True,417.0000,395.91168823,172482,186.4881,5.33
random512-10-1.map,random512-10-1.map.scen,4,BFS,1.0,982,True,426.0000,393.78174591,122278,126.0337,8.18
random512-10-1.map,random512-10-1.map.scen,4,BFS,1.0,984,True,405.0000,394.6984848,125935,127.6323,2.61
random512-10-1.map,random512-10-1.map.scen,4,BFS,1.0,986,True,450.0000,392.00714264,196169,206.3322,14.79
random512-10-1.map,random512-10-1.map.scen,4,BFS,1.0,988,True,529.0000,394.26911926,159984,164.6098,34.17
random512-10-1.map,random512-10-1.map.scen,4,BFS,1.0,990,True,441.0000,398.82337646,153274,156.7178,10.58
random512-10-1.map,random512-10-1.map.scen,4,BFS,1.0,991,True,413.0000,396.59797974,156617,160.0673,4.14
random512-10-1.map,random512-10-1.map.scen,4,BFS,1.0,993,True,501.0000,396.1442276,217253,230.3323,26.47
random512-10-1.map,random512-10-1.map.scen,4,BFS,1.0,995,True,505.0000,397.80108185,224093,231.3900,26.95
random512-10-1.map,random512-10-1.map.scen,4,BFS,1.0,997,True,424.0000,397.63961029,121146,124.8910,6.63
random512-10-1.map,random512-10-1.map.scen,4,BFS,1.0,999,True,490.0000,396.85995636,198104,212.4455,23.47
random512-10-1.map,random512-10-1.map.scen,4,BFS,1.0,1000,True,454.0000,403.03657989,186130,208.7711,12.64
random512-10-1.map,random512-10-1.map.scen,4,BFS,1.0,1002,True,504.0000,400.31580047,219204,231.7617,25.90
random512-10-1.map,random512-10-1.map.scen,4,BFS,1.0,1004,True,489.0000,400.54624786,168547,171.2401,22.08
random512-10-1.map,random512-10-1.map.scen,4,BFS,1.0,1006,True,445.0000,401.65180359,157328,161.6814,10.79
random512-10-1.map,random512-10-1.map.scen,4,BFS,1.0,1008,True,498.0000,401.34523773,162352,165.5085,24.08
random512-10-1.map,random512-10-1.map.scen,4,BFS,1.0,1009,True,427.0000,402.3969696,141284,151.6902,6.11
random512-10-1.map,random512-10-1.map.scen,4,BFS,1.0,1011,True,545.0000,406.75440063,235353,244.8313,33.99
random512-10-1.map,random512-10-1.map.scen,4,BFS,1.0,1013,True,429.0000,406.74011536,149227,151.4955,5.47
random512-10-1.map,random512-10-1.map.scen,4,BFS,1.0,1015,True,458.0000,407.62236633,149918,151.7425,12.36
random512-10-1.map,random512-10-1.map.scen,4,BFS,1.0,1017,True,534.0000,405.12698364,211497,221.6871,31.81
random512-10-1.map,random512-10-1.map.scen,4,BFS,1.0,1019,True,436.0000,407.29646454,174186,189.4643,7.05
random512-10-1.map,random512-10-1.map.scen,4,BFS,1.0,1020,True,545.0000,410.26911926,218194,229.1039,32.84
random512-10-1.map,random512-10-1.map.scen,4,BFS,1.0,1022,True,526.0000,408.25692596,212381,221.7058,28.84
random512-10-1.map,random512-10-1.map.scen,4,BFS,1.0,1024,True,433.0000,411.32590179,144634,157.4371,5.27
random512-10-1.map,random512-10-1.map.scen,4,BFS,1.0,1026,True,510.0000,410.41630554,199000,210.9557,24.26
random512-10-1.map,random512-10-1.map.scen,4,BFS,1.0,1028,True,492.0000,408.23253937,212156,221.4041,20.52
random512-10-1.map,random512-10-1.map.scen,4,BFS,1.0,1029,True,496.0000,408.1320343,210778,221.7154,21.53
random512-10-1.map,random512-10-1.map.scen,4,BFS,1.0,1031,True,456.0000,414.99494934,191957,207.0263,9.88
random512-10-1.map,random512-10-1.map.scen,4,BFS,1.0,1033,True,480.0000,412.04877319,147854,153.1537,16.49
random512-10-1.map,random512-10-1.map.scen,4,BFS,1.0,1035,True,445.0000,413.36753235,157880,161.8684,7.65
