MapName,Scenario,Connectivity,Algorithm,Weight,TaskID,Success,PathLength,OptimalLength,ExpandedNodes,TimeMS,Suboptimality
random512-20-0.map,random512-20-0.map.scen,4,BFS,1.0,0,True,2.0000,2.0,7,0.0214,0.00
random512-20-0.map,random512-20-0.map.scen,4,BFS,1.0,1,True,3.0000,2.41421356,11,0.0270,24.26
random512-20-0.map,random512-20-0.map.scen,4,BFS,1.0,2,True,1.0000,1.0,5,0.0119,0.00
random512-20-0.map,random512-20-0.map.scen,4,BFS,1.0,3,True,1.0000,1.0,2,0.0044,0.00
random512-20-0.map,random512-20-0.map.scen,4,BFS,1.0,4,True,3.0000,2.41421356,19,0.0443,24.26
random512-20-0.map,random512-20-0.map.scen,4,BFS,1.0,5,True,3.0000,2.41421356,10,0.0150,24.26
random512-20-0.map,random512-20-0.map.scen,4,BFS,1.0,6,True,0.0000,0.0,1,0.0013,0.00
random512-20-0.map,random512-20-0.map.scen,4,BFS,1.0,7,True,4.0000,3.41421356,26,0.0368,17.16
random512-20-0.map,random512-20-0.map.scen,4,BFS,1.0,8,True,3.0000,3.0,16,0.0250,0.00
random512-20-0.map,random512-20-0.map.scen,4,BFS,1.0,9,True,2.0000,1.41421356,11,0.0156,41.42
random512-20-0.map,random512-20-0.map.scen,4,BFS,1.0,10,True,9.0000,7.82842712,113,0.1519,14.97
random512-20-0.map,random512-20-0.map.scen,4,BFS,1.0,11,True,9.0000,7.82842712,88,0.1043,14.97
random512-20-0.map,random512-20-0.map.scen,4,BFS,1.0,12,True,6.0000,5.41421356,54,0.0718,10.82
random512-20-0.map,random512-20-0.map.scen,4,BFS,1.0,13,True,5.0000,4.41421356,25,0.0348,13.27
random512-20-0.map,random512-20-0.map.scen,4,BFS,1.0,14,True,9.0000,7.82842712,120,0.1662,14.97
random512-20-0.map,random512-20-0.map.scen,4,BFS,1.0,15,True,7.0000,6.41421356,60,0.0725,9.13
random512-20-0.map,random512-20-0.map.scen,4,BFS,1.0,16,True,10.0000,7.65685425,142,0.1827,30.60
random512-20-0.map,random512-20-0.map.scen,4,BFS,1.0,17,True,5.0000,5.0,30,0.0388,0.00
random512-20-0.map,random512-20-0.map.scen,4,BFS,1.0,18,True,8.0000,7.41421356,85,0.1000,7.90
random512-20-0.map,random512-20-0.map.scen,4,BFS,1.0,19,True,9.0000,7.82842712,118,0.1493,14.97
random512-20-0.map,random512-20-0.map.scen,4,BFS,1.0,20,True,11.0000,9.82842712,140,0.1918,11.92
random512-20-0.map,random512-20-0.map.scen,4,BFS,1.0,21,True,13.0000,11.82842712,238,0.3338,9.90
random512-20-0.map,random512-20-0.map.scen,4,BFS,1.0,22,True,10.0000,10.0,124,0.1677,0.00
random512-20-0.map,random512-20-0.map.scen,4,BFS,1.0,23,True,12.0000,11.41421356,179,0.2316,5.13
random512-20-0.map,random512-20-0.map.scen,4,BFS,1.0,24,True,11.0000,9.82842712,122,0.1633,11.92
random512-20-0.map,random512-20-0.map.scen,4,BFS,1.0,25,True,12.0000,9.65685425,204,0.2704,24.26
random512-20-0.map,random512-20-0.map.scen,4,BFS,1.0,26,True,12.0000,8.48528137,116,0.1422,41.42
random512-20-0.map,random512-20-0.map.scen,4,BFS,1.0,27,True,14.0000,11.65685425,262,0.3531,20.10
random512-20-0.map,random512-20-0.map.scen,4,BFS,1.0,28,True,11.0000,10.41421356,176,0.2271,5.62
random512-20-0.map,random512-20-0.map.scen,4,BFS,1.0,29,True,10.0000,9.41421356,143,0.1899,6.22
random512-20-0.map,random512-20-0.map.scen,4,BFS,1.0,30,True,17.0000,15.24264069,292,0.3730,11.53
random512-20-0.map,random512-20-0.map.scen,4,BFS,1.0,31,True,18.0000,15.65685425,445,0.5740,14.97
random512-20-0.map,random512-20-0.map.scen,4,BFS,1.0,32,True,15.0000,13.24264069,330,0.4602,13.27
random512-20-0.map,random512-20-0.map.scen,4,BFS,1.0,33,True,17.0000,14.07106781,430,0.5187,20.82
random512-20-0.map,random512-20-0.map.scen,4,BFS,1.0,34,True,14.0000,12.82842712,234,0.3638,9.13
random512-20-0.map,random512-20-0.map.scen,4,BFS,1.0,35,True,14.0000,12.24264069,233,0.3279,14.35
random512-20-0.map,random512-20-0.map.scen,4,BFS,1.0,36,True,16.0000,13.07106781,390,0.4826,22.41
random512-20-0.map,random512-20-0.map.scen,4,BFS,1.0,37,True,17.0000,14.07106781,392,0.5004,20.82
random512-20-0.map,random512-20-0.map.scen,4,BFS,1.0,38,True,20.0000,15.89949493,560,0.7214,25.79
random512-20-0.map,random512-20-0.map.scen,4,BFS,1.0,39,True,16.0000,13.65685425,335,0.4214,17.16
random512-20-0.map,random512-20-0.map.scen,4,BFS,1.0,40,True,21.0000,19.24264069,636,0.7390,9.13
random512-20-0.map,random512-20-0.map.scen,4,BFS,1.0,41,True,24.0000,19.89949493,602,0.8890,20.61
random512-20-0.map,random512-20-0.map.scen,4,BFS,1.0,42,True,21.0000,18.07106781,641,1.2526,16.21
random512-20-0.map,random512-20-0.map.scen,4,BFS,1.0,43,True,19.0000,17.82842712,458,0.6168,6.57
random512-20-0.map,random512-20-0.map.scen,4,BFS,1.0,44,True,19.0000,16.07106781,482,0.8192,18.22
random512-20-0.map,random512-20-0.map.scen,4,BFS,1.0,45,True,20.0000,18.24264069,595,0.8058,9.63
random512-20-0.map,random512-20-0.map.scen,4,BFS,1.0,46,True,20.0000,17.07106781,507,0.6882,17.16
random512-20-0.map,random512-20-0.map.scen,4,BFS,1.0,47,True,19.0000,16.65685425,485,0.6171,14.07
random512-20-0.map,random512-20-0.map.scen,4,BFS,1.0,48,True,20.0000,16.48528137,421,0.5270,21.32
random512-20-0.map,random512-20-0.map.scen,4,BFS,1.0,49,True,20.0000,17.65685425,483,0.6377,13.27
random512-20-0.map,random512-20-0.map.scen,4,BFS,1.0,50,True,22.0000,21.41421356,699,0.8575,2.74
random512-20-0.map,random512-20-0.map.scen,4,BFS,1.0,51,True,24.0000,21.65685425,817,0.9720,10.82
random512-20-0.map,random512-20-0.map.scen,4,BFS,1.0,52,True,28.0000,23.3137085,1051,1.2997,20.10
random512-20-0.map,random512-20-0.map.scen,4,BFS,1.0,53,True,26.0000,23.07106781,958,1.1277,12.70
random512-20-0.map,random512-20-0.map.scen,4,BFS,1.0,54,True,28.0000,22.14213562,1053,1.2818,26.46
random512-20-0.map,random512-20-0.map.scen,4,BFS,1.0,55,True,26.0000,20.72792206,944,1.1034,25.43
random512-20-0.map,random512-20-0.map.scen,4,BFS,1.0,56,True,26.0000,23.65685425,858,1.0210,9.90
random512-20-0.map,random512-20-0.map.scen,4,BFS,1.0,57,True,28.0000,23.89949493,1154,1.4003,17.16
random512-20-0.map,random512-20-0.map.scen,4,BFS,1.0,58,True,27.0000,22.3137085,1013,1.7836,21.00
random512-20-0.map,random512-20-0.map.scen,4,BFS,1.0,59,True,26.0000,21.89949493,876,1.1931,18.72
random512-20-0.map,random512-20-0.map.scen,4,BFS,1.0,60,True,27.0000,24.65685425,1155,1.3411,9.50
random512-20-0.map,random512-20-0.map.scen,4,BFS,1.0,61,True,33.0000,27.72792206,1563,1.7377,19.01
random512-20-0.map,random512-20-0.map.scen,4,BFS,1.0,62,True,30.0000,26.48528137,1226,1.4158,13.27
random512-20-0.map,random512-20-0.map.scen,4,BFS,1.0,63,True,29.0000,24.89949493,1065,1.2727,16.47
random512-20-0.map,random512-20-0.map.scen,4,BFS,1.0,64,True,27.0000,25.82842712,987,1.1302,4.54
random512-20-0.map,random512-20-0.map.scen,4,BFS,1.0,65,True,29.0000,26.65685425,1182,1.4014,8.79
random512-20-0.map,random512-20-0.map.scen,4,BFS,1.0,66,True,28.0000,27.41421356,1077,1.2644,2.14
random512-20-0.map,random512-20-0.map.scen,4,BFS,1.0,67,True,29.0000,24.89949493,640,0.7703,16.47
random512-20-0.map,random512-20-0.map.scen,4,BFS,1.0,68,True,28.0000,24.48528137,1070,1.2521,14.35
random512-20-0.map,random512-20-0.map.scen,4,BFS,1.0,69,True,28.0000,26.82842712,1144,1.3450,4.37
random512-20-0.map,random512-20-0.map.scen,4,BFS,1.0,70,True,35.0000,28.55634918,1749,1.9765,22.56
random512-20-0.map,random512-20-0.map.scen,4,BFS,1.0,71,True,32.0000,29.07106781,1424,1.5988,10.08
random512-20-0.map,random512-20-0.map.scen,4,BFS,1.0,72,True,36.0000,31.89949493,1979,2.1504,12.85
random512-20-0.map,random512-20-0.map.scen,4,BFS,1.0,73,True,35.0000,30.3137085,1849,2.0080,15.46
random512-20-0.map,random512-20-0.map.scen,4,BFS,1.0,74,True,35.0000,31.48528137,1678,1.8787,11.16
random512-20-0.map,random512-20-0.map.scen,4,BFS,1.0,75,True,36.0000,29.55634918,1918,2.1153,21.80
random512-20-0.map,random512-20-0.map.scen,4,BFS,1.0,76,True,38.0000,31.55634918,2077,2.2997,20.42
random512-20-0.map,random512-20-0.map.scen,4,BFS,1.0,77,True,30.0000,29.07106781,854,1.0102,3.20
random512-20-0.map,random512-20-0.map.scen,4,BFS,1.0,78,True,34.0000,31.65685425,1643,1.8846,7.40
random512-20-0.map,random512-20-0.map.scen,4,BFS,1.0,79,True,34.0000,30.48528137,1619,1.8761,11.53
random512-20-0.map,random512-20-0.map.scen,4,BFS,1.0,80,True,38.0000,34.48528137,2097,2.4145,10.19
random512-20-0.map,random512-20-0.map.scen,4,BFS,1.0,81,True,36.0000,34.24264069,1963,2.6238,5.13
random512-20-0.map,random512-20-0.map.scen,4,BFS,1.0,82,True,39.0000,35.14213562,2187,3.0490,10.98
random512-20-0.map,random512-20-0.map.scen,4,BFS,1.0,83,True,42.0000,35.55634918,2569,2.7802,18.12
random512-20-0.map,random512-20-0.map.scen,4,BFS,1.0,84,True,35.0000,32.65685425,1764,1.8879,7.18
random512-20-0.map,random512-20-0.map.scen,4,BFS,1.0,85,True,38.0000,33.89949493,1523,1.6848,12.10
random512-20-0.map,random512-20-0.map.scen,4,BFS,1.0,86,True,39.0000,33.72792206,2122,2.3548,15.63
random512-20-0.map,random512-20-0.map.scen,4,BFS,1.0,87,True,42.0000,35.55634918,2622,2.9081,18.12
random512-20-0.map,random512-20-0.map.scen,4,BFS,1.0,88,True,35.0000,33.82842712,1843,2.0713,3.46
random512-20-0.map,random512-20-0.map.scen,4,BFS,1.0,89,True,40.0000,33.55634918,1994,2.1513,19.20
random512-20-0.map,random512-20-0.map.scen,4,BFS,1.0,90,True,42.0000,37.89949493,2563,2.9215,10.82
random512-20-0.map,random512-20-0.map.scen,4,BFS,1.0,91,True,45.0000,37.38477631,2884,5.1563,20.37
random512-20-0.map,random512-20-0.map.scen,4,BFS,1.0,92,True,44.0000,39.3137085,2776,4.9014,11.92
random512-20-0.map,random512-20-0.map.scen,4,BFS,1.0,93,True,45.0000,37.97056274,2708,2.9682,18.51
random512-20-0.map,random512-20-0.map.scen,4,BFS,1.0,94,True,40.0000,36.14213562,2069,2.2050,10.67
random512-20-0.map,random512-20-0.map.scen,4,BFS,1.0,95,True,41.0000,36.89949493,2295,2.6008,11.11
random512-20-0.map,random512-20-0.map.scen,4,BFS,1.0,96,True,46.0000,38.38477631,2916,3.6733,19.84
random512-20-0.map,random512-20-0.map.scen,4,BFS,1.0,97,True,41.0000,37.48528137,1863,1.9690,9.38
random512-20-0.map,random512-20-0.map.scen,4,BFS,1.0,98,True,45.0000,37.38477631,3049,3.3369,20.37
random512-20-0.map,random512-20-0.map.scen,4,BFS,1.0,99,True,41.0000,36.89949493,2382,2.7057,11.11
random512-20-0.map,random512-20-0.map.scen,4,BFS,1.0,100,True,49.0000,43.14213562,3351,3.5320,13.58
random512-20-0.map,random512-20-0.map.scen,4,BFS,1.0,101,True,52.0000,42.62741699,4029,4.3328,21.99
random512-20-0.map,random512-20-0.map.scen,4,BFS,1.0,102,True,52.0000,42.04163055,3902,4.1082,23.69
random512-20-0.map,random512-20-0.map.scen,4,BFS,1.0,103,True,50.0000,43.55634918,3195,3.4444,14.79
random512-20-0.map,random512-20-0.map.scen,4,BFS,1.0,104,True,51.0000,42.21320343,3746,3.9352,20.82
random512-20-0.map,random512-20-0.map.scen,4,BFS,1.0,105,True,48.0000,42.14213562,3269,3.7610,13.90
random512-20-0.map,random512-20-0.map.scen,4,BFS,1.0,106,True,47.0000,42.3137085,3218,3.4666,11.08
random512-20-0.map,random512-20-0.map.scen,4,BFS,1.0,107,True,49.0000,42.55634918,3604,3.8740,15.14
random512-20-0.map,random512-20-0.map.scen,4,BFS,1.0,108,True,49.0000,42.55634918,3576,3.9118,15.14
random512-20-0.map,random512-20-0.map.scen,4,BFS,1.0,109,True,42.0000,40.24264069,2495,2.9945,4.37
random512-20-0.map,random512-20-0.map.scen,4,BFS,1.0,110,True,49.0000,44.3137085,2753,3.0201,10.58
random512-20-0.map,random512-20-0.map.scen,4,BFS,1.0,111,True,51.0000,46.89949493,3942,4.1447,8.74
random512-20-0.map,random512-20-0.map.scen,4,BFS,1.0,112,True,51.0000,47.48528137,3797,3.9984,7.40
random512-20-0.map,random512-20-0.map.scen,4,BFS,1.0,113,True,52.0000,44.97056274,3945,4.3485,15.63
random512-20-0.map,random512-20-0.map.scen,4,BFS,1.0,114,True,48.0000,45.65685425,3453,3.6559,5.13
random512-20-0.map,random512-20-0.map.scen,4,BFS,1.0,115,True,52.0000,47.89949493,4015,4.2478,8.56
random512-20-0.map,random512-20-0.map.scen,4,BFS,1.0,116,True,54.0000,46.38477631,4360,4.5621,16.42
random512-20-0.map,random512-20-0.map.scen,4,BFS,1.0,117,True,51.0000,46.3137085,3756,3.9982,10.12
random512-20-0.map,random512-20-0.map.scen,4,BFS,1.0,118,True,53.0000,47.14213562,4091,4.2165,12.43
random512-20-0.map,random512-20-0.map.scen,4,BFS,1.0,119,True,57.0000,47.62741699,3572,3.7492,19.68
random512-20-0.map,random512-20-0.map.scen,4,BFS,1.0,120,True,57.0000,48.21320343,4854,4.9566,18.22
random512-20-0.map,random512-20-0.map.scen,4,BFS,1.0,121,True,60.0000,50.04163055,5096,6.0226,19.90
random512-20-0.map,random512-20-0.map.scen,4,BFS,1.0,122,True,58.0000,50.38477631,4837,5.0262,15.11
random512-20-0.map,random512-20-0.map.scen,4,BFS,1.0,123,True,61.0000,48.11269836,5559,6.0906,26.79
random512-20-0.map,random512-20-0.map.scen,4,BFS,1.0,124,True,57.0000,49.38477631,4546,4.6848,15.42
random512-20-0.map,random512-20-0.map.scen,4,BFS,1.0,125,True,56.0000,48.97056274,4572,4.9297,14.35
random512-20-0.map,random512-20-0.map.scen,4,BFS,1.0,126,True,53.0000,48.89949493,3332,3.6209,8.39
random512-20-0.map,random512-20-0.map.scen,4,BFS,1.0,127,True,60.0000,48.87005768,5402,5.9326,22.77
random512-20-0.map,random512-20-0.map.scen,4,BFS,1.0,128,True,56.0000,50.14213562,4558,4.6498,11.68
random512-20-0.map,random512-20-0.map.scen,4,BFS,1.0,129,True,58.0000,50.97056274,4809,5.0363,13.79
random512-20-0.map,random512-20-0.map.scen,4,BFS,1.0,130,True,62.0000,55.21320343,5502,6.1482,12.29
random512-20-0.map,random512-20-0.map.scen,4,BFS,1.0,131,True,63.0000,53.04163055,5832,6.3296,18.77
random512-20-0.map,random512-20-0.map.scen,4,BFS,1.0,132,True,63.0000,53.62741699,5700,6.0417,17.48
random512-20-0.map,random512-20-0.map.scen,4,BFS,1.0,133,True,59.0000,53.72792206,5008,5.4553,9.81
random512-20-0.map,random512-20-0.map.scen,4,BFS,1.0,134,True,60.0000,54.38477631,3055,3.1733,10.32
random512-20-0.map,random512-20-0.map.scen,4,BFS,1.0,135,True,57.0000,52.89949493,4798,5.0596,7.75
random512-20-0.map,random512-20-0.map.scen,4,BFS,1.0,136,True,63.0000,53.62741699,5972,6.0840,17.48
random512-20-0.map,random512-20-0.map.scen,4,BFS,1.0,137,True,67.0000,54.6984848,6450,6.2918,22.49
random512-20-0.map,random512-20-0.map.scen,4,BFS,1.0,138,True,62.0000,54.38477631,5577,5.4764,14.00
random512-20-0.map,random512-20-0.map.scen,4,BFS,1.0,139,True,62.0000,54.38477631,4378,4.1047,14.00
random512-20-0.map,random512-20-0.map.scen,4,BFS,1.0,140,True,68.0000,56.28427124,3955,3.8182,20.82
random512-20-0.map,random512-20-0.map.scen,4,BFS,1.0,141,True,65.0000,57.38477631,1909,1.8379,13.27
random512-20-0.map,random512-20-0.map.scen,4,BFS,1.0,142,True,73.0000,58.94112549,7828,7.7530,23.85
random512-20-0.map,random512-20-0.map.scen,4,BFS,1.0,143,True,63.0000,57.72792206,4350,4.1481,9.13
random512-20-0.map,random512-20-0.map.scen,4,BFS,1.0,144,True,66.0000,58.38477631,6532,6.4918,13.04
random512-20-0.map,random512-20-0.map.scen,4,BFS,1.0,145,True,69.0000,57.87005768,7005,6.9641,19.23
random512-20-0.map,random512-20-0.map.scen,4,BFS,1.0,146,True,71.0000,59.87005768,7234,7.8890,18.59
random512-20-0.map,random512-20-0.map.scen,4,BFS,1.0,147,True,61.0000,56.89949493,3942,3.8975,7.21
random512-20-0.map,random512-20-0.map.scen,4,BFS,1.0,148,True,64.0000,57.45584412,4454,4.2432,11.39
random512-20-0.map,random512-20-0.map.scen,4,BFS,1.0,149,True,67.0000,57.62741699,6397,6.4751,16.26
random512-20-0.map,random512-20-0.map.scen,4,BFS,1.0,150,True,72.0000,60.28427124,4829,4.8387,19.43
random512-20-0.map,random512-20-0.map.scen,4,BFS,1.0,151,True,72.0000,60.87005768,7679,7.7944,18.28
random512-20-0.map,random512-20-0.map.scen,4,BFS,1.0,152,True,69.0000,60.21320343,6927,7.0214,14.59
random512-20-0.map,random512-20-0.map.scen,4,BFS,1.0,153,True,76.0000,60.76955261,7814,7.7082,25.06
random512-20-0.map,random512-20-0.map.scen,4,BFS,1.0,154,True,73.0000,63.87005768,6906,6.8333,14.29
random512-20-0.map,random512-20-0.map.scen,4,BFS,1.0,155,True,76.0000,63.11269836,8480,8.4557,20.42
random512-20-0.map,random512-20-0.map.scen,4,BFS,1.0,156,True,69.0000,63.72792206,7016,7.0388,8.27
random512-20-0.map,random512-20-0.map.scen,4,BFS,1.0,157,True,66.0000,61.89949493,6112,6.1462,6.62
random512-20-0.map,random512-20-0.map.scen,4,BFS,1.0,158,True,76.0000,61.35533905,6508,6.4202,23.87
random512-20-0.map,random512-20-0.map.scen,4,BFS,1.0,159,True,76.0000,63.11269836,8717,8.7077,20.42
random512-20-0.map,random512-20-0.map.scen,4,BFS,1.0,160,True,72.0000,64.62741699,7583,7.7815,11.41
random512-20-0.map,random512-20-0.map.scen,4,BFS,1.0,161,True,76.0000,67.21320343,7014,7.0568,13.07
random512-20-0.map,random512-20-0.map.scen,4,BFS,1.0,162,True,82.0000,67.35533905,8865,8.9055,21.74
random512-20-0.map,random512-20-0.map.scen,4,BFS,1.0,163,True,83.0000,67.18376617,10000,10.0076,23.54
random512-20-0.map,random512-20-0.map.scen,4,BFS,1.0,164,True,78.0000,65.11269836,5615,5.5870,19.79
random512-20-0.map,random512-20-0.map.scen,4,BFS,1.0,165,True,74.0000,64.04163055,6912,6.8561,15.55
random512-20-0.map,random512-20-0.map.scen,4,BFS,1.0,166,True,74.0000,66.97056274,6017,6.0001,10.50
random512-20-0.map,random512-20-0.map.scen,4,BFS,1.0,167,True,84.0000,64.66904755,10043,10.4310,29.89
random512-20-0.map,random512-20-0.map.scen,4,BFS,1.0,168,True,81.0000,67.76955261,9676,9.6143,19.52
random512-20-0.map,random512-20-0.map.scen,4,BFS,1.0,169,True,82.0000,67.35533905,9726,9.4838,21.74
random512-20-0.map,random512-20-0.map.scen,4,BFS,1.0,170,True,82.0000,68.52691193,9918,9.6672,19.66
random512-20-0.map,random512-20-0.map.scen,4,BFS,1.0,171,True,81.0000,71.28427124,9775,9.5575,13.63
random512-20-0.map,random512-20-0.map.scen,4,BFS,1.0,172,True,82.0000,70.28427124,9780,9.6339,16.67
random512-20-0.map,random512-20-0.map.scen,4,BFS,1.0,173,True,86.0000,71.59797974,10850,11.0517,20.12
random512-20-0.map,random512-20-0.map.scen,4,BFS,1.0,174,True,76.0000,70.14213562,7821,7.6720,8.35
random512-20-0.map,random512-20-0.map.scen,4,BFS,1.0,175,True,79.0000,69.62741699,8825,8.6727,13.46
random512-20-0.map,random512-20-0.map.scen,4,BFS,1.0,176,True,73.0000,68.3137085,7669,7.6763,6.86
random512-20-0.map,random512-20-0.map.scen,4,BFS,1.0,177,True,83.0000,70.6984848,9925,9.7752,17.40
random512-20-0.map,random512-20-0.map.scen,4,BFS,1.0,178,True,87.0000,71.18376617,11208,11.3068,22.22
random512-20-0.map,random512-20-0.map.scen,4,BFS,1.0,179,True,78.0000,71.21320343,8646,8.5493,9.53
random512-20-0.map,random512-20-0.map.scen,4,BFS,1.0,180,True,81.0000,74.55634918,9456,9.2206,8.64
random512-20-0.map,random512-20-0.map.scen,4,BFS,1.0,181,True,80.0000,74.72792206,9375,9.2734,7.06
random512-20-0.map,random512-20-0.map.scen,4,BFS,1.0,182,True,96.0000,75.49747467,13447,13.8905,27.16
random512-20-0.map,random512-20-0.map.scen,4,BFS,1.0,183,True,79.0000,72.55634918,8357,12.7794,8.88
random512-20-0.map,random512-20-0.map.scen,4,BFS,1.0,184,True,82.0000,74.97056274,9855,9.9929,9.38
random512-20-0.map,random512-20-0.map.scen,4,BFS,1.0,185,True,89.0000,74.35533905,11717,12.1585,19.70
random512-20-0.map,random512-20-0.map.scen,4,BFS,1.0,186,True,79.0000,74.89949493,7827,7.7672,5.47
random512-20-0.map,random512-20-0.map.scen,4,BFS,1.0,187,True,82.0000,75.55634918,8085,8.0018,8.53
random512-20-0.map,random512-20-0.map.scen,4,BFS,1.0,188,True,78.0000,72.72792206,8682,8.5091,7.25
random512-20-0.map,random512-20-0.map.scen,4,BFS,1.0,189,True,82.0000,72.28427124,9853,9.8331,13.44
random512-20-0.map,random512-20-0.map.scen,4,BFS,1.0,190,True,82.0000,76.72792206,10151,10.3394,6.87
random512-20-0.map,random512-20-0.map.scen,4,BFS,1.0,191,True,84.0000,79.3137085,10681,11.1484,5.91
random512-20-0.map,random512-20-0.map.scen,4,BFS,1.0,192,True,92.0000,78.52691193,12335,13.1759,17.16
random512-20-0.map,random512-20-0.map.scen,4,BFS,1.0,193,True,95.0000,78.0121933,10250,10.7273,21.78
random512-20-0.map,random512-20-0.map.scen,4,BFS,1.0,194,True,82.0000,76.72792206,9449,9.4110,6.87
random512-20-0.map,random512-20-0.map.scen,4,BFS,1.0,195,True,99.0000,79.66904755,14516,14.4950,24.26
random512-20-0.map,random512-20-0.map.scen,4,BFS,1.0,196,True,88.0000,79.79898987,11578,11.9216,10.28
random512-20-0.map,random512-20-0.map.scen,4,BFS,1.0,197,True,95.0000,76.84062042,13274,13.2793,23.63
random512-20-0.map,random512-20-0.map.scen,4,BFS,1.0,198,True,99.0000,77.91168823,12608,12.4919,27.07
random512-20-0.map,random512-20-0.map.scen,4,BFS,1.0,199,True,96.0000,77.84062042,12906,13.8602,23.33
random512-20-0.map,random512-20-0.map.scen,4,BFS,1.0,200,True,94.0000,83.45584412,12185,12.2454,12.63
random512-20-0.map,random512-20-0.map.scen,4,BFS,1.0,201,True,88.0000,80.97056274,11418,11.6493,8.68
random512-20-0.map,random512-20-0.map.scen,4,BFS,1.0,202,True,97.0000,82.35533905,13924,13.5263,17.78
random512-20-0.map,random512-20-0.map.scen,4,BFS,1.0,203,True,97.0000,81.76955261,7413,7.0354,18.63
random512-20-0.map,random512-20-0.map.scen,4,BFS,1.0,204,True,92.0000,82.04163055,12091,12.1033,12.14
random512-20-0.map,random512-20-0.map.scen,4,BFS,1.0,205,True,96.0000,81.94112549,11926,12.3247,17.16
random512-20-0.map,random512-20-0.map.scen,4,BFS,1.0,206,True,99.0000,81.42640686,14546,14.2361,21.58
random512-20-0.map,random512-20-0.map.scen,4,BFS,1.0,207,True,92.0000,82.62741699,12486,12.4329,11.34
random512-20-0.map,random512-20-0.map.scen,4,BFS,1.0,208,True,103.0000,83.66904755,15606,15.3714,23.10
random512-20-0.map,random512-20-0.map.scen,4,BFS,1.0,209,True,97.0000,83.52691193,13785,13.5021,16.13
random512-20-0.map,random512-20-0.map.scen,4,BFS,1.0,210,True,103.0000,87.18376617,10814,11.0056,18.14
random512-20-0.map,random512-20-0.map.scen,4,BFS,1.0,211,True,105.0000,86.84062042,15120,14.7505,20.91
random512-20-0.map,random512-20-0.map.scen,4,BFS,1.0,212,True,95.0000,84.45584412,12864,12.7012,12.48
random512-20-0.map,random512-20-0.map.scen,4,BFS,1.0,213,True,98.0000,84.52691193,8381,8.3194,15.94
random512-20-0.map,random512-20-0.map.scen,4,BFS,1.0,214,True,108.0000,87.49747467,16821,16.3600,23.43
random512-20-0.map,random512-20-0.map.scen,4,BFS,1.0,215,True,96.0000,84.28427124,13665,13.4964,13.90
random512-20-0.map,random512-20-0.map.scen,4,BFS,1.0,216,True,104.0000,85.84062042,15617,15.1196,21.15
random512-20-0.map,random512-20-0.map.scen,4,BFS,1.0,217,True,93.0000,85.38477631,12810,12.8363,8.92
random512-20-0.map,random512-20-0.map.scen,4,BFS,1.0,218,True,105.0000,86.84062042,16261,15.6474,20.91
random512-20-0.map,random512-20-0.map.scen,4,BFS,1.0,219,True,93.0000,85.97056274,12900,12.8524,8.18
random512-20-0.map,random512-20-0.map.scen,4,BFS,1.0,220,True,97.0000,89.97056274,14088,13.9301,7.81
random512-20-0.map,random512-20-0.map.scen,4,BFS,1.0,221,True,111.0000,91.32590179,18071,17.3879,21.54
random512-20-0.map,random512-20-0.map.scen,4,BFS,1.0,222,True,107.0000,91.76955261,16918,16.5407,16.60
random512-20-0.map,random512-20-0.map.scen,4,BFS,1.0,223,True,110.0000,88.91168823,17957,17.2125,23.72
random512-20-0.map,random512-20-0.map.scen,4,BFS,1.0,224,True,101.0000,89.28427124,8842,8.7366,13.12
random512-20-0.map,random512-20-0.map.scen,4,BFS,1.0,225,True,107.0000,90.25483398,17171,16.3122,18.55
random512-20-0.map,random512-20-0.map.scen,4,BFS,1.0,226,True,104.0000,91.6984848,16078,15.5130,13.42
random512-20-0.map,random512-20-0.map.scen,4,BFS,1.0,227,True,107.0000,88.25483398,17451,17.0923,21.24
random512-20-0.map,random512-20-0.map.scen,4,BFS,1.0,228,True,106.0000,90.76955261,10197,10.2902,16.78
random512-20-0.map,random512-20-0.map.scen,4,BFS,1.0,229,True,102.0000,89.11269836,14359,14.1013,14.46
random512-20-0.map,random512-20-0.map.scen,4,BFS,1.0,230,True,102.0000,92.28427124,11253,11.3061,10.53
random512-20-0.map,random512-20-0.map.scen,4,BFS,1.0,231,True,109.0000,94.0121933,17256,16.6827,15.94
random512-20-0.map,random512-20-0.map.scen,4,BFS,1.0,232,True,111.0000,93.42640686,15272,14.7101,18.81
random512-20-0.map,random512-20-0.map.scen,4,BFS,1.0,233,True,112.0000,95.0121933,18457,17.7897,17.88
random512-20-0.map,random512-20-0.map.scen,4,BFS,1.0,234,True,104.0000,94.87005768,15785,15.5853,9.62
random512-20-0.map,random512-20-0.map.scen,4,BFS,1.0,235,True,117.0000,95.32590179,18934,18.0340,22.74
random512-20-0.map,random512-20-0.map.scen,4,BFS,1.0,236,True,102.0000,92.62741699,10039,10.0022,10.12
random512-20-0.map,random512-20-0.map.scen,4,BFS,1.0,237,True,112.0000,93.84062042,18572,17.7378,19.35
random512-20-0.map,random512-20-0.map.scen,4,BFS,1.0,238,True,110.0000,95.59797974,17746,16.9388,15.07
random512-20-0.map,random512-20-0.map.scen,4,BFS,1.0,239,True,105.0000,95.04163055,15772,15.7054,10.48
random512-20-0.map,random512-20-0.map.scen,4,BFS,1.0,240,True,113.0000,99.18376617,17773,17.0832,13.93
random512-20-0.map,random512-20-0.map.scen,4,BFS,1.0,241,True,107.0000,98.21320343,16980,16.4769,8.95
random512-20-0.map,random512-20-0.map.scen,4,BFS,1.0,242,True,114.0000,98.76955261,16991,16.3622,15.42
random512-20-0.map,random512-20-0.map.scen,4,BFS,1.0,243,True,111.0000,96.94112549,18401,17.4628,14.50
random512-20-0.map,random512-20-0.map.scen,4,BFS,1.0,244,True,111.0000,97.76955261,17367,16.5129,13.53
random512-20-0.map,random512-20-0.map.scen,4,BFS,1.0,245,True,105.0000,97.38477631,16267,16.0353,7.82
random512-20-0.map,random512-20-0.map.scen,4,BFS,1.0,246,True,118.0000,98.08326111,19189,18.2763,20.31
random512-20-0.map,random512-20-0.map.scen,4,BFS,1.0,247,True,107.0000,98.79898987,13501,13.1160,8.30
random512-20-0.map,random512-20-0.map.scen,4,BFS,1.0,248,True,116.0000,96.66904755,18453,17.5729,20.00
random512-20-0.map,random512-20-0.map.scen,4,BFS,1.0,249,True,118.0000,97.98275604,16783,16.2593,20.43
random512-20-0.map,random512-20-0.map.scen,4,BFS,1.0,250,True,131.0000,103.46803741,25440,25.2183,26.61
random512-20-0.map,random512-20-0.map.scen,4,BFS,1.0,251,True,118.0000,102.08326111,10802,10.7222,15.59
random512-20-0.map,random512-20-0.map.scen,4,BFS,1.0,252,True,114.0000,102.87005768,19218,18.4415,10.82
random512-20-0.map,random512-20-0.map.scen,4,BFS,1.0,253,True,125.0000,101.56854248,21595,21.6287,23.07
random512-20-0.map,random512-20-0.map.scen,4,BFS,1.0,254,True,121.0000,101.08326111,21663,21.3190,19.70
random512-20-0.map,random512-20-0.map.scen,4,BFS,1.0,255,True,110.0000,102.38477631,17708,17.0897,7.44
random512-20-0.map,random512-20-0.map.scen,4,BFS,1.0,256,True,118.0000,100.08326111,21014,21.2308,17.90
random512-20-0.map,random512-20-0.map.scen,4,BFS,1.0,257,True,117.0000,101.18376617,20429,20.3967,15.63
random512-20-0.map,random512-20-0.map.scen,4,BFS,1.0,258,True,115.0000,102.6984848,13081,12.8007,11.98
random512-20-0.map,random512-20-0.map.scen,4,BFS,1.0,259,True,125.0000,102.74011536,22951,22.5827,21.67
random512-20-0.map,random512-20-0.map.scen,4,BFS,1.0,260,True,130.0000,105.3969696,24695,24.4785,23.34
random512-20-0.map,random512-20-0.map.scen,4,BFS,1.0,261,True,122.0000,106.42640686,21053,20.8908,14.63
random512-20-0.map,random512-20-0.map.scen,4,BFS,1.0,262,True,113.0000,104.21320343,13401,13.1800,8.43
random512-20-0.map,random512-20-0.map.scen,4,BFS,1.0,263,True,117.0000,105.87005768,20185,19.3718,10.51
random512-20-0.map,random512-20-0.map.scen,4,BFS,1.0,264,True,118.0000,106.28427124,20538,21.1567,11.02
random512-20-0.map,random512-20-0.map.scen,4,BFS,1.0,265,True,122.0000,104.42640686,22590,22.5093,16.83
random512-20-0.map,random512-20-0.map.scen,4,BFS,1.0,266,True,115.0000,106.79898987,19186,18.5186,7.68
random512-20-0.map,random512-20-0.map.scen,4,BFS,1.0,267,True,113.0000,104.6984848,18997,18.5261,7.93
random512-20-0.map,random512-20-0.map.scen,4,BFS,1.0,268,True,121.0000,107.52691193,21317,21.1063,12.53
random512-20-0.map,random512-20-0.map.scen,4,BFS,1.0,269,True,115.0000,104.6984848,19639,18.7614,9.84
random512-20-0.map,random512-20-0.map.scen,4,BFS,1.0,270,True,132.0000,109.15432892,24694,24.6574,20.93
random512-20-0.map,random512-20-0.map.scen,4,BFS,1.0,271,True,131.0000,108.74011536,23346,22.8777,20.47
random512-20-0.map,random512-20-0.map.scen,4,BFS,1.0,272,True,131.0000,108.74011536,25031,24.5135,20.47
random512-20-0.map,random512-20-0.map.scen,4,BFS,1.0,273,True,136.0000,111.98275604,25385,25.0569,21.45
random512-20-0.map,random512-20-0.map.scen,4,BFS,1.0,274,True,119.0000,109.62741699,20515,20.6465,8.55
random512-20-0.map,random512-20-0.map.scen,4,BFS,1.0,275,True,119.0000,110.21320343,20901,20.6568,7.97
random512-20-0.map,random512-20-0.map.scen,4,BFS,1.0,276,True,124.0000,108.76955261,22336,22.2344,14.00
random512-20-0.map,random512-20-0.map.scen,4,BFS,1.0,277,True,131.0000,111.08326111,19875,18.8981,17.93
random512-20-0.map,random512-20-0.map.scen,4,BFS,1.0,278,True,128.0000,109.25483398,22266,22.2005,17.16
random512-20-0.map,random512-20-0.map.scen,4,BFS,1.0,279,True,135.0000,111.81118317,27204,26.6392,20.74
random512-20-0.map,random512-20-0.map.scen,4,BFS,1.0,280,True,140.0000,115.98275604,28694,28.1850,20.71
random512-20-0.map,random512-20-0.map.scen,4,BFS,1.0,281,True,135.0000,113.32590179,23800,23.5591,19.13
random512-20-0.map,random512-20-0.map.scen,4,BFS,1.0,282,True,124.0000,114.62741699,21346,21.6448,8.18
random512-20-0.map,random512-20-0.map.scen,4,BFS,1.0,283,True,135.0000,112.15432892,25500,25.2116,20.37
random512-20-0.map,random512-20-0.map.scen,4,BFS,1.0,284,True,140.0000,114.22539673,14789,14.6225,22.56
random512-20-0.map,random512-20-0.map.scen,4,BFS,1.0,285,True,127.0000,112.35533905,18523,17.7333,13.03
random512-20-0.map,random512-20-0.map.scen,4,BFS,1.0,286,True,123.0000,113.87005768,9482,9.3273,8.02
random512-20-0.map,random512-20-0.map.scen,4,BFS,1.0,287,True,138.0000,114.56854248,28190,27.6777,20.45
random512-20-0.map,random512-20-0.map.scen,4,BFS,1.0,288,True,130.0000,114.18376617,23403,23.4514,13.85
random512-20-0.map,random512-20-0.map.scen,4,BFS,1.0,289,True,134.0000,115.49747467,26822,26.4353,16.02
random512-20-0.map,random512-20-0.map.scen,4,BFS,1.0,290,True,140.0000,118.91168823,28909,28.1732,17.73
random512-20-0.map,random512-20-0.map.scen,4,BFS,1.0,291,True,123.0000,117.72792206,22221,22.2916,4.48
random512-20-0.map,random512-20-0.map.scen,4,BFS,1.0,292,True,128.0000,116.18376617,24415,24.3985,10.17
random512-20-0.map,random512-20-0.map.scen,4,BFS,1.0,293,True,134.0000,119.35533905,27038,26.7280,12.27
random512-20-0.map,random512-20-0.map.scen,4,BFS,1.0,294,True,142.0000,118.56854248,29815,29.3315,19.76
random512-20-0.map,random512-20-0.map.scen,4,BFS,1.0,295,True,131.0000,119.28427124,25261,25.0426,9.82
random512-20-0.map,random512-20-0.map.scen,4,BFS,1.0,296,True,138.0000,117.49747467,28279,27.5098,17.45
random512-20-0.map,random512-20-0.map.scen,4,BFS,1.0,297,True,144.0000,118.22539673,30996,30.6385,21.80
random512-20-0.map,random512-20-0.map.scen,4,BFS,1.0,298,True,127.0000,116.45584412,14844,14.7597,9.05
random512-20-0.map,random512-20-0.map.scen,4,BFS,1.0,299,True,138.0000,119.84062042,28325,28.0144,15.15
random512-20-0.map,random512-20-0.map.scen,4,BFS,1.0,300,True,146.0000,120.22539673,20096,19.1678,21.44
random512-20-0.map,random512-20-0.map.scen,4,BFS,1.0,301,True,129.0000,120.79898987,17444,17.1767,6.79
random512-20-0.map,random512-20-0.map.scen,4,BFS,1.0,302,True,135.0000,122.94112549,26831,26.7596,9.81
random512-20-0.map,random512-20-0.map.scen,4,BFS,1.0,303,True,149.0000,122.05382385,22570,22.6473,22.08
random512-20-0.map,random512-20-0.map.scen,4,BFS,1.0,304,True,139.0000,121.42640686,28840,28.6216,14.47
random512-20-0.map,random512-20-0.map.scen,4,BFS,1.0,305,True,132.0000,121.6984848,25803,25.9983,8.46
random512-20-0.map,random512-20-0.map.scen,4,BFS,1.0,306,True,153.0000,123.7106781,35435,35.0481,23.68
random512-20-0.map,random512-20-0.map.scen,4,BFS,1.0,307,True,132.0000,120.28427124,11936,12.0237,9.74
random512-20-0.map,random512-20-0.map.scen,4,BFS,1.0,308,True,135.0000,121.76955261,26511,26.2040,10.87
random512-20-0.map,random512-20-0.map.scen,4,BFS,1.0,309,True,137.0000,121.18376617,27497,27.0576,13.05
random512-20-0.map,random512-20-0.map.scen,4,BFS,1.0,310,True,154.0000,127.63961029,35026,42.4521,20.65
random512-20-0.map,random512-20-0.map.scen,4,BFS,1.0,311,True,149.0000,124.98275604,29143,28.1550,19.22
random512-20-0.map,random512-20-0.map.scen,4,BFS,1.0,312,True,152.0000,124.7106781,33770,33.0087,21.88
random512-20-0.map,random512-20-0.map.scen,4,BFS,1.0,313,True,159.0000,127.95331879,37589,36.5037,24.26
random512-20-0.map,random512-20-0.map.scen,4,BFS,1.0,314,True,138.0000,125.94112549,28161,27.8459,9.58
random512-20-0.map,random512-20-0.map.scen,4,BFS,1.0,315,True,147.0000,127.32590179,31826,31.4849,15.45
random512-20-0.map,random512-20-0.map.scen,4,BFS,1.0,316,True,139.0000,126.35533905,28589,27.8302,10.01
random512-20-0.map,random512-20-0.map.scen,4,BFS,1.0,317,True,136.0000,124.87005768,27445,27.0036,8.91
random512-20-0.map,random512-20-0.map.scen,4,BFS,1.0,318,True,140.0000,126.18376617,27855,27.6917,10.95
random512-20-0.map,random512-20-0.map.scen,4,BFS,1.0,319,True,138.0000,126.18376617,26941,33.9066,9.36
random512-20-0.map,random512-20-0.map.scen,4,BFS,1.0,320,True,139.0000,129.04163055,27769,27.6303,7.72
random512-20-0.map,random512-20-0.map.scen,4,BFS,1.0,321,True,148.0000,131.59797974,32963,33.2234,12.46
random512-20-0.map,random512-20-0.map.scen,4,BFS,1.0,322,True,141.0000,130.11269836,22779,37.1409,8.37
random512-20-0.map,random512-20-0.map.scen,4,BFS,1.0,323,True,152.0000,130.32590179,33995,43.9875,16.63
random512-20-0.map,random512-20-0.map.scen,4,BFS,1.0,324,True,164.0000,131.78174591,39875,41.5600,24.45
random512-20-0.map,random512-20-0.map.scen,4,BFS,1.0,325,True,148.0000,128.66904755,32310,31.9387,15.02
random512-20-0.map,random512-20-0.map.scen,4,BFS,1.0,326,True,167.0000,131.85281372,41477,40.6421,26.66
random512-20-0.map,random512-20-0.map.scen,4,BFS,1.0,327,True,156.0000,129.05382385,22917,22.8421,20.88
random512-20-0.map,random512-20-0.map.scen,4,BFS,1.0,328,True,140.0000,130.04163055,28858,28.1353,7.66
random512-20-0.map,random512-20-0.map.scen,4,BFS,1.0,329,True,141.0000,130.11269836,23226,22.7913,8.37
random512-20-0.map,random512-20-0.map.scen,4,BFS,1.0,330,True,158.0000,133.98275604,25598,25.5545,17.93
random512-20-0.map,random512-20-0.map.scen,4,BFS,1.0,331,True,152.0000,135.84062042,30518,30.0572,11.90
random512-20-0.map,random512-20-0.map.scen,4,BFS,1.0,332,True,160.0000,132.7106781,35650,34.2848,20.56
random512-20-0.map,random512-20-0.map.scen,4,BFS,1.0,333,True,147.0000,134.11269836,20253,19.5533,9.61
random512-20-0.map,random512-20-0.map.scen,4,BFS,1.0,334,True,141.0000,133.04163055,17970,17.3417,5.98
random512-20-0.map,random512-20-0.map.scen,4,BFS,1.0,335,True,169.0000,135.61017303,43005,43.8353,24.62
random512-20-0.map,random512-20-0.map.scen,4,BFS,1.0,336,True,146.0000,134.28427124,25875,25.1370,8.72
random512-20-0.map,random512-20-0.map.scen,4,BFS,1.0,337,True,160.0000,135.3969696,36391,35.9969,18.17
random512-20-0.map,random512-20-0.map.scen,4,BFS,1.0,338,True,150.0000,135.35533905,33460,32.6545,10.82
random512-20-0.map,random512-20-0.map.scen,4,BFS,1.0,339,True,164.0000,134.12489166,23348,23.0167,22.27
random512-20-0.map,random512-20-0.map.scen,4,BFS,1.0,340,True,165.0000,139.46803741,37551,37.0184,18.31
random512-20-0.map,random512-20-0.map.scen,4,BFS,1.0,341,True,166.0000,137.53910522,34105,33.3802,20.69
random512-20-0.map,random512-20-0.map.scen,4,BFS,1.0,342,True,169.0000,138.53910522,42177,43.7642,21.99
random512-20-0.map,random512-20-0.map.scen,4,BFS,1.0,343,True,158.0000,138.66904755,27794,27.3603,13.94
random512-20-0.map,random512-20-0.map.scen,4,BFS,1.0,344,True,163.0000,139.7106781,33318,32.3808,16.67
random512-20-0.map,random512-20-0.map.scen,4,BFS,1.0,345,True,168.0000,138.7106781,26225,26.2135,21.12
random512-20-0.map,random512-20-0.map.scen,4,BFS,1.0,346,True,169.0000,136.19595947,36491,35.5443,24.09
random512-20-0.map,random512-20-0.map.scen,4,BFS,1.0,347,True,172.0000,138.61017303,35131,34.4748,24.09
random512-20-0.map,random512-20-0.map.scen,4,BFS,1.0,348,True,152.0000,139.11269836,24595,24.2228,9.26
random512-20-0.map,random512-20-0.map.scen,4,BFS,1.0,349,True,166.0000,136.7106781,37780,37.3183,21.42
random512-20-0.map,random512-20-0.map.scen,4,BFS,1.0,350,True,156.0000,142.76955261,22188,22.2351,9.27
random512-20-0.map,random512-20-0.map.scen,4,BFS,1.0,351,True,162.0000,142.91168823,38865,37.9655,13.36
random512-20-0.map,random512-20-0.map.scen,4,BFS,1.0,352,True,154.0000,142.52691193,34896,33.9214,8.05
random512-20-0.map,random512-20-0.map.scen,4,BFS,1.0,353,True,162.0000,140.32590179,38778,37.2850,15.45
random512-20-0.map,random512-20-0.map.scen,4,BFS,1.0,354,True,163.0000,142.49747467,38428,37.5475,14.39
random512-20-0.map,random512-20-0.map.scen,4,BFS,1.0,355,True,151.0000,140.45584412,31217,30.4166,7.51
random512-20-0.map,random512-20-0.map.scen,4,BFS,1.0,356,True,155.0000,142.6984848,33620,32.8181,8.62
random512-20-0.map,random512-20-0.map.scen,4,BFS,1.0,357,True,155.0000,141.52691193,22211,21.9746,9.52
random512-20-0.map,random512-20-0.map.scen,4,BFS,1.0,358,True,175.0000,141.0243866,37992,37.0238,24.09
random512-20-0.map,random512-20-0.map.scen,4,BFS,1.0,359,True,167.0000,143.81118317,40459,39.6481,16.12
random512-20-0.map,random512-20-0.map.scen,4,BFS,1.0,360,True,172.0000,147.3969696,25290,25.1407,16.69
random512-20-0.map,random512-20-0.map.scen,4,BFS,1.0,361,True,179.0000,145.61017303,22361,22.2296,22.93
random512-20-0.map,random512-20-0.map.scen,4,BFS,1.0,362,True,168.0000,145.15432892,41946,43.3331,15.74
random512-20-0.map,random512-20-0.map.scen,4,BFS,1.0,363,True,172.0000,145.05382385,43015,43.2182,18.58
random512-20-0.map,random512-20-0.map.scen,4,BFS,1.0,364,True,158.0000,146.87005768,33099,32.0247,7.58
random512-20-0.map,random512-20-0.map.scen,4,BFS,1.0,365,True,174.0000,144.12489166,34558,33.9426,20.73
random512-20-0.map,random512-20-0.map.scen,4,BFS,1.0,366,True,168.0000,144.22539673,37662,36.6925,16.48
random512-20-0.map,random512-20-0.map.scen,4,BFS,1.0,367,True,175.0000,144.78174591,32682,31.5198,20.87
random512-20-0.map,random512-20-0.map.scen,4,BFS,1.0,368,True,170.0000,147.3969696,38506,38.6253,15.33
random512-20-0.map,random512-20-0.map.scen,4,BFS,1.0,369,True,179.0000,147.61017303,25926,25.1066,21.27
random512-20-0.map,random512-20-0.map.scen,4,BFS,1.0,370,True,171.0000,149.91168823,37034,35.8999,14.07
random512-20-0.map,random512-20-0.map.scen,4,BFS,1.0,371,True,184.0000,151.78174591,46766,47.5229,21.23
random512-20-0.map,random512-20-0.map.scen,4,BFS,1.0,372,True,191.0000,149.99494934,50481,52.2044,27.34
random512-20-0.map,random512-20-0.map.scen,4,BFS,1.0,373,True,167.0000,150.59797974,41459,40.6776,10.89
random512-20-0.map,random512-20-0.map.scen,4,BFS,1.0,374,True,171.0000,151.32590179,41654,43.3728,13.00
random512-20-0.map,random512-20-0.map.scen,4,BFS,1.0,375,True,165.0000,151.76955261,40056,39.2469,8.72
random512-20-0.map,random512-20-0.map.scen,4,BFS,1.0,376,True,170.0000,148.91168823,23776,23.3201,14.16
random512-20-0.map,random512-20-0.map.scen,4,BFS,1.0,377,True,182.0000,149.19595947,37754,37.1450,21.99
random512-20-0.map,random512-20-0.map.scen,4,BFS,1.0,378,True,182.0000,148.50966797,48951,49.1866,22.55
random512-20-0.map,random512-20-0.map.scen,4,BFS,1.0,379,True,186.0000,151.43860016,34362,34.6764,22.82
random512-20-0.map,random512-20-0.map.scen,4,BFS,1.0,380,True,191.0000,152.92388153,53023,53.3615,24.90
random512-20-0.map,random512-20-0.map.scen,4,BFS,1.0,381,True,188.0000,152.26702728,30861,30.2028,23.47
random512-20-0.map,random512-20-0.map.scen,4,BFS,1.0,382,True,187.0000,153.85281372,46563,46.9743,21.54
random512-20-0.map,random512-20-0.map.scen,4,BFS,1.0,383,True,184.0000,154.12489166,25889,25.7436,19.38
random512-20-0.map,random512-20-0.map.scen,4,BFS,1.0,384,True,168.0000,155.59797974,41240,41.1360,7.97
random512-20-0.map,random512-20-0.map.scen,4,BFS,1.0,385,True,183.0000,155.7106781,34123,33.6952,17.53
random512-20-0.map,random512-20-0.map.scen,4,BFS,1.0,386,True,172.0000,154.08326111,33958,33.4572,11.63
random512-20-0.map,random512-20-0.map.scen,4,BFS,1.0,387,True,166.0000,155.45584412,37109,36.6012,6.78
random512-20-0.map,random512-20-0.map.scen,4,BFS,1.0,388,True,176.0000,153.15432892,32687,32.4064,14.92
random512-20-0.map,random512-20-0.map.scen,4,BFS,1.0,389,True,179.0000,152.88225098,47807,48.5265,17.08
random512-20-0.map,random512-20-0.map.scen,4,BFS,1.0,390,True,185.0000,158.63961029,27194,27.2395,16.62
random512-20-0.map,random512-20-0.map.scen,4,BFS,1.0,391,True,166.0000,156.04163055,23955,24.0351,6.38
random512-20-0.map,random512-20-0.map.scen,4,BFS,1.0,392,True,189.0000,157.36753235,53409,53.8553,20.10
random512-20-0.map,random512-20-0.map.scen,4,BFS,1.0,393,True,183.0000,159.56854248,31872,30.8585,14.68
random512-20-0.map,random512-20-0.map.scen,4,BFS,1.0,394,True,173.0000,158.0121933,42210,43.1029,9.49
random512-20-0.map,random512-20-0.map.scen,4,BFS,1.0,395,True,189.0000,158.78174591,52452,52.4581,19.03
random512-20-0.map,random512-20-0.map.scen,4,BFS,1.0,396,True,189.0000,158.53910522,32792,32.2481,19.21
random512-20-0.map,random512-20-0.map.scen,4,BFS,1.0,397,True,173.0000,156.59797974,39072,39.1656,10.47
random512-20-0.map,random512-20-0.map.scen,4,BFS,1.0,398,True,176.0000,157.84062042,32681,31.8032,11.50
random512-20-0.map,random512-20-0.map.scen,4,BFS,1.0,399,True,174.0000,158.76955261,41895,43.4129,9.59
random512-20-0.map,random512-20-0.map.scen,4,BFS,1.0,400,True,179.0000,162.84062042,44240,45.5279,9.92
random512-20-0.map,random512-20-0.map.scen,4,BFS,1.0,401,True,186.0000,163.74011536,45402,47.3420,13.59
random512-20-0.map,random512-20-0.map.scen,4,BFS,1.0,402,True,201.0000,162.33809509,21086,21.4381,23.82
random512-20-0.map,random512-20-0.map.scen,4,BFS,1.0,403,True,176.0000,160.76955261,44339,45.0015,9.47
random512-20-0.map,random512-20-0.map.scen,4,BFS,1.0,404,True,187.0000,160.88225098,50541,50.8930,16.23
random512-20-0.map,random512-20-0.map.scen,4,BFS,1.0,405,True,190.0000,162.95331879,48973,48.9485,16.60
random512-20-0.map,random512-20-0.map.scen,4,BFS,1.0,406,True,178.0000,160.66904755,47398,48.5723,10.79
random512-20-0.map,random512-20-0.map.scen,4,BFS,1.0,407,True,201.0000,162.92388153,59100,58.5505,23.37
random512-20-0.map,random512-20-0.map.scen,4,BFS,1.0,408,True,174.0000,162.28427124,42291,42.8229,7.22
random512-20-0.map,random512-20-0.map.scen,4,BFS,1.0,409,True,191.0000,161.36753235,54964,54.7206,18.36
random512-20-0.map,random512-20-0.map.scen,4,BFS,1.0,410,True,206.0000,167.92388153,54148,53.9244,22.67
random512-20-0.map,random512-20-0.map.scen,4,BFS,1.0,411,True,205.0000,165.16652222,33897,33.3697,24.12
random512-20-0.map,random512-20-0.map.scen,4,BFS,1.0,412,True,182.0000,164.08326111,48892,49.4378,10.92
random512-20-0.map,random512-20-0.map.scen,4,BFS,1.0,413,True,206.0000,166.16652222,55683,54.8514,23.97
random512-20-0.map,random512-20-0.map.scen,4,BFS,1.0,414,True,179.0000,165.76955261,45406,45.6085,7.98
random512-20-0.map,random512-20-0.map.scen,4,BFS,1.0,415,True,203.0000,167.85281372,61289,59.7603,20.94
random512-20-0.map,random512-20-0.map.scen,4,BFS,1.0,416,True,200.0000,165.43860016,43564,43.5736,20.89
random512-20-0.map,random512-20-0.map.scen,4,BFS,1.0,417,True,198.0000,165.43860016,44591,45.0131,19.68
random512-20-0.map,random512-20-0.map.scen,4,BFS,1.0,418,True,201.0000,166.43860016,49990,49.7450,20.77
random512-20-0.map,random512-20-0.map.scen,4,BFS,1.0,419,True,181.0000,165.18376617,31667,30.9713,9.57
random512-20-0.map,random512-20-0.map.scen,4,BFS,1.0,420,True,215.0000,171.65180359,30667,30.1098,25.25
random512-20-0.map,random512-20-0.map.scen,4,BFS,1.0,421,True,207.0000,168.33809509,64252,63.7723,22.97
random512-20-0.map,random512-20-0.map.scen,4,BFS,1.0,422,True,187.0000,168.49747467,25002,24.2075,10.98
random512-20-0.map,random512-20-0.map.scen,4,BFS,1.0,423,True,185.0000,170.35533905,44287,44.6664,8.60
random512-20-0.map,random512-20-0.map.scen,4,BFS,1.0,424,True,186.0000,169.59797974,50952,51.3923,9.67
random512-20-0.map,random512-20-0.map.scen,4,BFS,1.0,425,True,182.0000,169.11269836,34397,33.8372,7.62
random512-20-0.map,random512-20-0.map.scen,4,BFS,1.0,426,True,210.0000,168.4091629,63135,62.4230,24.70
random512-20-0.map,random512-20-0.map.scen,4,BFS,1.0,427,True,187.0000,171.76955261,52243,51.6403,8.87
random512-20-0.map,random512-20-0.map.scen,4,BFS,1.0,428,True,184.0000,169.94112549,50321,50.1124,8.27
random512-20-0.map,random512-20-0.map.scen,4,BFS,1.0,429,True,209.0000,169.99494934,47338,48.4046,22.94
random512-20-0.map,random512-20-0.map.scen,4,BFS,1.0,430,True,214.0000,175.33809509,34398,33.6892,22.05
random512-20-0.map,random512-20-0.map.scen,4,BFS,1.0,431,True,210.0000,173.68124084,49832,49.9682,20.91
random512-20-0.map,random512-20-0.map.scen,4,BFS,1.0,432,True,209.0000,172.09545441,29726,30.2133,21.44
random512-20-0.map,random512-20-0.map.scen,4,BFS,1.0,433,True,209.0000,172.09545441,55633,55.9704,21.44
random512-20-0.map,random512-20-0.map.scen,4,BFS,1.0,434,True,193.0000,175.42640686,50805,51.9053,10.02
random512-20-0.map,random512-20-0.map.scen,4,BFS,1.0,435,True,202.0000,174.46803741,61057,61.0896,15.78
random512-20-0.map,random512-20-0.map.scen,4,BFS,1.0,436,True,192.0000,175.25483398,45210,45.6493,9.55
random512-20-0.map,random512-20-0.map.scen,4,BFS,1.0,437,True,219.0000,174.48023071,49071,50.3293,25.52
random512-20-0.map,random512-20-0.map.scen,4,BFS,1.0,438,True,214.0000,175.92388153,42812,44.4011,21.64
random512-20-0.map,random512-20-0.map.scen,4,BFS,1.0,439,True,187.0000,172.0121933,35005,34.4518,8.71
random512-20-0.map,random512-20-0.map.scen,4,BFS,1.0,440,True,192.0000,179.11269836,43151,45.4060,7.20
random512-20-0.map,random512-20-0.map.scen,4,BFS,1.0,441,True,206.0000,177.88225098,49546,50.5681,15.81
random512-20-0.map,random512-20-0.map.scen,4,BFS,1.0,442,True,214.0000,176.50966797,45910,47.4800,21.24
random512-20-0.map,random512-20-0.map.scen,4,BFS,1.0,443,True,216.0000,179.58073578,69945,69.9804,20.28
random512-20-0.map,random512-20-0.map.scen,4,BFS,1.0,444,True,216.0000,176.75230865,69893,67.8538,22.20
random512-20-0.map,random512-20-0.map.scen,4,BFS,1.0,445,True,212.0000,178.26702728,67127,65.0939,18.92
random512-20-0.map,random512-20-0.map.scen,4,BFS,1.0,446,True,189.0000,176.35533905,36786,37.9353,7.17
random512-20-0.map,random512-20-0.map.scen,4,BFS,1.0,447,True,214.0000,176.50966797,60785,59.2322,21.24
random512-20-0.map,random512-20-0.map.scen,4,BFS,1.0,448,True,213.0000,179.0243866,34566,34.9625,18.98
random512-20-0.map,random512-20-0.map.scen,4,BFS,1.0,449,True,217.0000,176.58073578,70146,67.7308,22.89
random512-20-0.map,random512-20-0.map.scen,4,BFS,1.0,450,True,224.0000,181.23759003,52348,53.0328,23.59
random512-20-0.map,random512-20-0.map.scen,4,BFS,1.0,451,True,195.0000,180.84062042,54724,54.3308,7.83
random512-20-0.map,random512-20-0.map.scen,4,BFS,1.0,452,True,213.0000,183.7106781,67307,65.4288,15.94
random512-20-0.map,random512-20-0.map.scen,4,BFS,1.0,453,True,198.0000,181.84062042,57138,57.9346,8.89
random512-20-0.map,random512-20-0.map.scen,4,BFS,1.0,454,True,221.0000,182.92388153,58443,57.3962,20.82
random512-20-0.map,random512-20-0.map.scen,4,BFS,1.0,455,True,201.0000,180.3969696,60161,60.1663,11.42
random512-20-0.map,random512-20-0.map.scen,4,BFS,1.0,456,True,202.0000,182.32590179,39828,39.4038,10.79
random512-20-0.map,random512-20-0.map.scen,4,BFS,1.0,457,True,220.0000,180.16652222,71172,69.4088,22.11
random512-20-0.map,random512-20-0.map.scen,4,BFS,1.0,458,True,199.0000,181.08326111,27868,28.4273,9.89
random512-20-0.map,random512-20-0.map.scen,4,BFS,1.0,459,True,203.0000,182.49747467,61484,60.4271,11.23
random512-20-0.map,random512-20-0.map.scen,4,BFS,1.0,460,True,215.0000,185.12489166,69043,68.7161,16.14
random512-20-0.map,random512-20-0.map.scen,4,BFS,1.0,461,True,227.0000,184.82337646,44399,44.4345,22.82
random512-20-0.map,random512-20-0.map.scen,4,BFS,1.0,462,True,226.0000,185.58073578,75475,77.1768,21.78
random512-20-0.map,random512-20-0.map.scen,4,BFS,1.0,463,True,227.0000,187.99494934,59127,60.6576,20.75
random512-20-0.map,random512-20-0.map.scen,4,BFS,1.0,464,True,200.0000,186.52691193,58465,60.2019,7.22
random512-20-0.map,random512-20-0.map.scen,4,BFS,1.0,465,True,219.0000,186.19595947,64354,63.2047,17.62
random512-20-0.map,random512-20-0.map.scen,4,BFS,1.0,466,True,216.0000,186.95331879,68011,67.6725,15.54
random512-20-0.map,random512-20-0.map.scen,4,BFS,1.0,467,True,222.0000,186.26702728,61519,62.2622,19.18
random512-20-0.map,random512-20-0.map.scen,4,BFS,1.0,468,True,204.0000,186.08326111,49514,49.8697,9.63
random512-20-0.map,random512-20-0.map.scen,4,BFS,1.0,469,True,219.0000,187.95331879,71896,78.3314,16.52
random512-20-0.map,random512-20-0.map.scen,4,BFS,1.0,470,True,206.0000,191.0121933,63600,64.2301,7.85
random512-20-0.map,random512-20-0.map.scen,4,BFS,1.0,471,True,207.0000,191.08326111,64353,66.4328,8.33
random512-20-0.map,random512-20-0.map.scen,4,BFS,1.0,472,True,203.0000,189.42640686,53305,54.4531,7.17
random512-20-0.map,random512-20-0.map.scen,4,BFS,1.0,473,True,210.0000,189.98275604,53359,54.3540,10.54
random512-20-0.map,random512-20-0.map.scen,4,BFS,1.0,474,True,232.0000,188.06601715,78096,75.8875,23.36
random512-20-0.map,random512-20-0.map.scen,4,BFS,1.0,475,True,204.0000,189.25483398,58697,58.6999,7.79
random512-20-0.map,random512-20-0.map.scen,4,BFS,1.0,476,True,204.0000,189.94112549,35958,35.1268,7.40
random512-20-0.map,random512-20-0.map.scen,4,BFS,1.0,477,True,204.0000,189.59797974,37142,36.5029,7.60
random512-20-0.map,random512-20-0.map.scen,4,BFS,1.0,478,True,216.0000,190.22539673,66992,65.1676,13.55
random512-20-0.map,random512-20-0.map.scen,4,BFS,1.0,479,True,232.0000,189.82337646,58359,57.5305,22.22
random512-20-0.map,random512-20-0.map.scen,4,BFS,1.0,480,True,231.0000,192.33809509,60741,59.8049,20.10
random512-20-0.map,random512-20-0.map.scen,4,BFS,1.0,481,True,236.0000,193.23759003,65116,63.2058,22.13
random512-20-0.map,random512-20-0.map.scen,4,BFS,1.0,482,True,231.0000,194.68124084,38759,37.9977,18.66
random512-20-0.map,random512-20-0.map.scen,4,BFS,1.0,483,True,242.0000,195.7228714,69340,68.2056,23.64
random512-20-0.map,random512-20-0.map.scen,4,BFS,1.0,484,True,232.0000,194.50966797,72597,70.2216,19.27
random512-20-0.map,random512-20-0.map.scen,4,BFS,1.0,485,True,242.0000,193.37972565,77622,75.4901,25.14
random512-20-0.map,random512-20-0.map.scen,4,BFS,1.0,486,True,230.0000,195.68124084,78269,75.4636,17.54
random512-20-0.map,random512-20-0.map.scen,4,BFS,1.0,487,True,237.0000,193.65180359,83233,80.5871,22.38
random512-20-0.map,random512-20-0.map.scen,4,BFS,1.0,488,True,236.0000,194.99494934,54770,54.6075,21.03
random512-20-0.map,random512-20-0.map.scen,4,BFS,1.0,489,True,210.0000,194.18376617,59849,59.1856,8.14
random512-20-0.map,random512-20-0.map.scen,4,BFS,1.0,490,True,232.0000,197.92388153,68478,67.3468,17.22
random512-20-0.map,random512-20-0.map.scen,4,BFS,1.0,491,True,240.0000,196.30865784,51870,51.8110,22.26
random512-20-0.map,random512-20-0.map.scen,4,BFS,1.0,492,True,239.0000,197.4091629,75527,73.6900,21.07
random512-20-0.map,random512-20-0.map.scen,4,BFS,1.0,493,True,214.0000,197.0121933,60990,60.0185,8.62
random512-20-0.map,random512-20-0.map.scen,4,BFS,1.0,494,True,214.0000,198.76955261,34324,34.2477,7.66
random512-20-0.map,random512-20-0.map.scen,4,BFS,1.0,495,True,246.0000,197.96551208,77193,75.0245,24.26
random512-20-0.map,random512-20-0.map.scen,4,BFS,1.0,496,True,215.0000,198.59797974,64203,63.1131,8.26
random512-20-0.map,random512-20-0.map.scen,4,BFS,1.0,497,True,245.0000,197.55129852,40006,39.1973,24.02
random512-20-0.map,random512-20-0.map.scen,4,BFS,1.0,498,True,244.0000,196.55129852,78371,75.9991,24.14
random512-20-0.map,random512-20-0.map.scen,4,BFS,1.0,499,True,229.0000,196.78174591,77652,75.2908,16.37
random512-20-0.map,random512-20-0.map.scen,4,BFS,1.0,500,True,217.0000,200.84062042,66797,64.8116,8.05
random512-20-0.map,random512-20-0.map.scen,4,BFS,1.0,501,True,241.0000,201.75230865,76570,74.4095,19.45
random512-20-0.map,random512-20-0.map.scen,4,BFS,1.0,502,True,220.0000,203.84062042,72597,70.6734,7.93
random512-20-0.map,random512-20-0.map.scen,4,BFS,1.0,503,True,218.0000,201.0121933,64146,62.5666,8.45
random512-20-0.map,random512-20-0.map.scen,4,BFS,1.0,504,True,235.0000,200.09545441,62141,61.3063,17.44
random512-20-0.map,random512-20-0.map.scen,4,BFS,1.0,505,True,220.0000,201.84062042,61112,60.5582,9.00
random512-20-0.map,random512-20-0.map.scen,4,BFS,1.0,506,True,239.0000,202.92388153,81011,78.3978,17.78
random512-20-0.map,random512-20-0.map.scen,4,BFS,1.0,507,True,222.0000,201.05382385,37163,36.6485,10.42
random512-20-0.map,random512-20-0.map.scen,4,BFS,1.0,508,True,220.0000,200.91168823,66247,66.9981,9.50
random512-20-0.map,random512-20-0.map.scen,4,BFS,1.0,509,True,222.0000,203.49747467,72544,70.4331,9.09
random512-20-0.map,random512-20-0.map.scen,4,BFS,1.0,510,True,247.0000,205.99494934,91405,93.1492,19.91
random512-20-0.map,random512-20-0.map.scen,4,BFS,1.0,511,True,234.0000,205.19595947,55256,56.9229,14.04
random512-20-0.map,random512-20-0.map.scen,4,BFS,1.0,512,True,254.0000,204.20815277,78216,76.5551,24.38
random512-20-0.map,random512-20-0.map.scen,4,BFS,1.0,513,True,221.0000,204.84062042,45500,45.1560,7.89
random512-20-0.map,random512-20-0.map.scen,4,BFS,1.0,514,True,252.0000,205.37972565,52642,51.9851,22.70
random512-20-0.map,random512-20-0.map.scen,4,BFS,1.0,515,True,262.0000,207.52186127,91308,93.3865,26.25
random512-20-0.map,random512-20-0.map.scen,4,BFS,1.0,516,True,219.0000,206.59797974,60654,59.4670,6.00
random512-20-0.map,random512-20-0.map.scen,4,BFS,1.0,517,True,260.0000,207.27922058,96368,98.1123,25.43
random512-20-0.map,random512-20-0.map.scen,4,BFS,1.0,518,True,221.0000,204.59797974,59734,58.2843,8.02
random512-20-0.map,random512-20-0.map.scen,4,BFS,1.0,519,True,226.0000,206.08326111,49616,51.0557,9.66
random512-20-0.map,random512-20-0.map.scen,4,BFS,1.0,520,True,255.0000,208.13708496,95655,98.8986,22.52
random512-20-0.map,random512-20-0.map.scen,4,BFS,1.0,521,True,253.0000,211.4091629,38650,39.3121,19.67
random512-20-0.map,random512-20-0.map.scen,4,BFS,1.0,522,True,225.0000,208.25483398,75262,74.1037,8.04
random512-20-0.map,random512-20-0.map.scen,4,BFS,1.0,523,True,259.0000,210.62236633,93752,96.3619,22.97
random512-20-0.map,random512-20-0.map.scen,4,BFS,1.0,524,True,226.0000,208.66904755,48720,49.7005,8.31
random512-20-0.map,random512-20-0.map.scen,4,BFS,1.0,525,True,233.0000,211.32590179,80774,78.6289,10.26
random512-20-0.map,random512-20-0.map.scen,4,BFS,1.0,526,True,255.0000,210.7228714,59671,58.9143,21.01
random512-20-0.map,random512-20-0.map.scen,4,BFS,1.0,527,True,243.0000,211.0243866,80308,85.7182,15.15
random512-20-0.map,random512-20-0.map.scen,4,BFS,1.0,528,True,261.0000,211.20815277,102263,105.7976,23.57
random512-20-0.map,random512-20-0.map.scen,4,BFS,1.0,529,True,261.0000,211.45079346,95211,97.3320,23.43
random512-20-0.map,random512-20-0.map.scen,4,BFS,1.0,530,True,244.0000,214.7106781,42206,42.5371,13.64
random512-20-0.map,random512-20-0.map.scen,4,BFS,1.0,531,True,269.0000,215.1076477,107891,108.4653,25.05
random512-20-0.map,random512-20-0.map.scen,4,BFS,1.0,532,True,241.0000,215.22539673,86113,88.5567,11.98
random512-20-0.map,random512-20-0.map.scen,4,BFS,1.0,533,True,225.0000,212.6984848,73346,71.6661,5.78
random512-20-0.map,random512-20-0.map.scen,4,BFS,1.0,534,True,245.0000,213.95331879,89855,91.8949,14.51
random512-20-0.map,random512-20-0.map.scen,4,BFS,1.0,535,True,232.0000,213.84062042,42178,44.0707,8.49
random512-20-0.map,random512-20-0.map.scen,4,BFS,1.0,536,True,247.0000,212.09545441,91437,93.2289,16.46
random512-20-0.map,random512-20-0.map.scen,4,BFS,1.0,537,True,242.0000,213.29646454,58006,57.8826,13.46
random512-20-0.map,random512-20-0.map.scen,4,BFS,1.0,538,True,255.0000,213.99494934,92234,93.4881,19.16
random512-20-0.map,random512-20-0.map.scen,4,BFS,1.0,539,True,245.0000,214.53910522,87580,89.2730,14.20
random512-20-0.map,random512-20-0.map.scen,4,BFS,1.0,540,True,235.0000,218.84062042,45326,45.2543,7.38
random512-20-0.map,random512-20-0.map.scen,4,BFS,1.0,541,True,269.0000,218.03657989,59023,58.2287,23.37
random512-20-0.map,random512-20-0.map.scen,4,BFS,1.0,542,True,268.0000,219.37972565,60104,59.2416,22.16
random512-20-0.map,random512-20-0.map.scen,4,BFS,1.0,543,True,263.0000,216.13708496,57699,56.5843,21.68
random512-20-0.map,random512-20-0.map.scen,4,BFS,1.0,544,True,273.0000,219.1076477,92595,93.8254,24.60
random512-20-0.map,random512-20-0.map.scen,4,BFS,1.0,545,True,240.0000,216.56854248,75860,73.3455,10.82
random512-20-0.map,random512-20-0.map.scen,4,BFS,1.0,546,True,237.0000,217.66904755,29217,28.2387,8.88
random512-20-0.map,random512-20-0.map.scen,4,BFS,1.0,547,True,243.0000,216.78174591,88716,92.8881,12.09
random512-20-0.map,random512-20-0.map.scen,4,BFS,1.0,548,True,261.0000,217.06601715,63509,63.0700,20.24
random512-20-0.map,random512-20-0.map.scen,4,BFS,1.0,549,True,242.0000,216.22539673,71874,70.7825,11.92
random512-20-0.map,random512-20-0.map.scen,4,BFS,1.0,550,True,263.0000,223.65180359,82375,80.0121,17.59
random512-20-0.map,random512-20-0.map.scen,4,BFS,1.0,551,True,253.0000,223.95331879,54673,53.5295,12.97
random512-20-0.map,random512-20-0.map.scen,4,BFS,1.0,552,True,269.0000,223.55129852,93919,95.6992,20.33
random512-20-0.map,random512-20-0.map.scen,4,BFS,1.0,553,True,272.0000,220.45079346,95612,96.2373,23.38
random512-20-0.map,random512-20-0.map.scen,4,BFS,1.0,554,True,270.0000,221.96551208,96929,98.3945,21.64
random512-20-0.map,random512-20-0.map.scen,4,BFS,1.0,555,True,265.0000,222.48023071,82647,80.5638,19.11
random512-20-0.map,random512-20-0.map.scen,4,BFS,1.0,556,True,272.0000,222.20815277,60733,59.4969,22.41
random512-20-0.map,random512-20-0.map.scen,4,BFS,1.0,557,True,246.0000,221.3969696,81437,80.6237,11.11
random512-20-0.map,random512-20-0.map.scen,4,BFS,1.0,558,True,265.0000,222.23759003,89711,91.4824,19.24
random512-20-0.map,random512-20-0.map.scen,4,BFS,1.0,559,True,267.0000,222.48023071,107412,107.7313,20.01
random512-20-0.map,random512-20-0.map.scen,4,BFS,1.0,560,True,274.0000,227.96551208,109783,109.7600,20.19
random512-20-0.map,random512-20-0.map.scen,4,BFS,1.0,561,True,247.0000,226.3969696,90672,91.9611,9.10
random512-20-0.map,random512-20-0.map.scen,4,BFS,1.0,562,True,252.0000,227.3969696,80908,79.1556,10.82
random512-20-0.map,random512-20-0.map.scen,4,BFS,1.0,563,True,273.0000,224.96551208,69651,67.7764,21.35
random512-20-0.map,random512-20-0.map.scen,4,BFS,1.0,564,True,270.0000,227.23759003,108483,107.7259,18.82
random512-20-0.map,random512-20-0.map.scen,4,BFS,1.0,565,True,259.0000,225.50966797,83469,80.6328,14.85
random512-20-0.map,random512-20-0.map.scen,4,BFS,1.0,566,True,248.0000,225.3969696,88224,89.7800,10.03
random512-20-0.map,random512-20-0.map.scen,4,BFS,1.0,567,True,245.0000,224.49747467,84704,86.5881,9.13
random512-20-0.map,random512-20-0.map.scen,4,BFS,1.0,568,True,246.0000,225.63961029,73955,71.8834,9.02
random512-20-0.map,random512-20-0.map.scen,4,BFS,1.0,569,True,261.0000,226.33809509,55337,55.2542,15.31
random512-20-0.map,random512-20-0.map.scen,4,BFS,1.0,570,True,275.0000,231.30865784,108477,108.4084,18.89
random512-20-0.map,random512-20-0.map.scen,4,BFS,1.0,571,True,285.0000,228.76450195,113863,113.2556,24.58
random512-20-0.map,random512-20-0.map.scen,4,BFS,1.0,572,True,248.0000,231.0121933,50895,50.4889,7.35
random512-20-0.map,random512-20-0.map.scen,4,BFS,1.0,573,True,280.0000,228.45079346,99838,100.9391,22.56
random512-20-0.map,random512-20-0.map.scen,4,BFS,1.0,574,True,261.0000,229.95331879,57915,57.1653,13.50
random512-20-0.map,random512-20-0.map.scen,4,BFS,1.0,575,True,256.0000,228.36753235,83460,81.2419,12.10
random512-20-0.map,random512-20-0.map.scen,4,BFS,1.0,576,True,259.0000,228.19595947,77723,76.0627,13.50
random512-20-0.map,random512-20-0.map.scen,4,BFS,1.0,577,True,269.0000,229.99494934,98694,99.5665,16.96
random512-20-0.map,random512-20-0.map.scen,4,BFS,1.0,578,True,284.0000,229.52186127,87599,90.3014,23.74
random512-20-0.map,random512-20-0.map.scen,4,BFS,1.0,579,True,263.0000,228.33809509,54208,53.9064,15.18
random512-20-0.map,random512-20-0.map.scen,4,BFS,1.0,580,True,282.0000,234.79393921,66330,65.0460,20.11
random512-20-0.map,random512-20-0.map.scen,4,BFS,1.0,581,True,251.0000,232.84062042,49945,50.6582,7.80
