MapName,Scenario,Connectivity,Algorithm,Weight,TaskID,Success,PathLength,OptimalLength,ExpandedNodes,TimeMS,Suboptimality
random512-30-0.map,random512-30-0.map.scen,4,BFS,1.0,0,True,2.0000,2.0,8,0.0227,0.00
random512-30-0.map,random512-30-0.map.scen,4,BFS,1.0,1,True,2.0000,2.0,8,0.0205,0.00
random512-30-0.map,random512-30-0.map.scen,4,BFS,1.0,2,True,2.0000,2.0,5,0.0101,0.00
random512-30-0.map,random512-30-0.map.scen,4,BFS,1.0,3,True,2.0000,2.0,4,0.0080,0.00
random512-30-0.map,random512-30-0.map.scen,4,BFS,1.0,4,True,3.0000,3.0,10,0.0185,0.00
random512-30-0.map,random512-30-0.map.scen,4,BFS,1.0,5,True,0.0000,0.0,1,0.0015,0.00
random512-30-0.map,random512-30-0.map.scen,4,BFS,1.0,6,True,4.0000,2.82842712,29,0.0486,41.42
random512-30-0.map,random512-30-0.map.scen,4,BFS,1.0,7,True,4.0000,3.41421356,13,0.0231,17.16
random512-30-0.map,random512-30-0.map.scen,4,BFS,1.0,8,True,2.0000,2.0,8,0.0139,0.00
random512-30-0.map,random512-30-0.map.scen,4,BFS,1.0,9,True,0.0000,0.0,1,0.0015,0.00
random512-30-0.map,random512-30-0.map.scen,4,BFS,1.0,10,True,6.0000,5.41421356,36,0.0548,10.82
random512-30-0.map,random512-30-0.map.scen,4,BFS,1.0,11,True,4.0000,4.0,17,0.0290,0.00
random512-30-0.map,random512-30-0.map.scen,4,BFS,1.0,12,True,4.0000,4.0,18,0.0312,0.00
random512-30-0.map,random512-30-0.map.scen,4,BFS,1.0,13,True,8.0000,6.82842712,77,0.1269,17.16
random512-30-0.map,random512-30-0.map.scen,4,BFS,1.0,14,True,7.0000,5.82842712,58,0.1022,20.10
random512-30-0.map,random512-30-0.map.scen,4,BFS,1.0,15,True,7.0000,5.82842712,24,0.0418,20.10
random512-30-0.map,random512-30-0.map.scen,4,BFS,1.0,16,True,9.0000,7.82842712,107,0.1804,14.97
random512-30-0.map,random512-30-0.map.scen,4,BFS,1.0,17,True,4.0000,4.0,18,0.0292,0.00
random512-30-0.map,random512-30-0.map.scen,4,BFS,1.0,18,True,6.0000,4.82842712,27,0.0456,24.26
random512-30-0.map,random512-30-0.map.scen,4,BFS,1.0,19,True,5.0000,4.41421356,33,0.0567,13.27
random512-30-0.map,random512-30-0.map.scen,4,BFS,1.0,20,True,12.0000,11.41421356,121,0.1808,5.13
random512-30-0.map,random512-30-0.map.scen,4,BFS,1.0,21,True,13.0000,11.24264069,154,0.2328,15.63
random512-30-0.map,random512-30-0.map.scen,4,BFS,1.0,22,True,10.0000,8.24264069,92,0.1354,21.32
random512-30-0.map,random512-30-0.map.scen,4,BFS,1.0,23,True,11.0000,10.41421356,151,0.2472,5.62
random512-30-0.map,random512-30-0.map.scen,4,BFS,1.0,24,True,12.0000,11.41421356,53,0.0781,5.13
random512-30-0.map,random512-30-0.map.scen,4,BFS,1.0,25,True,11.0000,10.41421356,97,0.1415,5.62
random512-30-0.map,random512-30-0.map.scen,4,BFS,1.0,26,True,10.0000,8.82842712,116,0.1738,13.27
random512-30-0.map,random512-30-0.map.scen,4,BFS,1.0,27,True,11.0000,10.41421356,160,0.2629,5.62
random512-30-0.map,random512-30-0.map.scen,4,BFS,1.0,28,True,12.0000,10.82842712,182,0.3100,10.82
random512-30-0.map,random512-30-0.map.scen,4,BFS,1.0,29,True,12.0000,11.41421356,128,0.1944,5.13
random512-30-0.map,random512-30-0.map.scen,4,BFS,1.0,30,True,16.0000,14.24264069,249,0.4132,12.34
random512-30-0.map,random512-30-0.map.scen,4,BFS,1.0,31,True,16.0000,13.65685425,319,0.4908,17.16
random512-30-0.map,random512-30-0.map.scen,4,BFS,1.0,32,True,15.0000,12.65685425,243,0.4143,18.51
random512-30-0.map,random512-30-0.map.scen,4,BFS,1.0,33,True,17.0000,13.48528137,247,0.4067,26.06
random512-30-0.map,random512-30-0.map.scen,4,BFS,1.0,34,True,15.0000,14.41421356,199,0.3102,4.06
random512-30-0.map,random512-30-0.map.scen,4,BFS,1.0,35,True,17.0000,15.82842712,336,0.5149,7.40
random512-30-0.map,random512-30-0.map.scen,4,BFS,1.0,36,True,17.0000,15.24264069,237,0.4090,11.53
random512-30-0.map,random512-30-0.map.scen,4,BFS,1.0,37,True,15.0000,13.24264069,151,0.2371,13.27
random512-30-0.map,random512-30-0.map.scen,4,BFS,1.0,38,True,17.0000,15.82842712,307,0.5041,7.40
random512-30-0.map,random512-30-0.map.scen,4,BFS,1.0,39,True,14.0000,13.41421356,140,0.2143,4.37
random512-30-0.map,random512-30-0.map.scen,4,BFS,1.0,40,True,16.0000,16.0,198,0.3184,0.00
random512-30-0.map,random512-30-0.map.scen,4,BFS,1.0,41,True,21.0000,19.82842712,368,0.5506,5.91
random512-30-0.map,random512-30-0.map.scen,4,BFS,1.0,42,True,21.0000,19.24264069,358,0.5519,9.13
random512-30-0.map,random512-30-0.map.scen,4,BFS,1.0,43,True,24.0000,19.89949493,644,0.9467,20.61
random512-30-0.map,random512-30-0.map.scen,4,BFS,1.0,44,True,21.0000,19.24264069,509,0.7907,9.13
random512-30-0.map,random512-30-0.map.scen,4,BFS,1.0,45,True,21.0000,18.07106781,471,0.6852,16.21
random512-30-0.map,random512-30-0.map.scen,4,BFS,1.0,46,True,18.0000,17.41421356,275,0.4517,3.36
random512-30-0.map,random512-30-0.map.scen,4,BFS,1.0,47,True,21.0000,18.07106781,560,0.8067,16.21
random512-30-0.map,random512-30-0.map.scen,4,BFS,1.0,48,True,22.0000,19.65685425,283,0.4736,11.92
random512-30-0.map,random512-30-0.map.scen,4,BFS,1.0,49,True,19.0000,17.24264069,382,0.5775,10.19
random512-30-0.map,random512-30-0.map.scen,4,BFS,1.0,50,True,25.0000,23.82842712,468,0.6461,4.92
random512-30-0.map,random512-30-0.map.scen,4,BFS,1.0,51,True,26.0000,22.48528137,385,0.5537,15.63
random512-30-0.map,random512-30-0.map.scen,4,BFS,1.0,52,True,22.0000,21.41421356,463,0.6532,2.74
random512-30-0.map,random512-30-0.map.scen,4,BFS,1.0,53,True,23.0000,21.24264069,572,0.9197,8.27
random512-30-0.map,random512-30-0.map.scen,4,BFS,1.0,54,True,25.0000,22.07106781,686,0.9827,13.27
random512-30-0.map,random512-30-0.map.scen,4,BFS,1.0,55,True,27.0000,22.89949493,653,0.9390,17.91
random512-30-0.map,random512-30-0.map.scen,4,BFS,1.0,56,True,22.0000,21.41421356,419,0.6061,2.74
random512-30-0.map,random512-30-0.map.scen,4,BFS,1.0,57,True,26.0000,23.65685425,552,0.7809,9.90
random512-30-0.map,random512-30-0.map.scen,4,BFS,1.0,58,True,26.0000,23.07106781,480,1.0409,12.70
random512-30-0.map,random512-30-0.map.scen,4,BFS,1.0,59,True,25.0000,20.89949493,631,1.3126,19.62
random512-30-0.map,random512-30-0.map.scen,4,BFS,1.0,60,True,27.0000,24.65685425,760,1.1510,9.50
random512-30-0.map,random512-30-0.map.scen,4,BFS,1.0,61,True,28.0000,25.65685425,681,0.9735,9.13
random512-30-0.map,random512-30-0.map.scen,4,BFS,1.0,62,True,30.0000,27.07106781,652,0.9233,10.82
random512-30-0.map,random512-30-0.map.scen,4,BFS,1.0,63,True,27.0000,24.07106781,512,0.7526,12.17
random512-30-0.map,random512-30-0.map.scen,4,BFS,1.0,64,True,29.0000,25.48528137,890,1.2628,13.79
random512-30-0.map,random512-30-0.map.scen,4,BFS,1.0,65,True,27.0000,25.24264069,801,1.1306,6.96
random512-30-0.map,random512-30-0.map.scen,4,BFS,1.0,66,True,27.0000,25.24264069,646,0.9412,6.96
random512-30-0.map,random512-30-0.map.scen,4,BFS,1.0,67,True,29.0000,26.89949493,924,1.3793,7.81
random512-30-0.map,random512-30-0.map.scen,4,BFS,1.0,68,True,28.0000,25.65685425,615,1.0014,9.13
random512-30-0.map,random512-30-0.map.scen,4,BFS,1.0,69,True,32.0000,27.89949493,813,1.4879,14.70
random512-30-0.map,random512-30-0.map.scen,4,BFS,1.0,70,True,36.0000,30.14213562,1379,1.9445,19.43
random512-30-0.map,random512-30-0.map.scen,4,BFS,1.0,71,True,33.0000,29.48528137,789,1.0950,11.92
random512-30-0.map,random512-30-0.map.scen,4,BFS,1.0,72,True,34.0000,30.48528137,1196,1.6731,11.53
random512-30-0.map,random512-30-0.map.scen,4,BFS,1.0,73,True,35.0000,28.55634918,1204,1.7065,22.56
random512-30-0.map,random512-30-0.map.scen,4,BFS,1.0,74,True,36.0000,31.89949493,1288,1.7717,12.85
random512-30-0.map,random512-30-0.map.scen,4,BFS,1.0,75,True,33.0000,30.07106781,1027,1.3949,9.74
random512-30-0.map,random512-30-0.map.scen,4,BFS,1.0,76,True,33.0000,28.89949493,1108,1.5173,14.19
random512-30-0.map,random512-30-0.map.scen,4,BFS,1.0,77,True,31.0000,28.65685425,716,0.9513,8.18
random512-30-0.map,random512-30-0.map.scen,4,BFS,1.0,78,True,35.0000,31.48528137,854,1.2444,11.16
random512-30-0.map,random512-30-0.map.scen,4,BFS,1.0,79,True,33.0000,29.48528137,432,0.6324,11.92
random512-30-0.map,random512-30-0.map.scen,4,BFS,1.0,80,True,37.0000,32.3137085,1428,1.9713,14.50
random512-30-0.map,random512-30-0.map.scen,4,BFS,1.0,81,True,41.0000,34.55634918,1362,1.8841,18.65
random512-30-0.map,random512-30-0.map.scen,4,BFS,1.0,82,True,37.0000,34.07106781,1366,1.7625,8.60
random512-30-0.map,random512-30-0.map.scen,4,BFS,1.0,83,True,38.0000,34.48528137,1588,2.0458,10.19
random512-30-0.map,random512-30-0.map.scen,4,BFS,1.0,84,True,37.0000,35.24264069,1375,1.9293,4.99
random512-30-0.map,random512-30-0.map.scen,4,BFS,1.0,85,True,37.0000,34.07106781,1235,1.6903,8.60
random512-30-0.map,random512-30-0.map.scen,4,BFS,1.0,86,True,42.0000,34.97056274,1860,2.4463,20.10
random512-30-0.map,random512-30-0.map.scen,4,BFS,1.0,87,True,34.0000,32.24264069,768,1.0637,5.45
random512-30-0.map,random512-30-0.map.scen,4,BFS,1.0,88,True,39.0000,34.3137085,1367,1.8904,13.66
random512-30-0.map,random512-30-0.map.scen,4,BFS,1.0,89,True,37.0000,35.24264069,1083,1.5387,4.99
random512-30-0.map,random512-30-0.map.scen,4,BFS,1.0,90,True,41.0000,38.07106781,1640,2.2236,7.69
random512-30-0.map,random512-30-0.map.scen,4,BFS,1.0,91,True,41.0000,36.3137085,1085,1.4981,12.91
random512-30-0.map,random512-30-0.map.scen,4,BFS,1.0,92,True,45.0000,38.55634918,2066,2.6590,16.71
random512-30-0.map,random512-30-0.map.scen,4,BFS,1.0,93,True,43.0000,39.48528137,1605,2.1558,8.90
random512-30-0.map,random512-30-0.map.scen,4,BFS,1.0,94,True,39.0000,36.07106781,1154,1.5976,8.12
random512-30-0.map,random512-30-0.map.scen,4,BFS,1.0,95,True,43.0000,38.89949493,1404,1.8732,10.54
random512-30-0.map,random512-30-0.map.scen,4,BFS,1.0,96,True,43.0000,36.55634918,1738,2.3505,17.63
random512-30-0.map,random512-30-0.map.scen,4,BFS,1.0,97,True,42.0000,38.72792206,2014,2.8435,8.45
random512-30-0.map,random512-30-0.map.scen,4,BFS,1.0,98,True,38.0000,36.24264069,1010,1.4201,4.85
random512-30-0.map,random512-30-0.map.scen,4,BFS,1.0,99,True,40.0000,37.07106781,1636,2.1671,7.90
random512-30-0.map,random512-30-0.map.scen,4,BFS,1.0,100,True,47.0000,42.89949493,2009,2.6394,9.56
random512-30-0.map,random512-30-0.map.scen,4,BFS,1.0,101,True,48.0000,43.3137085,2509,3.2771,10.82
random512-30-0.map,random512-30-0.map.scen,4,BFS,1.0,102,True,44.0000,40.48528137,1963,2.5524,8.68
random512-30-0.map,random512-30-0.map.scen,4,BFS,1.0,103,True,50.0000,42.97056274,1529,2.1180,16.36
random512-30-0.map,random512-30-0.map.scen,4,BFS,1.0,104,True,48.0000,42.72792206,1906,2.4491,12.34
random512-30-0.map,random512-30-0.map.scen,4,BFS,1.0,105,True,50.0000,42.97056274,2361,3.1740,16.36
random512-30-0.map,random512-30-0.map.scen,4,BFS,1.0,106,True,49.0000,43.14213562,2626,3.4591,13.58
random512-30-0.map,random512-30-0.map.scen,4,BFS,1.0,107,True,49.0000,43.97056274,1737,2.2616,11.44
random512-30-0.map,random512-30-0.map.scen,4,BFS,1.0,108,True,48.0000,43.89949493,1542,1.9931,9.34
random512-30-0.map,random512-30-0.map.scen,4,BFS,1.0,109,True,45.0000,40.3137085,1773,2.3418,11.62
random512-30-0.map,random512-30-0.map.scen,4,BFS,1.0,110,True,49.0000,44.3137085,2430,3.3077,10.58
random512-30-0.map,random512-30-0.map.scen,4,BFS,1.0,111,True,54.0000,47.55634918,3005,3.9007,13.55
random512-30-0.map,random512-30-0.map.scen,4,BFS,1.0,112,True,47.0000,45.24264069,2058,2.6142,3.88
random512-30-0.map,random512-30-0.map.scen,4,BFS,1.0,113,True,50.0000,46.48528137,2729,3.6829,7.56
random512-30-0.map,random512-30-0.map.scen,4,BFS,1.0,114,True,52.0000,47.89949493,2401,3.2234,8.56
random512-30-0.map,random512-30-0.map.scen,4,BFS,1.0,115,True,53.0000,47.72792206,2046,2.5888,11.05
random512-30-0.map,random512-30-0.map.scen,4,BFS,1.0,116,True,55.0000,47.97056274,3127,4.0142,14.65
random512-30-0.map,random512-30-0.map.scen,4,BFS,1.0,117,True,49.0000,44.3137085,2366,3.0521,10.58
random512-30-0.map,random512-30-0.map.scen,4,BFS,1.0,118,True,53.0000,47.14213562,2591,3.3517,12.43
random512-30-0.map,random512-30-0.map.scen,4,BFS,1.0,119,True,51.0000,46.3137085,2398,3.0898,10.12
random512-30-0.map,random512-30-0.map.scen,4,BFS,1.0,120,True,57.0000,51.14213562,3165,3.8701,11.45
random512-30-0.map,random512-30-0.map.scen,4,BFS,1.0,121,True,56.0000,48.38477631,3415,4.2924,15.74
random512-30-0.map,random512-30-0.map.scen,4,BFS,1.0,122,True,59.0000,51.97056274,3148,4.0729,13.53
random512-30-0.map,random512-30-0.map.scen,4,BFS,1.0,123,True,53.0000,48.3137085,2641,3.4002,9.70
random512-30-0.map,random512-30-0.map.scen,4,BFS,1.0,124,True,54.0000,50.48528137,3010,3.8125,6.96
random512-30-0.map,random512-30-0.map.scen,4,BFS,1.0,125,True,55.0000,49.14213562,2728,3.4180,11.92
random512-30-0.map,random512-30-0.map.scen,4,BFS,1.0,126,True,53.0000,48.89949493,2586,3.2735,8.39
random512-30-0.map,random512-30-0.map.scen,4,BFS,1.0,127,True,56.0000,51.3137085,3054,3.8809,9.13
random512-30-0.map,random512-30-0.map.scen,4,BFS,1.0,128,True,56.0000,51.89949493,2351,3.0137,7.90
random512-30-0.map,random512-30-0.map.scen,4,BFS,1.0,129,True,56.0000,48.97056274,2612,3.4102,14.35
random512-30-0.map,random512-30-0.map.scen,4,BFS,1.0,130,True,61.0000,54.55634918,3766,4.7820,11.81
random512-30-0.map,random512-30-0.map.scen,4,BFS,1.0,131,True,64.0000,55.79898987,4198,5.1842,14.70
random512-30-0.map,random512-30-0.map.scen,4,BFS,1.0,132,True,59.0000,53.14213562,2986,3.8107,11.02
random512-30-0.map,random512-30-0.map.scen,4,BFS,1.0,133,True,59.0000,54.3137085,3202,4.0672,8.63
random512-30-0.map,random512-30-0.map.scen,4,BFS,1.0,134,True,57.0000,52.55634918,3255,4.2266,8.46
random512-30-0.map,random512-30-0.map.scen,4,BFS,1.0,135,True,58.0000,53.89949493,3116,3.9370,7.61
random512-30-0.map,random512-30-0.map.scen,4,BFS,1.0,136,True,59.0000,54.3137085,3346,4.1252,8.63
random512-30-0.map,random512-30-0.map.scen,4,BFS,1.0,137,True,62.0000,55.55634918,3826,4.7090,11.60
random512-30-0.map,random512-30-0.map.scen,4,BFS,1.0,138,True,60.0000,54.14213562,3708,4.7523,10.82
random512-30-0.map,random512-30-0.map.scen,4,BFS,1.0,139,True,61.0000,55.14213562,3560,4.5236,10.62
random512-30-0.map,random512-30-0.map.scen,4,BFS,1.0,140,True,63.0000,58.21320343,3595,4.5889,8.22
random512-30-0.map,random512-30-0.map.scen,4,BFS,1.0,141,True,67.0000,59.62741699,4839,6.0857,12.36
random512-30-0.map,random512-30-0.map.scen,4,BFS,1.0,142,True,63.0000,57.14213562,3767,4.7783,10.25
random512-30-0.map,random512-30-0.map.scen,4,BFS,1.0,143,True,66.0000,57.79898987,3988,5.0026,14.19
random512-30-0.map,random512-30-0.map.scen,4,BFS,1.0,144,True,64.0000,56.38477631,4426,5.5509,13.51
random512-30-0.map,random512-30-0.map.scen,4,BFS,1.0,145,True,67.0000,58.21320343,4623,5.6828,15.09
random512-30-0.map,random512-30-0.map.scen,4,BFS,1.0,146,True,66.0000,58.38477631,4311,5.2578,13.04
random512-30-0.map,random512-30-0.map.scen,4,BFS,1.0,147,True,67.0000,58.79898987,4475,5.4337,13.95
random512-30-0.map,random512-30-0.map.scen,4,BFS,1.0,148,True,62.0000,57.3137085,2348,3.1075,8.18
random512-30-0.map,random512-30-0.map.scen,4,BFS,1.0,149,True,66.0000,58.38477631,4781,5.8252,13.04
random512-30-0.map,random512-30-0.map.scen,4,BFS,1.0,150,True,67.0000,61.72792206,4266,5.3150,8.54
random512-30-0.map,random512-30-0.map.scen,4,BFS,1.0,151,True,68.0000,61.55634918,4845,5.9763,10.47
random512-30-0.map,random512-30-0.map.scen,4,BFS,1.0,152,True,67.0000,61.14213562,4613,5.6002,9.58
random512-30-0.map,random512-30-0.map.scen,4,BFS,1.0,153,True,70.0000,61.79898987,4931,6.1540,13.27
random512-30-0.map,random512-30-0.map.scen,4,BFS,1.0,154,True,69.0000,63.38477631,4478,5.6274,8.86
random512-30-0.map,random512-30-0.map.scen,4,BFS,1.0,155,True,69.0000,61.38477631,4982,6.4225,12.41
random512-30-0.map,random512-30-0.map.scen,4,BFS,1.0,156,True,70.0000,60.04163055,5214,6.5661,16.59
random512-30-0.map,random512-30-0.map.scen,4,BFS,1.0,157,True,66.0000,60.97056274,4101,4.9384,8.25
random512-30-0.map,random512-30-0.map.scen,4,BFS,1.0,158,True,70.0000,61.21320343,5160,6.5792,14.35
random512-30-0.map,random512-30-0.map.scen,4,BFS,1.0,159,True,67.0000,61.72792206,2949,3.5997,8.54
random512-30-0.map,random512-30-0.map.scen,4,BFS,1.0,160,True,72.0000,65.79898987,4447,5.5499,9.42
random512-30-0.map,random512-30-0.map.scen,4,BFS,1.0,161,True,71.0000,65.14213562,3968,4.9097,8.99
random512-30-0.map,random512-30-0.map.scen,4,BFS,1.0,162,True,74.0000,67.55634918,4674,5.7975,9.54
random512-30-0.map,random512-30-0.map.scen,4,BFS,1.0,163,True,73.0000,67.72792206,5504,7.2057,7.78
random512-30-0.map,random512-30-0.map.scen,4,BFS,1.0,164,True,77.0000,67.62741699,1710,2.0990,13.86
random512-30-0.map,random512-30-0.map.scen,4,BFS,1.0,165,True,72.0000,65.55634918,5424,8.2564,9.83
random512-30-0.map,random512-30-0.map.scen,4,BFS,1.0,166,True,75.0000,67.97056274,3909,4.9558,10.34
random512-30-0.map,random512-30-0.map.scen,4,BFS,1.0,167,True,70.0000,65.3137085,4959,6.4881,7.18
random512-30-0.map,random512-30-0.map.scen,4,BFS,1.0,168,True,73.0000,66.55634918,5567,6.9503,9.68
random512-30-0.map,random512-30-0.map.scen,4,BFS,1.0,169,True,74.0000,66.97056274,5188,6.6793,10.50
random512-30-0.map,random512-30-0.map.scen,4,BFS,1.0,170,True,79.0000,70.21320343,4115,4.9477,12.51
random512-30-0.map,random512-30-0.map.scen,4,BFS,1.0,171,True,79.0000,71.97056274,4934,5.9372,9.77
random512-30-0.map,random512-30-0.map.scen,4,BFS,1.0,172,True,80.0000,71.21320343,5540,7.0701,12.34
random512-30-0.map,random512-30-0.map.scen,4,BFS,1.0,173,True,78.0000,70.38477631,5011,6.2386,10.82
random512-30-0.map,random512-30-0.map.scen,4,BFS,1.0,174,True,75.0000,69.14213562,5459,6.8970,8.47
random512-30-0.map,random512-30-0.map.scen,4,BFS,1.0,175,True,76.0000,69.55634918,6169,7.7898,9.26
random512-30-0.map,random512-30-0.map.scen,4,BFS,1.0,176,True,74.0000,68.72792206,5731,7.1780,7.67
random512-30-0.map,random512-30-0.map.scen,4,BFS,1.0,177,True,78.0000,69.79898987,6240,7.6303,11.75
random512-30-0.map,random512-30-0.map.scen,4,BFS,1.0,178,True,77.0000,70.55634918,5772,7.1864,9.13
random512-30-0.map,random512-30-0.map.scen,4,BFS,1.0,179,True,78.0000,70.97056274,6651,8.2209,9.90
random512-30-0.map,random512-30-0.map.scen,4,BFS,1.0,180,True,79.0000,73.14213562,6564,8.0863,8.01
random512-30-0.map,random512-30-0.map.scen,4,BFS,1.0,181,True,85.0000,75.62741699,7039,8.8556,12.39
random512-30-0.map,random512-30-0.map.scen,4,BFS,1.0,182,True,81.0000,72.79898987,7297,8.9345,11.27
random512-30-0.map,random512-30-0.map.scen,4,BFS,1.0,183,True,81.0000,72.21320343,6881,8.7201,12.17
random512-30-0.map,random512-30-0.map.scen,4,BFS,1.0,184,True,79.0000,72.55634918,6308,7.7837,8.88
random512-30-0.map,random512-30-0.map.scen,4,BFS,1.0,185,True,81.0000,75.72792206,6999,8.8939,6.96
random512-30-0.map,random512-30-0.map.scen,4,BFS,1.0,186,True,83.0000,74.21320343,6602,8.3802,11.84
random512-30-0.map,random512-30-0.map.scen,4,BFS,1.0,187,True,82.0000,74.38477631,7687,9.3688,10.24
random512-30-0.map,random512-30-0.map.scen,4,BFS,1.0,188,True,83.0000,72.6984848,6150,7.4478,14.17
random512-30-0.map,random512-30-0.map.scen,4,BFS,1.0,189,True,85.0000,73.28427124,7724,9.5918,15.99
random512-30-0.map,random512-30-0.map.scen,4,BFS,1.0,190,True,87.0000,77.62741699,7649,9.3324,12.07
random512-30-0.map,random512-30-0.map.scen,4,BFS,1.0,191,True,87.0000,78.79898987,7582,9.2178,10.41
random512-30-0.map,random512-30-0.map.scen,4,BFS,1.0,192,True,87.0000,77.04163055,7769,9.5340,12.93
random512-30-0.map,random512-30-0.map.scen,4,BFS,1.0,193,True,86.0000,76.04163055,5953,7.6147,13.10
random512-30-0.map,random512-30-0.map.scen,4,BFS,1.0,194,True,91.0000,79.87005768,7794,9.7389,13.94
random512-30-0.map,random512-30-0.map.scen,4,BFS,1.0,195,True,87.0000,76.6984848,7733,9.4469,13.43
random512-30-0.map,random512-30-0.map.scen,4,BFS,1.0,196,True,87.0000,77.62741699,5894,7.3188,12.07
random512-30-0.map,random512-30-0.map.scen,4,BFS,1.0,197,True,86.0000,76.62741699,8263,10.1208,12.23
random512-30-0.map,random512-30-0.map.scen,4,BFS,1.0,198,True,89.0000,77.87005768,8316,10.1174,14.29
random512-30-0.map,random512-30-0.map.scen,4,BFS,1.0,199,True,90.0000,79.45584412,5378,6.6857,13.27
random512-30-0.map,random512-30-0.map.scen,4,BFS,1.0,200,True,97.0000,82.94112549,10111,12.9173,16.95
random512-30-0.map,random512-30-0.map.scen,4,BFS,1.0,201,True,89.0000,82.21320343,6048,7.6462,8.26
random512-30-0.map,random512-30-0.map.scen,4,BFS,1.0,202,True,93.0000,80.11269836,6076,7.5916,16.09
random512-30-0.map,random512-30-0.map.scen,4,BFS,1.0,203,True,92.0000,82.04163055,7539,9.2707,12.14
random512-30-0.map,random512-30-0.map.scen,4,BFS,1.0,204,True,90.0000,81.21320343,8759,10.8330,10.82
random512-30-0.map,random512-30-0.map.scen,4,BFS,1.0,205,True,92.0000,82.62741699,6329,7.8397,11.34
random512-30-0.map,random512-30-0.map.scen,4,BFS,1.0,206,True,93.0000,81.87005768,8733,10.6206,13.59
random512-30-0.map,random512-30-0.map.scen,4,BFS,1.0,207,True,90.0000,80.62741699,7998,10.1002,11.62
random512-30-0.map,random512-30-0.map.scen,4,BFS,1.0,208,True,96.0000,83.6984848,7591,9.3007,14.70
random512-30-0.map,random512-30-0.map.scen,4,BFS,1.0,209,True,90.0000,82.04163055,8785,10.8370,9.70
random512-30-0.map,random512-30-0.map.scen,4,BFS,1.0,210,True,93.0000,85.97056274,8448,10.3210,8.18
random512-30-0.map,random512-30-0.map.scen,4,BFS,1.0,211,True,93.0000,86.55634918,9178,11.3520,7.44
random512-30-0.map,random512-30-0.map.scen,4,BFS,1.0,212,True,100.0000,87.6984848,9981,12.0203,14.03
random512-30-0.map,random512-30-0.map.scen,4,BFS,1.0,213,True,96.0000,86.04163055,9528,11.6731,11.57
random512-30-0.map,random512-30-0.map.scen,4,BFS,1.0,214,True,92.0000,84.04163055,9002,10.8602,9.47
random512-30-0.map,random512-30-0.map.scen,4,BFS,1.0,215,True,95.0000,84.45584412,8712,10.5505,12.48
random512-30-0.map,random512-30-0.map.scen,4,BFS,1.0,216,True,101.0000,86.94112549,10650,13.7496,16.17
random512-30-0.map,random512-30-0.map.scen,4,BFS,1.0,217,True,101.0000,87.52691193,10853,13.4994,15.39
random512-30-0.map,random512-30-0.map.scen,4,BFS,1.0,218,True,98.0000,86.87005768,10484,13.5013,12.81
random512-30-0.map,random512-30-0.map.scen,4,BFS,1.0,219,True,95.0000,84.45584412,7666,9.3130,12.48
random512-30-0.map,random512-30-0.map.scen,4,BFS,1.0,220,True,101.0000,91.62741699,11033,14.2103,10.23
random512-30-0.map,random512-30-0.map.scen,4,BFS,1.0,221,True,102.0000,89.11269836,7977,9.9081,14.46
random512-30-0.map,random512-30-0.map.scen,4,BFS,1.0,222,True,100.0000,88.52691193,10245,13.1380,12.96
random512-30-0.map,random512-30-0.map.scen,4,BFS,1.0,223,True,96.0000,88.38477631,10117,13.2540,8.62
random512-30-0.map,random512-30-0.map.scen,4,BFS,1.0,224,True,98.0000,90.38477631,10523,13.5240,8.43
random512-30-0.map,random512-30-0.map.scen,4,BFS,1.0,225,True,96.0000,88.38477631,9140,11.1382,8.62
random512-30-0.map,random512-30-0.map.scen,4,BFS,1.0,226,True,99.0000,88.45584412,10220,12.9450,11.92
random512-30-0.map,random512-30-0.map.scen,4,BFS,1.0,227,True,103.0000,88.59797974,11370,14.3059,16.26
random512-30-0.map,random512-30-0.map.scen,4,BFS,1.0,228,True,102.0000,91.6984848,10297,13.0817,11.23
random512-30-0.map,random512-30-0.map.scen,4,BFS,1.0,229,True,100.0000,90.04163055,10893,13.8940,11.06
random512-30-0.map,random512-30-0.map.scen,4,BFS,1.0,230,True,102.0000,94.97056274,10725,13.4875,7.40
random512-30-0.map,random512-30-0.map.scen,4,BFS,1.0,231,True,108.0000,93.0121933,10492,13.2255,16.11
random512-30-0.map,random512-30-0.map.scen,4,BFS,1.0,232,True,108.0000,93.94112549,12412,15.7281,14.97
random512-30-0.map,random512-30-0.map.scen,4,BFS,1.0,233,True,101.0000,92.79898987,10594,13.6279,8.84
random512-30-0.map,random512-30-0.map.scen,4,BFS,1.0,234,True,103.0000,94.21320343,11048,14.2904,9.33
random512-30-0.map,random512-30-0.map.scen,4,BFS,1.0,235,True,108.0000,93.94112549,12721,15.9231,14.97
random512-30-0.map,random512-30-0.map.scen,4,BFS,1.0,236,True,106.0000,94.28427124,12084,15.2380,12.43
random512-30-0.map,random512-30-0.map.scen,4,BFS,1.0,237,True,104.0000,93.45584412,10641,13.2518,11.28
random512-30-0.map,random512-30-0.map.scen,4,BFS,1.0,238,True,107.0000,94.6984848,6157,7.6694,12.99
random512-30-0.map,random512-30-0.map.scen,4,BFS,1.0,239,True,110.0000,95.35533905,12773,15.9090,15.36
random512-30-0.map,random512-30-0.map.scen,4,BFS,1.0,240,True,109.0000,96.35533905,12480,15.6905,13.12
random512-30-0.map,random512-30-0.map.scen,4,BFS,1.0,241,True,108.0000,96.28427124,12410,15.3999,12.17
random512-30-0.map,random512-30-0.map.scen,4,BFS,1.0,242,True,109.0000,96.6984848,7571,9.1598,12.72
random512-30-0.map,random512-30-0.map.scen,4,BFS,1.0,243,True,106.0000,98.97056274,7003,8.7261,7.10
random512-30-0.map,random512-30-0.map.scen,4,BFS,1.0,244,True,105.0000,96.21320343,9868,12.1238,9.13
random512-30-0.map,random512-30-0.map.scen,4,BFS,1.0,245,True,114.0000,99.35533905,12543,15.9154,14.74
random512-30-0.map,random512-30-0.map.scen,4,BFS,1.0,246,True,111.0000,99.87005768,12707,16.2484,11.14
random512-30-0.map,random512-30-0.map.scen,4,BFS,1.0,247,True,116.0000,98.42640686,14328,17.7097,17.85
random512-30-0.map,random512-30-0.map.scen,4,BFS,1.0,248,True,107.0000,99.38477631,6259,7.7524,7.66
random512-30-0.map,random512-30-0.map.scen,4,BFS,1.0,249,True,112.0000,99.35533905,13809,17.1788,12.73
random512-30-0.map,random512-30-0.map.scen,4,BFS,1.0,250,True,118.0000,101.0121933,9531,11.7234,16.82
random512-30-0.map,random512-30-0.map.scen,4,BFS,1.0,251,True,114.0000,103.45584412,13565,16.7393,10.19
random512-30-0.map,random512-30-0.map.scen,4,BFS,1.0,252,True,109.0000,100.79898987,12467,16.0498,8.14
random512-30-0.map,random512-30-0.map.scen,4,BFS,1.0,253,True,115.0000,103.28427124,13665,16.9471,11.34
random512-30-0.map,random512-30-0.map.scen,4,BFS,1.0,254,True,112.0000,101.94112549,12889,16.1861,9.87
random512-30-0.map,random512-30-0.map.scen,4,BFS,1.0,255,True,114.0000,102.28427124,13638,16.9412,11.45
random512-30-0.map,random512-30-0.map.scen,4,BFS,1.0,256,True,115.0000,100.59797974,14005,16.9091,14.32
random512-30-0.map,random512-30-0.map.scen,4,BFS,1.0,257,True,111.0000,100.94112549,12785,15.8364,9.97
random512-30-0.map,random512-30-0.map.scen,4,BFS,1.0,258,True,114.0000,101.35533905,13729,17.0536,12.48
random512-30-0.map,random512-30-0.map.scen,4,BFS,1.0,259,True,113.0000,101.52691193,7446,9.3429,11.30
random512-30-0.map,random512-30-0.map.scen,4,BFS,1.0,260,True,124.0000,107.25483398,17089,20.9302,15.61
random512-30-0.map,random512-30-0.map.scen,4,BFS,1.0,261,True,120.0000,107.11269836,13063,16.4356,12.03
random512-30-0.map,random512-30-0.map.scen,4,BFS,1.0,262,True,117.0000,107.87005768,14394,17.7003,8.46
random512-30-0.map,random512-30-0.map.scen,4,BFS,1.0,263,True,112.0000,104.97056274,6446,7.9903,6.70
random512-30-0.map,random512-30-0.map.scen,4,BFS,1.0,264,True,113.0000,104.21320343,13164,16.5750,8.43
random512-30-0.map,random512-30-0.map.scen,4,BFS,1.0,265,True,118.0000,105.6984848,15346,19.1370,11.64
random512-30-0.map,random512-30-0.map.scen,4,BFS,1.0,266,True,115.0000,104.6984848,11954,14.8227,9.84
random512-30-0.map,random512-30-0.map.scen,4,BFS,1.0,267,True,116.0000,104.87005768,14646,17.8915,10.61
random512-30-0.map,random512-30-0.map.scen,4,BFS,1.0,268,True,121.0000,105.18376617,15239,18.4524,15.04
random512-30-0.map,random512-30-0.map.scen,4,BFS,1.0,269,True,116.0000,104.52691193,13647,16.5181,10.98
random512-30-0.map,random512-30-0.map.scen,4,BFS,1.0,270,True,126.0000,111.94112549,17302,21.2279,12.56
random512-30-0.map,random512-30-0.map.scen,4,BFS,1.0,271,True,127.0000,111.18376617,17223,20.8739,14.23
random512-30-0.map,random512-30-0.map.scen,4,BFS,1.0,272,True,121.0000,110.45584412,7400,9.1394,9.55
random512-30-0.map,random512-30-0.map.scen,4,BFS,1.0,273,True,121.0000,111.62741699,15655,19.2093,8.40
random512-30-0.map,random512-30-0.map.scen,4,BFS,1.0,274,True,128.0000,111.59797974,17414,20.7893,14.70
random512-30-0.map,random512-30-0.map.scen,4,BFS,1.0,275,True,127.0000,110.59797974,14678,17.9631,14.83
random512-30-0.map,random512-30-0.map.scen,4,BFS,1.0,276,True,115.0000,109.14213562,14488,17.9258,5.37
random512-30-0.map,random512-30-0.map.scen,4,BFS,1.0,277,True,118.0000,108.04163055,11998,14.9849,9.22
random512-30-0.map,random512-30-0.map.scen,4,BFS,1.0,278,True,123.0000,108.35533905,15741,19.1407,13.52
random512-30-0.map,random512-30-0.map.scen,4,BFS,1.0,279,True,121.0000,109.87005768,15550,19.0832,10.13
random512-30-0.map,random512-30-0.map.scen,4,BFS,1.0,280,True,129.0000,114.35533905,17999,22.2117,12.81
random512-30-0.map,random512-30-0.map.scen,4,BFS,1.0,281,True,126.0000,112.52691193,17471,21.1713,11.97
random512-30-0.map,random512-30-0.map.scen,4,BFS,1.0,282,True,129.0000,113.76955261,16714,20.1896,13.39
random512-30-0.map,random512-30-0.map.scen,4,BFS,1.0,283,True,132.0000,114.42640686,5596,6.8171,15.36
random512-30-0.map,random512-30-0.map.scen,4,BFS,1.0,284,True,126.0000,112.52691193,16679,20.5223,11.97
random512-30-0.map,random512-30-0.map.scen,4,BFS,1.0,285,True,130.0000,115.35533905,18214,21.9510,12.70
random512-30-0.map,random512-30-0.map.scen,4,BFS,1.0,286,True,129.0000,115.52691193,16920,20.4391,11.66
random512-30-0.map,random512-30-0.map.scen,4,BFS,1.0,287,True,123.0000,112.45584412,15941,19.0963,9.38
random512-30-0.map,random512-30-0.map.scen,4,BFS,1.0,288,True,128.0000,113.59797974,14937,18.1121,12.68
random512-30-0.map,random512-30-0.map.scen,4,BFS,1.0,289,True,121.0000,113.38477631,15468,18.6928,6.72
random512-30-0.map,random512-30-0.map.scen,4,BFS,1.0,290,True,130.0000,119.45584412,18545,22.7188,8.83
random512-30-0.map,random512-30-0.map.scen,4,BFS,1.0,291,True,132.0000,119.0121933,18143,22.0831,10.91
random512-30-0.map,random512-30-0.map.scen,4,BFS,1.0,292,True,130.0000,118.28427124,18227,22.8637,9.90
random512-30-0.map,random512-30-0.map.scen,4,BFS,1.0,293,True,136.0000,117.25483398,19527,24.8742,15.99
random512-30-0.map,random512-30-0.map.scen,4,BFS,1.0,294,True,130.0000,118.87005768,18748,23.9037,9.36
random512-30-0.map,random512-30-0.map.scen,4,BFS,1.0,295,True,131.0000,119.28427124,12411,16.0113,9.82
random512-30-0.map,random512-30-0.map.scen,4,BFS,1.0,296,True,130.0000,119.11269836,9821,12.2077,9.14
random512-30-0.map,random512-30-0.map.scen,4,BFS,1.0,297,True,129.0000,118.6984848,18404,23.2465,8.68
random512-30-0.map,random512-30-0.map.scen,4,BFS,1.0,298,True,133.0000,118.0121933,18269,22.5946,12.70
random512-30-0.map,random512-30-0.map.scen,4,BFS,1.0,299,True,131.0000,118.0121933,18914,23.9720,11.01
random512-30-0.map,random512-30-0.map.scen,4,BFS,1.0,300,True,135.0000,122.6984848,19028,24.5232,10.03
random512-30-0.map,random512-30-0.map.scen,4,BFS,1.0,301,True,143.0000,123.66904755,13227,17.1944,15.63
random512-30-0.map,random512-30-0.map.scen,4,BFS,1.0,302,True,134.0000,122.52691193,13933,17.7240,9.36
random512-30-0.map,random512-30-0.map.scen,4,BFS,1.0,303,True,133.0000,120.11269836,19036,23.7177,10.73
random512-30-0.map,random512-30-0.map.scen,4,BFS,1.0,304,True,134.0000,120.52691193,18230,23.7443,11.18
random512-30-0.map,random512-30-0.map.scen,4,BFS,1.0,305,True,142.0000,120.91168823,19783,24.5191,17.44
random512-30-0.map,random512-30-0.map.scen,4,BFS,1.0,306,True,139.0000,123.18376617,17603,21.6333,12.84
random512-30-0.map,random512-30-0.map.scen,4,BFS,1.0,307,True,135.0000,122.6984848,19140,22.7952,10.03
random512-30-0.map,random512-30-0.map.scen,4,BFS,1.0,308,True,133.0000,120.11269836,18318,22.4792,10.73
random512-30-0.map,random512-30-0.map.scen,4,BFS,1.0,309,True,135.0000,123.28427124,12785,16.1287,9.50
random512-30-0.map,random512-30-0.map.scen,4,BFS,1.0,310,True,141.0000,126.94112549,17300,20.8561,11.08
random512-30-0.map,random512-30-0.map.scen,4,BFS,1.0,311,True,144.0000,127.0121933,19014,22.4866,13.37
random512-30-0.map,random512-30-0.map.scen,4,BFS,1.0,312,True,147.0000,126.49747467,23788,30.3039,16.21
random512-30-0.map,random512-30-0.map.scen,4,BFS,1.0,313,True,145.0000,127.42640686,13118,16.1598,13.79
random512-30-0.map,random512-30-0.map.scen,4,BFS,1.0,314,True,140.0000,126.52691193,20117,24.5803,10.65
random512-30-0.map,random512-30-0.map.scen,4,BFS,1.0,315,True,147.0000,127.32590179,22958,28.3651,15.45
random512-30-0.map,random512-30-0.map.scen,4,BFS,1.0,316,True,140.0000,124.18376617,18336,21.9637,12.74
random512-30-0.map,random512-30-0.map.scen,4,BFS,1.0,317,True,139.0000,126.11269836,12642,15.6712,10.22
random512-30-0.map,random512-30-0.map.scen,4,BFS,1.0,318,True,139.0000,125.52691193,20832,25.8920,10.73
random512-30-0.map,random512-30-0.map.scen,4,BFS,1.0,319,True,145.0000,126.84062042,20601,26.3553,14.32
random512-30-0.map,random512-30-0.map.scen,4,BFS,1.0,320,True,148.0000,131.0121933,24312,30.1094,12.97
random512-30-0.map,random512-30-0.map.scen,4,BFS,1.0,321,True,143.0000,130.35533905,19776,23.6727,9.70
random512-30-0.map,random512-30-0.map.scen,4,BFS,1.0,322,True,149.0000,130.25483398,23593,29.1592,14.39
random512-30-0.map,random512-30-0.map.scen,4,BFS,1.0,323,True,150.0000,131.25483398,23399,29.4370,14.28
random512-30-0.map,random512-30-0.map.scen,4,BFS,1.0,324,True,153.0000,130.15432892,25549,31.6866,17.55
random512-30-0.map,random512-30-0.map.scen,4,BFS,1.0,325,True,140.0000,130.04163055,18966,22.6776,7.66
random512-30-0.map,random512-30-0.map.scen,4,BFS,1.0,326,True,143.0000,130.11269836,22765,28.2168,9.90
random512-30-0.map,random512-30-0.map.scen,4,BFS,1.0,327,True,141.0000,128.35533905,20796,26.2134,9.85
random512-30-0.map,random512-30-0.map.scen,4,BFS,1.0,328,True,138.0000,129.45584412,15648,19.1240,6.60
random512-30-0.map,random512-30-0.map.scen,4,BFS,1.0,329,True,145.0000,131.52691193,17828,21.3070,10.24
random512-30-0.map,random512-30-0.map.scen,4,BFS,1.0,330,True,151.0000,132.84062042,25028,31.2844,13.67
random512-30-0.map,random512-30-0.map.scen,4,BFS,1.0,331,True,147.0000,132.35533905,23672,29.7017,11.06
random512-30-0.map,random512-30-0.map.scen,4,BFS,1.0,332,True,153.0000,132.49747467,24972,30.9785,15.47
random512-30-0.map,random512-30-0.map.scen,4,BFS,1.0,333,True,150.0000,133.15432892,15906,19.1422,12.65
random512-30-0.map,random512-30-0.map.scen,4,BFS,1.0,334,True,149.0000,134.94112549,24185,30.1339,10.42
random512-30-0.map,random512-30-0.map.scen,4,BFS,1.0,335,True,149.0000,133.18376617,22825,28.5413,11.88
random512-30-0.map,random512-30-0.map.scen,4,BFS,1.0,336,True,147.0000,134.35533905,23614,30.3079,9.41
random512-30-0.map,random512-30-0.map.scen,4,BFS,1.0,337,True,144.0000,134.04163055,22124,27.8829,7.43
random512-30-0.map,random512-30-0.map.scen,4,BFS,1.0,338,True,151.0000,132.25483398,22624,28.5889,14.17
random512-30-0.map,random512-30-0.map.scen,4,BFS,1.0,339,True,149.0000,135.52691193,22540,27.7217,9.94
random512-30-0.map,random512-30-0.map.scen,4,BFS,1.0,340,True,159.0000,137.91168823,26914,33.6972,15.29
random512-30-0.map,random512-30-0.map.scen,4,BFS,1.0,341,True,158.0000,137.49747467,14931,18.5032,14.91
random512-30-0.map,random512-30-0.map.scen,4,BFS,1.0,342,True,155.0000,138.84062042,26720,32.9820,11.64
random512-30-0.map,random512-30-0.map.scen,4,BFS,1.0,343,True,154.0000,138.18376617,25463,31.1555,11.45
random512-30-0.map,random512-30-0.map.scen,4,BFS,1.0,344,True,153.0000,137.76955261,14604,17.9714,11.06
random512-30-0.map,random512-30-0.map.scen,4,BFS,1.0,345,True,150.0000,138.28427124,23499,29.4503,8.47
random512-30-0.map,random512-30-0.map.scen,4,BFS,1.0,346,True,160.0000,139.49747467,22100,27.6610,14.70
random512-30-0.map,random512-30-0.map.scen,4,BFS,1.0,347,True,152.0000,137.94112549,13512,16.5314,10.19
random512-30-0.map,random512-30-0.map.scen,4,BFS,1.0,348,True,150.0000,136.52691193,23142,29.3338,9.87
random512-30-0.map,random512-30-0.map.scen,4,BFS,1.0,349,True,160.0000,139.49747467,20456,24.5458,14.70
random512-30-0.map,random512-30-0.map.scen,4,BFS,1.0,350,True,159.0000,141.42640686,27033,33.3590,12.43
random512-30-0.map,random512-30-0.map.scen,4,BFS,1.0,351,True,159.0000,143.76955261,20016,24.2627,10.59
random512-30-0.map,random512-30-0.map.scen,4,BFS,1.0,352,True,168.0000,143.3969696,30913,38.4030,17.16
random512-30-0.map,random512-30-0.map.scen,4,BFS,1.0,353,True,162.0000,143.84062042,25894,32.3646,12.62
random512-30-0.map,random512-30-0.map.scen,4,BFS,1.0,354,True,156.0000,140.76955261,11985,15.5668,10.82
random512-30-0.map,random512-30-0.map.scen,4,BFS,1.0,355,True,162.0000,143.84062042,27647,33.9638,12.62
random512-30-0.map,random512-30-0.map.scen,4,BFS,1.0,356,True,165.0000,141.56854248,18655,22.6688,16.55
random512-30-0.map,random512-30-0.map.scen,4,BFS,1.0,357,True,153.0000,143.28427124,22655,29.1762,6.78
random512-30-0.map,random512-30-0.map.scen,4,BFS,1.0,358,True,163.0000,143.66904755,23178,28.9202,13.46
random512-30-0.map,random512-30-0.map.scen,4,BFS,1.0,359,True,155.0000,141.18376617,26234,32.8162,9.79
random512-30-0.map,random512-30-0.map.scen,4,BFS,1.0,360,True,167.0000,146.15432892,29126,35.2459,14.26
random512-30-0.map,random512-30-0.map.scen,4,BFS,1.0,361,True,162.0000,147.35533905,25975,32.4565,9.94
random512-30-0.map,random512-30-0.map.scen,4,BFS,1.0,362,True,159.0000,144.94112549,27601,33.7498,9.70
random512-30-0.map,random512-30-0.map.scen,4,BFS,1.0,363,True,159.0000,146.11269836,23576,29.3967,8.82
random512-30-0.map,random512-30-0.map.scen,4,BFS,1.0,364,True,162.0000,145.59797974,14911,18.0643,11.27
random512-30-0.map,random512-30-0.map.scen,4,BFS,1.0,365,True,161.0000,147.76955261,16571,19.8062,8.95
random512-30-0.map,random512-30-0.map.scen,4,BFS,1.0,366,True,159.0000,144.35533905,14742,17.9277,10.14
random512-30-0.map,random512-30-0.map.scen,4,BFS,1.0,367,True,161.0000,144.25483398,28636,34.9179,11.61
random512-30-0.map,random512-30-0.map.scen,4,BFS,1.0,368,True,159.0000,144.94112549,16902,20.3336,9.70
random512-30-0.map,random512-30-0.map.scen,4,BFS,1.0,369,True,165.0000,146.84062042,25001,30.4726,12.37
random512-30-0.map,random512-30-0.map.scen,4,BFS,1.0,370,True,173.0000,148.3969696,32519,40.2743,16.58
random512-30-0.map,random512-30-0.map.scen,4,BFS,1.0,371,True,167.0000,148.84062042,31240,38.9039,12.20
random512-30-0.map,random512-30-0.map.scen,4,BFS,1.0,372,True,165.0000,151.52691193,29820,36.0270,8.89
random512-30-0.map,random512-30-0.map.scen,4,BFS,1.0,373,True,167.0000,149.42640686,19780,23.6737,11.76
random512-30-0.map,random512-30-0.map.scen,4,BFS,1.0,374,True,171.0000,151.08326111,23480,29.3763,13.18
random512-30-0.map,random512-30-0.map.scen,4,BFS,1.0,375,True,178.0000,149.88225098,35594,43.3348,18.76
random512-30-0.map,random512-30-0.map.scen,4,BFS,1.0,376,True,172.0000,148.56854248,32391,40.0641,15.77
random512-30-0.map,random512-30-0.map.scen,4,BFS,1.0,377,True,161.0000,148.11269836,27585,33.5780,8.70
random512-30-0.map,random512-30-0.map.scen,4,BFS,1.0,378,True,167.0000,148.25483398,24190,29.7794,12.64
random512-30-0.map,random512-30-0.map.scen,4,BFS,1.0,379,True,166.0000,149.49747467,11052,14.0915,11.04
random512-30-0.map,random512-30-0.map.scen,4,BFS,1.0,380,True,170.0000,155.0121933,32196,39.4843,9.67
random512-30-0.map,random512-30-0.map.scen,4,BFS,1.0,381,True,172.0000,152.91168823,16080,19.7816,12.48
random512-30-0.map,random512-30-0.map.scen,4,BFS,1.0,382,True,173.0000,154.25483398,17865,23.6332,12.15
random512-30-0.map,random512-30-0.map.scen,4,BFS,1.0,383,True,168.0000,155.0121933,17599,20.9867,8.38
random512-30-0.map,random512-30-0.map.scen,4,BFS,1.0,384,True,172.0000,155.59797974,27710,34.1580,10.54
random512-30-0.map,random512-30-0.map.scen,4,BFS,1.0,385,True,165.0000,153.28427124,29749,37.2900,7.64
random512-30-0.map,random512-30-0.map.scen,4,BFS,1.0,386,True,176.0000,154.91168823,26136,32.4055,13.61
random512-30-0.map,random512-30-0.map.scen,4,BFS,1.0,387,True,170.0000,152.32590179,31779,38.5008,11.60
random512-30-0.map,random512-30-0.map.scen,4,BFS,1.0,388,True,175.0000,155.81118317,33454,42.7613,12.32
random512-30-0.map,random512-30-0.map.scen,4,BFS,1.0,389,True,171.0000,154.59797974,19614,24.9163,10.61
random512-30-0.map,random512-30-0.map.scen,4,BFS,1.0,390,True,176.0000,158.08326111,25064,30.9228,11.33
random512-30-0.map,random512-30-0.map.scen,4,BFS,1.0,391,True,177.0000,158.84062042,27984,35.3005,11.43
random512-30-0.map,random512-30-0.map.scen,4,BFS,1.0,392,True,172.0000,156.18376617,26755,33.0147,10.13
random512-30-0.map,random512-30-0.map.scen,4,BFS,1.0,393,True,179.0000,159.08326111,35080,44.2309,12.52
random512-30-0.map,random512-30-0.map.scen,4,BFS,1.0,394,True,172.0000,159.0121933,22911,28.5474,8.17
random512-30-0.map,random512-30-0.map.scen,4,BFS,1.0,395,True,179.0000,159.08326111,28125,34.3004,12.52
random512-30-0.map,random512-30-0.map.scen,4,BFS,1.0,396,True,173.0000,156.59797974,31826,40.1615,10.47
random512-30-0.map,random512-30-0.map.scen,4,BFS,1.0,397,True,175.0000,158.59797974,17156,20.8940,10.34
random512-30-0.map,random512-30-0.map.scen,4,BFS,1.0,398,True,174.0000,158.18376617,32897,40.2872,10.00
random512-30-0.map,random512-30-0.map.scen,4,BFS,1.0,399,True,179.0000,156.98275604,30430,38.8180,14.03
random512-30-0.map,random512-30-0.map.scen,4,BFS,1.0,400,True,180.0000,161.84062042,22317,27.6730,11.22
random512-30-0.map,random512-30-0.map.scen,4,BFS,1.0,401,True,183.0000,160.74011536,28529,34.9583,13.85
random512-30-0.map,random512-30-0.map.scen,4,BFS,1.0,402,True,178.0000,162.18376617,34481,42.6115,9.75
random512-30-0.map,random512-30-0.map.scen,4,BFS,1.0,403,True,182.0000,162.08326111,26023,32.1030,12.29
random512-30-0.map,random512-30-0.map.scen,4,BFS,1.0,404,True,177.0000,161.08326111,25710,33.1846,9.88
random512-30-0.map,random512-30-0.map.scen,4,BFS,1.0,405,True,182.0000,160.32590179,35823,43.6506,13.52
random512-30-0.map,random512-30-0.map.scen,4,BFS,1.0,406,True,181.0000,162.84062042,29914,36.7432,11.15
random512-30-0.map,random512-30-0.map.scen,4,BFS,1.0,407,True,176.0000,161.25483398,32873,40.9923,9.14
random512-30-0.map,random512-30-0.map.scen,4,BFS,1.0,408,True,180.0000,163.0121933,18984,22.7836,10.42
random512-30-0.map,random512-30-0.map.scen,4,BFS,1.0,409,True,185.0000,160.98275604,22095,27.3199,14.92
random512-30-0.map,random512-30-0.map.scen,4,BFS,1.0,410,True,174.0000,164.04163055,27416,34.5130,6.07
random512-30-0.map,random512-30-0.map.scen,4,BFS,1.0,411,True,180.0000,165.59797974,34780,42.3902,8.70
random512-30-0.map,random512-30-0.map.scen,4,BFS,1.0,412,True,193.0000,165.46803741,41231,51.0533,16.64
random512-30-0.map,random512-30-0.map.scen,4,BFS,1.0,413,True,180.0000,165.35533905,35882,43.8923,8.86
random512-30-0.map,random512-30-0.map.scen,4,BFS,1.0,414,True,192.0000,167.63961029,23580,29.8320,14.53
random512-30-0.map,random512-30-0.map.scen,4,BFS,1.0,415,True,186.0000,164.32590179,38377,47.1421,13.19
random512-30-0.map,random512-30-0.map.scen,4,BFS,1.0,416,True,189.0000,166.74011536,16356,19.2327,13.35
random512-30-0.map,random512-30-0.map.scen,4,BFS,1.0,417,True,190.0000,167.98275604,28034,34.5606,13.11
random512-30-0.map,random512-30-0.map.scen,4,BFS,1.0,418,True,191.0000,166.88225098,31518,38.4855,14.45
random512-30-0.map,random512-30-0.map.scen,4,BFS,1.0,419,True,183.0000,164.49747467,36642,44.8697,11.25
random512-30-0.map,random512-30-0.map.scen,4,BFS,1.0,420,True,189.0000,168.15432892,22000,28.2548,12.40
random512-30-0.map,random512-30-0.map.scen,4,BFS,1.0,421,True,189.0000,168.49747467,37639,45.7997,12.17
random512-30-0.map,random512-30-0.map.scen,4,BFS,1.0,422,True,184.0000,170.52691193,26755,33.7428,7.90
random512-30-0.map,random512-30-0.map.scen,4,BFS,1.0,423,True,189.0000,171.08326111,27558,33.6083,10.47
random512-30-0.map,random512-30-0.map.scen,4,BFS,1.0,424,True,185.0000,168.84062042,24933,30.0382,9.57
random512-30-0.map,random512-30-0.map.scen,4,BFS,1.0,425,True,192.0000,170.32590179,36078,44.3944,12.73
random512-30-0.map,random512-30-0.map.scen,4,BFS,1.0,426,True,191.0000,168.98275604,39055,47.8887,13.03
random512-30-0.map,random512-30-0.map.scen,4,BFS,1.0,427,True,190.0000,171.84062042,32921,40.3388,10.57
random512-30-0.map,random512-30-0.map.scen,4,BFS,1.0,428,True,192.0000,170.32590179,40446,49.6517,12.73
random512-30-0.map,random512-30-0.map.scen,4,BFS,1.0,429,True,186.0000,168.42640686,38768,47.5298,10.43
random512-30-0.map,random512-30-0.map.scen,4,BFS,1.0,430,True,190.0000,173.25483398,39774,48.7747,9.67
random512-30-0.map,random512-30-0.map.scen,4,BFS,1.0,431,True,198.0000,175.3969696,26362,32.2780,12.89
random512-30-0.map,random512-30-0.map.scen,4,BFS,1.0,432,True,196.0000,172.22539673,37866,45.6775,13.80
random512-30-0.map,random512-30-0.map.scen,4,BFS,1.0,433,True,196.0000,174.32590179,42559,55.1289,12.43
random512-30-0.map,random512-30-0.map.scen,4,BFS,1.0,434,True,192.0000,175.84062042,36217,44.3175,9.19
random512-30-0.map,random512-30-0.map.scen,4,BFS,1.0,435,True,194.0000,175.25483398,32379,41.0557,10.70
random512-30-0.map,random512-30-0.map.scen,4,BFS,1.0,436,True,194.0000,174.56854248,34802,44.3421,11.13
random512-30-0.map,random512-30-0.map.scen,4,BFS,1.0,437,True,199.0000,174.3969696,11369,15.1771,14.11
random512-30-0.map,random512-30-0.map.scen,4,BFS,1.0,438,True,197.0000,173.22539673,40103,51.2990,13.72
random512-30-0.map,random512-30-0.map.scen,4,BFS,1.0,439,True,188.0000,173.94112549,25375,32.8891,8.08
random512-30-0.map,random512-30-0.map.scen,4,BFS,1.0,440,True,197.0000,177.66904755,31216,37.4583,10.88
random512-30-0.map,random512-30-0.map.scen,4,BFS,1.0,441,True,202.0000,179.98275604,42635,55.3186,12.23
random512-30-0.map,random512-30-0.map.scen,4,BFS,1.0,442,True,202.0000,178.56854248,45929,59.6877,13.12
random512-30-0.map,random512-30-0.map.scen,4,BFS,1.0,443,True,205.0000,178.05382385,36988,45.3314,15.13
random512-30-0.map,random512-30-0.map.scen,4,BFS,1.0,444,True,199.0000,178.74011536,36131,46.6504,11.33
random512-30-0.map,random512-30-0.map.scen,4,BFS,1.0,445,True,199.0000,178.49747467,22401,28.4069,11.49
random512-30-0.map,random512-30-0.map.scen,4,BFS,1.0,446,True,201.0000,177.22539673,45322,59.1923,13.41
random512-30-0.map,random512-30-0.map.scen,4,BFS,1.0,447,True,209.0000,179.95331879,46846,60.1958,16.14
random512-30-0.map,random512-30-0.map.scen,4,BFS,1.0,448,True,193.0000,176.74011536,35567,46.1756,9.20
random512-30-0.map,random512-30-0.map.scen,4,BFS,1.0,449,True,203.0000,177.22539673,21248,27.4576,14.54
random512-30-0.map,random512-30-0.map.scen,4,BFS,1.0,450,True,199.0000,181.66904755,29991,39.3971,9.54
random512-30-0.map,random512-30-0.map.scen,4,BFS,1.0,451,True,202.0000,182.08326111,45172,59.7889,10.94
random512-30-0.map,random512-30-0.map.scen,4,BFS,1.0,452,True,215.0000,183.95331879,50965,69.4691,16.88
random512-30-0.map,random512-30-0.map.scen,4,BFS,1.0,453,True,201.0000,180.49747467,29451,37.9415,11.36
random512-30-0.map,random512-30-0.map.scen,4,BFS,1.0,454,True,198.0000,180.32590179,38810,51.5380,9.80
random512-30-0.map,random512-30-0.map.scen,4,BFS,1.0,455,True,200.0000,180.91168823,43979,61.5751,10.55
random512-30-0.map,random512-30-0.map.scen,4,BFS,1.0,456,True,211.0000,181.12489166,48731,63.3328,16.49
random512-30-0.map,random512-30-0.map.scen,4,BFS,1.0,457,True,207.0000,182.3969696,48376,66.3248,13.49
random512-30-0.map,random512-30-0.map.scen,4,BFS,1.0,458,True,210.0000,183.05382385,49156,62.0911,14.72
random512-30-0.map,random512-30-0.map.scen,4,BFS,1.0,459,True,199.0000,181.42640686,22911,28.6014,9.69
random512-30-0.map,random512-30-0.map.scen,4,BFS,1.0,460,True,210.0000,184.46803741,25024,31.2877,13.84
random512-30-0.map,random512-30-0.map.scen,4,BFS,1.0,461,True,210.0000,185.29646454,35085,43.7763,13.33
random512-30-0.map,random512-30-0.map.scen,4,BFS,1.0,462,True,209.0000,184.3969696,27749,34.2305,13.34
random512-30-0.map,random512-30-0.map.scen,4,BFS,1.0,463,True,215.0000,186.29646454,49554,63.6555,15.41
random512-30-0.map,random512-30-0.map.scen,4,BFS,1.0,464,True,204.0000,184.32590179,46993,60.0046,10.67
random512-30-0.map,random512-30-0.map.scen,4,BFS,1.0,465,True,201.0000,184.84062042,44510,56.6140,8.74
random512-30-0.map,random512-30-0.map.scen,4,BFS,1.0,466,True,209.0000,186.98275604,41364,51.5574,11.78
random512-30-0.map,random512-30-0.map.scen,4,BFS,1.0,467,True,216.0000,187.53910522,37013,45.5663,15.18
random512-30-0.map,random512-30-0.map.scen,4,BFS,1.0,468,True,206.0000,185.15432892,47000,61.0713,11.26
random512-30-0.map,random512-30-0.map.scen,4,BFS,1.0,469,True,207.0000,186.49747467,29718,35.9667,10.99
random512-30-0.map,random512-30-0.map.scen,4,BFS,1.0,470,True,213.0000,189.56854248,41856,55.5306,12.36
random512-30-0.map,random512-30-0.map.scen,4,BFS,1.0,471,True,212.0000,190.56854248,47075,59.6159,11.25
random512-30-0.map,random512-30-0.map.scen,4,BFS,1.0,472,True,207.0000,190.0121933,46945,60.7752,8.94
random512-30-0.map,random512-30-0.map.scen,4,BFS,1.0,473,True,217.0000,191.22539673,42202,56.2523,13.48
random512-30-0.map,random512-30-0.map.scen,4,BFS,1.0,474,True,214.0000,188.22539673,26486,32.2293,13.69
random512-30-0.map,random512-30-0.map.scen,4,BFS,1.0,475,True,206.0000,188.42640686,45128,61.3074,9.33
random512-30-0.map,random512-30-0.map.scen,4,BFS,1.0,476,True,213.0000,189.56854248,50142,66.3705,12.36
random512-30-0.map,random512-30-0.map.scen,4,BFS,1.0,477,True,207.0000,190.25483398,36980,45.8365,8.80
random512-30-0.map,random512-30-0.map.scen,4,BFS,1.0,478,True,217.0000,191.81118317,52531,66.2430,13.13
random512-30-0.map,random512-30-0.map.scen,4,BFS,1.0,479,True,210.0000,189.3969696,25973,31.6051,10.88
random512-30-0.map,random512-30-0.map.scen,4,BFS,1.0,480,True,220.0000,195.05382385,44234,55.4633,12.79
random512-30-0.map,random512-30-0.map.scen,4,BFS,1.0,481,True,212.0000,195.74011536,24198,30.4520,8.31
random512-30-0.map,random512-30-0.map.scen,4,BFS,1.0,482,True,218.0000,193.05382385,49808,63.2132,12.92
random512-30-0.map,random512-30-0.map.scen,4,BFS,1.0,483,True,224.0000,194.12489166,35344,42.8314,15.39
random512-30-0.map,random512-30-0.map.scen,4,BFS,1.0,484,True,217.0000,193.56854248,52202,65.7637,12.10
random512-30-0.map,random512-30-0.map.scen,4,BFS,1.0,485,True,217.0000,192.98275604,32840,40.1858,12.45
random512-30-0.map,random512-30-0.map.scen,4,BFS,1.0,486,True,213.0000,195.42640686,35099,44.2172,8.99
random512-30-0.map,random512-30-0.map.scen,4,BFS,1.0,487,True,220.0000,194.46803741,35018,42.5841,13.13
random512-30-0.map,random512-30-0.map.scen,4,BFS,1.0,488,True,222.0000,193.29646454,55384,68.6387,14.85
random512-30-0.map,random512-30-0.map.scen,4,BFS,1.0,489,True,220.0000,195.63961029,53450,66.0329,12.45
random512-30-0.map,random512-30-0.map.scen,4,BFS,1.0,490,True,221.0000,196.98275604,40169,48.7648,12.19
random512-30-0.map,random512-30-0.map.scen,4,BFS,1.0,491,True,213.0000,198.25483398,38276,47.0636,7.44
random512-30-0.map,random512-30-0.map.scen,4,BFS,1.0,492,True,224.0000,199.3969696,36212,44.0783,12.34
random512-30-0.map,random512-30-0.map.scen,4,BFS,1.0,493,True,226.0000,198.46803741,55767,71.9846,13.87
random512-30-0.map,random512-30-0.map.scen,4,BFS,1.0,494,True,225.0000,197.61017303,50216,62.9233,13.86
random512-30-0.map,random512-30-0.map.scen,4,BFS,1.0,495,True,225.0000,199.46803741,49458,61.1375,12.80
random512-30-0.map,random512-30-0.map.scen,4,BFS,1.0,496,True,223.0000,198.3969696,53895,69.0565,12.40
random512-30-0.map,random512-30-0.map.scen,4,BFS,1.0,497,True,222.0000,198.56854248,40227,47.8104,11.80
random512-30-0.map,random512-30-0.map.scen,4,BFS,1.0,498,True,229.0000,199.7106781,33835,41.8578,14.67
random512-30-0.map,random512-30-0.map.scen,4,BFS,1.0,499,True,223.0000,196.88225098,53163,66.4676,13.27
random512-30-0.map,random512-30-0.map.scen,4,BFS,1.0,500,True,222.0000,202.66904755,47572,59.5464,9.54
random512-30-0.map,random512-30-0.map.scen,4,BFS,1.0,501,True,225.0000,203.91168823,30999,39.9037,10.34
random512-30-0.map,random512-30-0.map.scen,4,BFS,1.0,502,True,227.0000,203.56854248,47928,60.7409,11.51
random512-30-0.map,random512-30-0.map.scen,4,BFS,1.0,503,True,224.0000,202.81118317,37159,46.2310,10.45
random512-30-0.map,random512-30-0.map.scen,4,BFS,1.0,504,True,226.0000,202.22539673,47182,59.8883,11.76
random512-30-0.map,random512-30-0.map.scen,4,BFS,1.0,505,True,219.0000,203.18376617,53272,67.1250,7.78
random512-30-0.map,random512-30-0.map.scen,4,BFS,1.0,506,True,236.0000,201.43860016,32797,42.0324,17.16
random512-30-0.map,random512-30-0.map.scen,4,BFS,1.0,507,True,230.0000,202.46803741,26075,31.9110,13.60
random512-30-0.map,random512-30-0.map.scen,4,BFS,1.0,508,True,233.0000,201.36753235,41107,49.3956,15.71
random512-30-0.map,random512-30-0.map.scen,4,BFS,1.0,509,True,222.0000,202.81118317,44854,60.2402,9.46
random512-30-0.map,random512-30-0.map.scen,4,BFS,1.0,510,True,228.0000,207.49747467,56549,74.4875,9.88
random512-30-0.map,random512-30-0.map.scen,4,BFS,1.0,511,True,222.0000,204.08326111,51187,67.3983,8.78
random512-30-0.map,random512-30-0.map.scen,4,BFS,1.0,512,True,230.0000,205.53910522,59560,72.6196,11.90
random512-30-0.map,random512-30-0.map.scen,4,BFS,1.0,513,True,226.0000,204.81118317,47242,60.2177,10.35
random512-30-0.map,random512-30-0.map.scen,4,BFS,1.0,514,True,226.0000,204.81118317,51611,68.8438,10.35
random512-30-0.map,random512-30-0.map.scen,4,BFS,1.0,515,True,228.0000,206.32590179,39900,50.0854,10.50
random512-30-0.map,random512-30-0.map.scen,4,BFS,1.0,516,True,232.0000,205.63961029,31091,43.2788,12.82
random512-30-0.map,random512-30-0.map.scen,4,BFS,1.0,517,True,234.0000,207.05382385,48729,73.7952,13.01
random512-30-0.map,random512-30-0.map.scen,4,BFS,1.0,518,True,241.0000,207.85281372,40031,51.2108,15.95
random512-30-0.map,random512-30-0.map.scen,4,BFS,1.0,519,True,226.0000,204.32590179,51115,69.1125,10.61
random512-30-0.map,random512-30-0.map.scen,4,BFS,1.0,520,True,241.0000,210.78174591,34973,43.6280,14.34
random512-30-0.map,random512-30-0.map.scen,4,BFS,1.0,521,True,244.0000,210.85281372,58517,75.3002,15.72
random512-30-0.map,random512-30-0.map.scen,4,BFS,1.0,522,True,231.0000,211.08326111,57475,74.3813,9.44
random512-30-0.map,random512-30-0.map.scen,4,BFS,1.0,523,True,237.0000,209.46803741,61355,79.1983,13.14
random512-30-0.map,random512-30-0.map.scen,4,BFS,1.0,524,True,234.0000,209.3969696,21500,27.4250,11.75
random512-30-0.map,random512-30-0.map.scen,4,BFS,1.0,525,True,237.0000,208.88225098,62444,81.3912,13.46
random512-30-0.map,random512-30-0.map.scen,4,BFS,1.0,526,True,243.0000,210.19595947,45782,59.1079,15.61
random512-30-0.map,random512-30-0.map.scen,4,BFS,1.0,527,True,232.0000,210.32590179,37164,44.8431,10.31
random512-30-0.map,random512-30-0.map.scen,4,BFS,1.0,528,True,232.0000,209.74011536,55607,71.0380,10.61
random512-30-0.map,random512-30-0.map.scen,4,BFS,1.0,529,True,232.0000,211.49747467,45329,57.4845,9.69
random512-30-0.map,random512-30-0.map.scen,4,BFS,1.0,530,True,241.0000,215.81118317,32775,40.7154,11.67
random512-30-0.map,random512-30-0.map.scen,4,BFS,1.0,531,True,236.0000,215.74011536,59249,74.1603,9.39
random512-30-0.map,random512-30-0.map.scen,4,BFS,1.0,532,True,241.0000,215.7106781,49308,61.0950,11.72
random512-30-0.map,random512-30-0.map.scen,4,BFS,1.0,533,True,241.0000,212.53910522,56753,70.1240,13.39
random512-30-0.map,random512-30-0.map.scen,4,BFS,1.0,534,True,236.0000,214.32590179,36671,44.1440,10.11
random512-30-0.map,random512-30-0.map.scen,4,BFS,1.0,535,True,248.0000,212.26702728,52132,68.6674,16.83
random512-30-0.map,random512-30-0.map.scen,4,BFS,1.0,536,True,237.0000,212.29646454,38345,48.7783,11.64
random512-30-0.map,random512-30-0.map.scen,4,BFS,1.0,537,True,234.0000,213.74011536,57713,75.5304,9.48
random512-30-0.map,random512-30-0.map.scen,4,BFS,1.0,538,True,237.0000,215.91168823,46789,61.2286,9.77
random512-30-0.map,random512-30-0.map.scen,4,BFS,1.0,539,True,232.0000,212.91168823,48252,62.8342,8.97
random512-30-0.map,random512-30-0.map.scen,4,BFS,1.0,540,True,249.0000,219.12489166,64239,81.5643,13.63
random512-30-0.map,random512-30-0.map.scen,4,BFS,1.0,541,True,244.0000,219.98275604,65781,81.2803,10.92
random512-30-0.map,random512-30-0.map.scen,4,BFS,1.0,542,True,249.0000,218.53910522,69049,85.8325,13.94
random512-30-0.map,random512-30-0.map.scen,4,BFS,1.0,543,True,253.0000,218.43860016,42353,53.2953,15.82
random512-30-0.map,random512-30-0.map.scen,4,BFS,1.0,544,True,237.0000,217.08326111,63274,79.2378,9.17
random512-30-0.map,random512-30-0.map.scen,4,BFS,1.0,545,True,247.0000,219.7106781,64938,80.4051,12.42
random512-30-0.map,random512-30-0.map.scen,4,BFS,1.0,546,True,237.0000,217.22539673,44516,58.2388,9.10
random512-30-0.map,random512-30-0.map.scen,4,BFS,1.0,547,True,242.0000,217.29646454,46792,58.7074,11.37
random512-30-0.map,random512-30-0.map.scen,4,BFS,1.0,548,True,243.0000,219.81118317,38087,46.4972,10.55
random512-30-0.map,random512-30-0.map.scen,4,BFS,1.0,549,True,239.0000,217.32590179,65067,79.8427,9.97
random512-30-0.map,random512-30-0.map.scen,4,BFS,1.0,550,True,254.0000,222.0243866,28803,34.6377,14.40
random512-30-0.map,random512-30-0.map.scen,4,BFS,1.0,551,True,248.0000,222.81118317,56901,71.3644,11.31
random512-30-0.map,random512-30-0.map.scen,4,BFS,1.0,552,True,241.0000,223.66904755,64452,78.9492,7.75
random512-30-0.map,random512-30-0.map.scen,4,BFS,1.0,553,True,262.0000,223.92388153,39308,47.4322,17.00
random512-30-0.map,random512-30-0.map.scen,4,BFS,1.0,554,True,254.0000,223.19595947,44340,57.4335,13.80
random512-30-0.map,random512-30-0.map.scen,4,BFS,1.0,555,True,242.0000,222.46803741,55274,72.1763,8.78
random512-30-0.map,random512-30-0.map.scen,4,BFS,1.0,556,True,245.0000,220.05382385,67432,85.4012,11.34
random512-30-0.map,random512-30-0.map.scen,4,BFS,1.0,557,True,254.0000,222.36753235,68918,88.4882,14.23
random512-30-0.map,random512-30-0.map.scen,4,BFS,1.0,558,True,243.0000,220.15432892,42715,53.5155,10.38
random512-30-0.map,random512-30-0.map.scen,4,BFS,1.0,559,True,253.0000,221.36753235,28231,33.4384,14.29
random512-30-0.map,random512-30-0.map.scen,4,BFS,1.0,560,True,257.0000,225.95331879,72357,91.9626,13.74
random512-30-0.map,random512-30-0.map.scen,4,BFS,1.0,561,True,253.0000,227.22539673,36146,45.3883,11.34
random512-30-0.map,random512-30-0.map.scen,4,BFS,1.0,562,True,250.0000,225.29646454,46966,60.3217,10.96
random512-30-0.map,random512-30-0.map.scen,4,BFS,1.0,563,True,245.0000,226.74011536,54249,66.8478,8.05
random512-30-0.map,random512-30-0.map.scen,4,BFS,1.0,564,True,259.0000,227.26702728,62538,76.9790,13.96
random512-30-0.map,random512-30-0.map.scen,4,BFS,1.0,565,True,249.0000,225.81118317,68978,84.8909,10.27
random512-30-0.map,random512-30-0.map.scen,4,BFS,1.0,566,True,254.0000,224.12489166,21968,26.5830,13.33
random512-30-0.map,random512-30-0.map.scen,4,BFS,1.0,567,True,259.0000,225.26702728,53973,67.1142,14.97
random512-30-0.map,random512-30-0.map.scen,4,BFS,1.0,568,True,253.0000,224.88225098,65567,81.5166,12.50
random512-30-0.map,random512-30-0.map.scen,4,BFS,1.0,569,True,247.0000,224.74011536,40812,50.1099,9.90
random512-30-0.map,random512-30-0.map.scen,4,BFS,1.0,570,True,251.0000,228.74011536,35049,42.6796,9.73
random512-30-0.map,random512-30-0.map.scen,4,BFS,1.0,571,True,257.0000,229.7106781,54028,67.0543,11.88
random512-30-0.map,random512-30-0.map.scen,4,BFS,1.0,572,True,251.0000,230.15432892,59001,72.6283,9.06
random512-30-0.map,random512-30-0.map.scen,4,BFS,1.0,573,True,258.0000,229.29646454,58516,71.9323,12.52
random512-30-0.map,random512-30-0.map.scen,4,BFS,1.0,574,True,256.0000,228.7106781,30532,36.6457,11.93
random512-30-0.map,random512-30-0.map.scen,4,BFS,1.0,575,True,258.0000,230.46803741,60550,74.5441,11.95
random512-30-0.map,random512-30-0.map.scen,4,BFS,1.0,576,True,263.0000,231.36753235,77875,95.3315,13.67
random512-30-0.map,random512-30-0.map.scen,4,BFS,1.0,577,True,250.0000,230.08326111,66259,80.8411,8.66
random512-30-0.map,random512-30-0.map.scen,4,BFS,1.0,578,True,256.0000,230.7106781,67608,82.7000,10.96
random512-30-0.map,random512-30-0.map.scen,4,BFS,1.0,579,True,257.0000,229.7106781,42333,55.2156,11.88
random512-30-0.map,random512-30-0.map.scen,4,BFS,1.0,580,True,263.0000,235.7106781,52969,65.8215,11.58
random512-30-0.map,random512-30-0.map.scen,4,BFS,1.0,581,True,261.0000,235.22539673,66381,81.2473,10.96
random512-30-0.map,random512-30-0.map.scen,4,BFS,1.0,582,True,253.0000,234.84062042,39341,49.9299,7.73
random512-30-0.map,random512-30-0.map.scen,4,BFS,1.0,583,True,259.0000,233.22539673,64280,80.2260,11.05
