MapName,Scenario,Connectivity,Algorithm,Weight,TaskID,Success,PathLength,OptimalLength,ExpandedNodes,TimeMS,Suboptimality
random512-10-0.map,random512-10-0.map.scen,4,BFS,1.0,0,True,3.0000,2.41421356,20,0.0443,24.26
random512-10-0.map,random512-10-0.map.scen,4,Dijkstra,1.0,0,True,3.0000,2.41421356,18,0.0421,24.26
random512-10-0.map,random512-10-0.map.scen,4,A* (Manhattan),1.0,0,True,3.0000,2.41421356,6,0.0148,24.26
random512-10-0.map,random512-10-0.map.scen,4,A* (Euclid),1.0,0,True,3.0000,2.41421356,6,0.0146,24.26
random512-10-0.map,random512-10-0.map.scen,4,A* (Octile),1.0,0,True,3.0000,2.41421356,6,0.0141,24.26
random512-10-0.map,random512-10-0.map.scen,4,WA* (x1.5),1.5,0,True,3.0000,2.41421356,4,0.0107,24.26
random512-10-0.map,random512-10-0.map.scen,4,WA* (x2.0),2.0,0,True,3.0000,2.41421356,4,0.0101,24.26
random512-10-0.map,random512-10-0.map.scen,8,BFS,1.0,0,True,2.0000,2.41421356,17,0.0321,-17.16
random512-10-0.map,random512-10-0.map.scen,8,Dijkstra,1.0,0,True,2.4142,2.41421356,17,0.0468,0.00
random512-10-0.map,random512-10-0.map.scen,8,A* (Manhattan),1.0,0,True,2.4142,2.41421356,3,0.0123,0.00
random512-10-0.map,random512-10-0.map.scen,8,A* (Euclid),1.0,0,True,2.4142,2.41421356,4,0.0153,0.00
random512-10-0.map,random512-10-0.map.scen,8,A* (Octile),1.0,0,True,2.4142,2.41421356,4,0.0156,0.00
random512-10-0.map,random512-10-0.map.scen,8,WA* (x1.5),1.5,0,True,2.4142,2.41421356,3,0.0122,0.00
random512-10-0.map,random512-10-0.map.scen,8,WA* (x2.0),2.0,0,True,2.4142,2.41421356,3,0.0121,0.00
random512-10-0.map,random512-10-0.map.scen,4,BFS,1.0,17,True,8.0000,6.82842712,126,0.1706,17.16
random512-10-0.map,random512-10-0.map.scen,4,Dijkstra,1.0,17,True,8.0000,6.82842712,121,0.2576,17.16
random512-10-0.map,random512-10-0.map.scen,4,A* (Manhattan),1.0,17,True,8.0000,6.82842712,19,0.0435,17.16
random512-10-0.map,random512-10-0.map.scen,4,A* (Euclid),1.0,17,True,8.0000,6.82842712,22,0.0502,17.16
random512-10-0.map,random512-10-0.map.scen,4,A* (Octile),1.0,17,True,8.0000,6.82842712,18,0.0434,17.16
random512-10-0.map,random512-10-0.map.scen,4,WA* (x1.5),1.5,17,True,8.0000,6.82842712,9,0.0241,17.16
random512-10-0.map,random512-10-0.map.scen,4,WA* (x2.0),2.0,17,True,8.0000,6.82842712,9,0.0241,17.16
random512-10-0.map,random512-10-0.map.scen,8,BFS,1.0,17,True,6.0000,6.82842712,125,0.2360,-12.13
random512-10-0.map,random512-10-0.map.scen,8,Dijkstra,1.0,17,True,6.8284,6.82842712,112,0.3569,0.00
random512-10-0.map,random512-10-0.map.scen,8,A* (Manhattan),1.0,17,True,6.8284,6.82842712,7,0.0266,0.00
random512-10-0.map,random512-10-0.map.scen,8,A* (Euclid),1.0,17,True,6.8284,6.82842712,13,0.0430,0.00
random512-10-0.map,random512-10-0.map.scen,8,A* (Octile),1.0,17,True,6.8284,6.82842712,13,0.0411,0.00
random512-10-0.map,random512-10-0.map.scen,8,WA* (x1.5),1.5,17,True,6.8284,6.82842712,7,0.0258,0.00
random512-10-0.map,random512-10-0.map.scen,8,WA* (x2.0),2.0,17,True,6.8284,6.82842712,7,0.0252,0.00
random512-10-0.map,random512-10-0.map.scen,4,BFS,1.0,35,True,21.0000,15.14213562,749,0.8799,38.69
random512-10-0.map,random512-10-0.map.scen,4,Dijkstra,1.0,35,True,21.0000,15.14213562,753,1.6285,38.69
random512-10-0.map,random512-10-0.map.scen,4,A* (Manhattan),1.0,35,True,21.0000,15.14213562,93,0.2349,38.69
random512-10-0.map,random512-10-0.map.scen,4,A* (Euclid),1.0,35,True,21.0000,15.14213562,143,0.3252,38.69
random512-10-0.map,random512-10-0.map.scen,4,A* (Octile),1.0,35,True,21.0000,15.14213562,123,0.2799,38.69
random512-10-0.map,random512-10-0.map.scen,4,WA* (x1.5),1.5,35,True,21.0000,15.14213562,22,0.0547,38.69
random512-10-0.map,random512-10-0.map.scen,4,WA* (x2.0),2.0,35,True,21.0000,15.14213562,22,0.0591,38.69
random512-10-0.map,random512-10-0.map.scen,8,BFS,1.0,35,True,11.0000,15.14213562,373,0.5851,-27.36
random512-10-0.map,random512-10-0.map.scen,8,Dijkstra,1.0,35,True,15.1421,15.14213562,586,1.6339,0.00
random512-10-0.map,random512-10-0.map.scen,8,A* (Manhattan),1.0,35,True,15.1421,15.14213562,12,0.0648,0.00
random512-10-0.map,random512-10-0.map.scen,8,A* (Euclid),1.0,35,True,15.1421,15.14213562,22,0.0835,0.00
random512-10-0.map,random512-10-0.map.scen,8,A* (Octile),1.0,35,True,15.1421,15.14213562,19,0.0790,0.00
random512-10-0.map,random512-10-0.map.scen,8,WA* (x1.5),1.5,35,True,15.1421,15.14213562,12,0.0551,0.00
random512-10-0.map,random512-10-0.map.scen,8,WA* (x2.0),2.0,35,True,15.1421,15.14213562,12,0.0540,0.00
random512-10-0.map,random512-10-0.map.scen,4,BFS,1.0,53,True,28.0000,21.55634918,1277,1.4477,29.89
random512-10-0.map,random512-10-0.map.scen,4,Dijkstra,1.0,53,True,28.0000,21.55634918,1299,2.4858,29.89
random512-10-0.map,random512-10-0.map.scen,4,A* (Manhattan),1.0,53,True,28.0000,21.55634918,138,0.3558,29.89
random512-10-0.map,random512-10-0.map.scen,4,A* (Euclid),1.0,53,True,28.0000,21.55634918,234,0.5529,29.89
random512-10-0.map,random512-10-0.map.scen,4,A* (Octile),1.0,53,True,28.0000,21.55634918,220,0.5382,29.89
random512-10-0.map,random512-10-0.map.scen,4,WA* (x1.5),1.5,53,True,28.0000,21.55634918,29,0.0731,29.89
random512-10-0.map,random512-10-0.map.scen,4,WA* (x2.0),2.0,53,True,28.0000,21.55634918,29,0.0768,29.89
random512-10-0.map,random512-10-0.map.scen,8,BFS,1.0,53,True,17.0000,21.55634918,908,1.3414,-21.14
random512-10-0.map,random512-10-0.map.scen,8,Dijkstra,1.0,53,True,21.5563,21.55634918,1148,3.2555,0.00
random512-10-0.map,random512-10-0.map.scen,8,A* (Manhattan),1.0,53,True,23.3137,21.55634918,24,0.1102,8.15
random512-10-0.map,random512-10-0.map.scen,8,A* (Euclid),1.0,53,True,21.5563,21.55634918,51,0.1629,0.00
random512-10-0.map,random512-10-0.map.scen,8,A* (Octile),1.0,53,True,21.5563,21.55634918,40,0.1312,0.00
random512-10-0.map,random512-10-0.map.scen,8,WA* (x1.5),1.5,53,True,21.5563,21.55634918,18,0.0853,0.00
random512-10-0.map,random512-10-0.map.scen,8,WA* (x2.0),2.0,53,True,21.5563,21.55634918,18,0.0794,0.00
random512-10-0.map,random512-10-0.map.scen,4,BFS,1.0,71,True,34.0000,28.72792206,2110,2.2802,18.35
random512-10-0.map,random512-10-0.map.scen,4,Dijkstra,1.0,71,True,34.0000,28.72792206,2026,3.8337,18.35
random512-10-0.map,random512-10-0.map.scen,4,A* (Manhattan),1.0,71,True,34.0000,28.72792206,133,0.3509,18.35
random512-10-0.map,random512-10-0.map.scen,4,A* (Euclid),1.0,71,True,34.0000,28.72792206,297,0.6491,18.35
random512-10-0.map,random512-10-0.map.scen,4,A* (Octile),1.0,71,True,34.0000,28.72792206,291,0.6702,18.35
random512-10-0.map,random512-10-0.map.scen,4,WA* (x1.5),1.5,71,True,34.0000,28.72792206,35,0.1011,18.35
random512-10-0.map,random512-10-0.map.scen,4,WA* (x2.0),2.0,71,True,34.0000,28.72792206,35,0.0980,18.35
random512-10-0.map,random512-10-0.map.scen,8,BFS,1.0,71,True,25.0000,28.72792206,2060,2.9156,-12.98
random512-10-0.map,random512-10-0.map.scen,8,Dijkstra,1.0,71,True,28.7279,28.72792206,2099,6.0284,0.00
random512-10-0.map,random512-10-0.map.scen,8,A* (Manhattan),1.0,71,True,28.7279,28.72792206,32,0.1571,0.00
random512-10-0.map,random512-10-0.map.scen,8,A* (Euclid),1.0,71,True,28.7279,28.72792206,168,0.6339,0.00
random512-10-0.map,random512-10-0.map.scen,8,A* (Octile),1.0,71,True,28.7279,28.72792206,119,0.4784,0.00
random512-10-0.map,random512-10-0.map.scen,8,WA* (x1.5),1.5,71,True,29.5563,28.72792206,28,0.1230,2.88
random512-10-0.map,random512-10-0.map.scen,8,WA* (x2.0),2.0,71,True,29.5563,28.72792206,28,0.1125,2.88
random512-10-0.map,random512-10-0.map.scen,4,BFS,1.0,89,True,46.0000,35.45584412,3736,4.4004,29.74
random512-10-0.map,random512-10-0.map.scen,4,Dijkstra,1.0,89,True,46.0000,35.45584412,3615,6.5597,29.74
random512-10-0.map,random512-10-0.map.scen,4,A* (Manhattan),1.0,89,True,46.0000,35.45584412,299,0.6501,29.74
random512-10-0.map,random512-10-0.map.scen,4,A* (Euclid),1.0,89,True,46.0000,35.45584412,670,1.3046,29.74
random512-10-0.map,random512-10-0.map.scen,4,A* (Octile),1.0,89,True,46.0000,35.45584412,601,1.2146,29.74
random512-10-0.map,random512-10-0.map.scen,4,WA* (x1.5),1.5,89,True,46.0000,35.45584412,52,0.1329,29.74
random512-10-0.map,random512-10-0.map.scen,4,WA* (x2.0),2.0,89,True,46.0000,35.45584412,49,0.1142,29.74
random512-10-0.map,random512-10-0.map.scen,8,BFS,1.0,89,True,28.0000,35.45584412,2626,3.5185,-21.03
random512-10-0.map,random512-10-0.map.scen,8,Dijkstra,1.0,89,True,35.4558,35.45584412,3116,7.8872,0.00
random512-10-0.map,random512-10-0.map.scen,8,A* (Manhattan),1.0,89,True,35.4558,35.45584412,32,0.1209,0.00
random512-10-0.map,random512-10-0.map.scen,8,A* (Euclid),1.0,89,True,35.4558,35.45584412,203,0.7195,0.00
random512-10-0.map,random512-10-0.map.scen,8,A* (Octile),1.0,89,True,35.4558,35.45584412,135,0.4509,0.00
random512-10-0.map,random512-10-0.map.scen,8,WA* (x1.5),1.5,89,True,35.4558,35.45584412,35,0.1359,0.00
random512-10-0.map,random512-10-0.map.scen,8,WA* (x2.0),2.0,89,True,35.4558,35.45584412,31,0.1247,0.00
random512-10-0.map,random512-10-0.map.scen,4,BFS,1.0,106,True,45.0000,40.3137085,3527,3.6934,11.62
random512-10-0.map,random512-10-0.map.scen,4,Dijkstra,1.0,106,True,45.0000,40.3137085,3582,6.9341,11.62
random512-10-0.map,random512-10-0.map.scen,4,A* (Manhattan),1.0,106,True,45.0000,40.3137085,175,0.4238,11.62
random512-10-0.map,random512-10-0.map.scen,4,A* (Euclid),1.0,106,True,45.0000,40.3137085,389,0.8832,11.62
random512-10-0.map,random512-10-0.map.scen,4,A* (Octile),1.0,106,True,45.0000,40.3137085,344,0.8102,11.62
random512-10-0.map,random512-10-0.map.scen,4,WA* (x1.5),1.5,106,True,45.0000,40.3137085,46,0.1459,11.62
random512-10-0.map,random512-10-0.map.scen,4,WA* (x2.0),2.0,106,True,45.0000,40.3137085,46,0.1377,11.62
random512-10-0.map,random512-10-0.map.scen,8,BFS,1.0,106,True,37.0000,40.3137085,4607,6.7821,-8.22
random512-10-0.map,random512-10-0.map.scen,8,Dijkstra,1.0,106,True,40.3137,40.3137085,4045,11.3817,-0.00
random512-10-0.map,random512-10-0.map.scen,8,A* (Manhattan),1.0,106,True,41.7279,40.3137085,65,0.3249,3.51
random512-10-0.map,random512-10-0.map.scen,8,A* (Euclid),1.0,106,True,40.3137,40.3137085,229,0.7949,-0.00
random512-10-0.map,random512-10-0.map.scen,8,A* (Octile),1.0,106,True,40.3137,40.3137085,93,0.3370,-0.00
random512-10-0.map,random512-10-0.map.scen,8,WA* (x1.5),1.5,106,True,41.7279,40.3137085,45,0.1877,3.51
random512-10-0.map,random512-10-0.map.scen,8,WA* (x2.0),2.0,106,True,43.3848,40.3137085,42,0.1872,7.62
random512-10-0.map,random512-10-0.map.scen,4,BFS,1.0,124,True,56.0000,49.55634918,5472,6.4401,13.00
random512-10-0.map,random512-10-0.map.scen,4,Dijkstra,1.0,124,True,56.0000,49.55634918,5590,12.6006,13.00
random512-10-0.map,random512-10-0.map.scen,4,A* (Manhattan),1.0,124,True,56.0000,49.55634918,334,0.8772,13.00
random512-10-0.map,random512-10-0.map.scen,4,A* (Euclid),1.0,124,True,56.0000,49.55634918,665,1.4656,13.00
random512-10-0.map,random512-10-0.map.scen,4,A* (Octile),1.0,124,True,56.0000,49.55634918,591,1.4011,13.00
random512-10-0.map,random512-10-0.map.scen,4,WA* (x1.5),1.5,124,True,56.0000,49.55634918,58,0.2007,13.00
random512-10-0.map,random512-10-0.map.scen,4,WA* (x2.0),2.0,124,True,56.0000,49.55634918,58,0.1930,13.00
random512-10-0.map,random512-10-0.map.scen,8,BFS,1.0,124,True,45.0000,49.55634918,6569,9.4904,-9.19
random512-10-0.map,random512-10-0.map.scen,8,Dijkstra,1.0,124,True,49.5563,49.55634918,6109,18.1428,0.00
random512-10-0.map,random512-10-0.map.scen,8,A* (Manhattan),1.0,124,True,51.5563,49.55634918,96,0.3940,4.04
random512-10-0.map,random512-10-0.map.scen,8,A* (Euclid),1.0,124,True,49.5563,49.55634918,447,1.5681,0.00
random512-10-0.map,random512-10-0.map.scen,8,A* (Octile),1.0,124,True,49.5563,49.55634918,103,0.4243,0.00
random512-10-0.map,random512-10-0.map.scen,8,WA* (x1.5),1.5,124,True,51.7990,49.55634918,50,0.2191,4.53
random512-10-0.map,random512-10-0.map.scen,8,WA* (x2.0),2.0,124,True,52.3848,49.55634918,50,0.2034,5.71
random512-10-0.map,random512-10-0.map.scen,4,BFS,1.0,142,True,78.0000,59.84062042,10790,12.3373,30.35
random512-10-0.map,random512-10-0.map.scen,4,Dijkstra,1.0,142,True,78.0000,59.84062042,10620,21.1097,30.35
random512-10-0.map,random512-10-0.map.scen,4,A* (Manhattan),1.0,142,True,78.0000,59.84062042,629,1.4444,30.35
random512-10-0.map,random512-10-0.map.scen,4,A* (Euclid),1.0,142,True,78.0000,59.84062042,1903,3.8446,30.35
random512-10-0.map,random512-10-0.map.scen,4,A* (Octile),1.0,142,True,78.0000,59.84062042,1778,3.7662,30.35
random512-10-0.map,random512-10-0.map.scen,4,WA* (x1.5),1.5,142,True,78.0000,59.84062042,87,0.2698,30.35
random512-10-0.map,random512-10-0.map.scen,4,WA* (x2.0),2.0,142,True,78.0000,59.84062042,81,0.2255,30.35
random512-10-0.map,random512-10-0.map.scen,8,BFS,1.0,142,True,47.0000,59.84062042,7495,10.6834,-21.46
random512-10-0.map,random512-10-0.map.scen,8,Dijkstra,1.0,142,True,59.8406,59.84062042,8948,23.9829,0.00
random512-10-0.map,random512-10-0.map.scen,8,A* (Manhattan),1.0,142,True,62.7696,59.84062042,56,0.2538,4.89
random512-10-0.map,random512-10-0.map.scen,8,A* (Euclid),1.0,142,True,59.8406,59.84062042,550,1.9380,0.00
random512-10-0.map,random512-10-0.map.scen,8,A* (Octile),1.0,142,True,59.8406,59.84062042,278,1.0613,0.00
random512-10-0.map,random512-10-0.map.scen,8,WA* (x1.5),1.5,142,True,59.8406,59.84062042,53,0.2391,0.00
random512-10-0.map,random512-10-0.map.scen,8,WA* (x2.0),2.0,142,True,61.5980,59.84062042,51,0.2310,2.94
random512-10-0.map,random512-10-0.map.scen,4,BFS,1.0,160,True,69.0000,64.3137085,8401,9.1778,7.29
random512-10-0.map,random512-10-0.map.scen,4,Dijkstra,1.0,160,True,69.0000,64.3137085,8519,16.5539,7.29
random512-10-0.map,random512-10-0.map.scen,4,A* (Manhattan),1.0,160,True,69.0000,64.3137085,364,0.8478,7.29
random512-10-0.map,random512-10-0.map.scen,4,A* (Euclid),1.0,160,True,69.0000,64.3137085,678,1.5169,7.29
random512-10-0.map,random512-10-0.map.scen,4,A* (Octile),1.0,160,True,69.0000,64.3137085,608,1.4108,7.29
random512-10-0.map,random512-10-0.map.scen,4,WA* (x1.5),1.5,160,True,69.0000,64.3137085,70,0.2402,7.29
random512-10-0.map,random512-10-0.map.scen,4,WA* (x2.0),2.0,160,True,69.0000,64.3137085,70,0.2227,7.29
random512-10-0.map,random512-10-0.map.scen,8,BFS,1.0,160,True,61.0000,64.3137085,12539,18.0548,-5.15
random512-10-0.map,random512-10-0.map.scen,8,Dijkstra,1.0,160,True,64.3137,64.3137085,10352,28.1020,-0.00
random512-10-0.map,random512-10-0.map.scen,8,A* (Manhattan),1.0,160,True,65.7279,64.3137085,214,0.7391,2.20
random512-10-0.map,random512-10-0.map.scen,8,A* (Euclid),1.0,160,True,64.3137,64.3137085,510,1.5529,-0.00
random512-10-0.map,random512-10-0.map.scen,8,A* (Octile),1.0,160,True,64.3137,64.3137085,258,0.9290,-0.00
random512-10-0.map,random512-10-0.map.scen,8,WA* (x1.5),1.5,160,True,67.3848,64.3137085,67,0.2687,4.78
random512-10-0.map,random512-10-0.map.scen,8,WA* (x2.0),2.0,160,True,67.3848,64.3137085,65,0.2725,4.78
random512-10-0.map,random512-10-0.map.scen,4,BFS,1.0,178,True,90.0000,71.25483398,10386,11.4189,26.31
random512-10-0.map,random512-10-0.map.scen,4,Dijkstra,1.0,178,True,90.0000,71.25483398,10413,20.3398,26.31
random512-10-0.map,random512-10-0.map.scen,4,A* (Manhattan),1.0,178,True,90.0000,71.25483398,1725,3.8481,26.31
random512-10-0.map,random512-10-0.map.scen,4,A* (Euclid),1.0,178,True,90.0000,71.25483398,2573,5.3665,26.31
random512-10-0.map,random512-10-0.map.scen,4,A* (Octile),1.0,178,True,90.0000,71.25483398,2418,5.0531,26.31
random512-10-0.map,random512-10-0.map.scen,4,WA* (x1.5),1.5,178,True,90.0000,71.25483398,165,0.5119,26.31
random512-10-0.map,random512-10-0.map.scen,4,WA* (x2.0),2.0,178,True,90.0000,71.25483398,104,0.2960,26.31
random512-10-0.map,random512-10-0.map.scen,8,BFS,1.0,178,True,58.0000,71.25483398,8046,11.0991,-18.60
random512-10-0.map,random512-10-0.map.scen,8,Dijkstra,1.0,178,True,71.2548,71.25483398,9171,23.9815,0.00
random512-10-0.map,random512-10-0.map.scen,8,A* (Manhattan),1.0,178,True,73.0122,71.25483398,214,0.7521,2.47
random512-10-0.map,random512-10-0.map.scen,8,A* (Euclid),1.0,178,True,71.2548,71.25483398,1284,4.1601,0.00
random512-10-0.map,random512-10-0.map.scen,8,A* (Octile),1.0,178,True,71.2548,71.25483398,996,3.0581,0.00
random512-10-0.map,random512-10-0.map.scen,8,WA* (x1.5),1.5,178,True,74.4264,71.25483398,94,0.3848,4.45
random512-10-0.map,random512-10-0.map.scen,8,WA* (x2.0),2.0,178,True,75.4975,71.25483398,73,0.3082,5.95
random512-10-0.map,random512-10-0.map.scen,4,BFS,1.0,195,True,95.0000,78.0121933,10126,11.3859,21.78
random512-10-0.map,random512-10-0.map.scen,4,Dijkstra,1.0,195,True,95.0000,78.0121933,10044,19.1214,21.78
random512-10-0.map,random512-10-0.map.scen,4,A* (Manhattan),1.0,195,True,95.0000,78.0121933,945,2.2572,21.78
random512-10-0.map,random512-10-0.map.scen,4,A* (Euclid),1.0,195,True,95.0000,78.0121933,2452,5.0449,21.78
random512-10-0.map,random512-10-0.map.scen,4,A* (Octile),1.0,195,True,95.0000,78.0121933,2254,4.9144,21.78
random512-10-0.map,random512-10-0.map.scen,4,WA* (x1.5),1.5,195,True,95.0000,78.0121933,100,0.3194,21.78
random512-10-0.map,random512-10-0.map.scen,4,WA* (x2.0),2.0,195,True,95.0000,78.0121933,98,0.2796,21.78
random512-10-0.map,random512-10-0.map.scen,8,BFS,1.0,195,True,66.0000,78.0121933,9052,12.5238,-15.40
random512-10-0.map,random512-10-0.map.scen,8,Dijkstra,1.0,195,True,78.0122,78.0121933,9439,24.4845,0.00
random512-10-0.map,random512-10-0.map.scen,8,A* (Manhattan),1.0,195,True,82.3553,78.0121933,117,0.4370,5.57
random512-10-0.map,random512-10-0.map.scen,8,A* (Euclid),1.0,195,True,78.0122,78.0121933,994,3.1225,0.00
random512-10-0.map,random512-10-0.map.scen,8,A* (Octile),1.0,195,True,78.0122,78.0121933,223,0.7741,0.00
random512-10-0.map,random512-10-0.map.scen,8,WA* (x1.5),1.5,195,True,81.0833,78.0121933,79,0.3369,3.94
random512-10-0.map,random512-10-0.map.scen,8,WA* (x2.0),2.0,195,True,84.4975,78.0121933,77,0.3188,8.31
random512-10-0.map,random512-10-0.map.scen,4,BFS,1.0,213,True,91.0000,86.3137085,13563,14.6160,5.43
random512-10-0.map,random512-10-0.map.scen,4,Dijkstra,1.0,213,True,91.0000,86.3137085,13559,28.2035,5.43
random512-10-0.map,random512-10-0.map.scen,4,A* (Manhattan),1.0,213,True,91.0000,86.3137085,564,1.2525,5.43
random512-10-0.map,random512-10-0.map.scen,4,A* (Euclid),1.0,213,True,91.0000,86.3137085,998,3.3254,5.43
random512-10-0.map,random512-10-0.map.scen,4,A* (Octile),1.0,213,True,91.0000,86.3137085,749,2.8762,5.43
random512-10-0.map,random512-10-0.map.scen,4,WA* (x1.5),1.5,213,True,93.0000,86.3137085,100,0.4482,7.75
random512-10-0.map,random512-10-0.map.scen,4,WA* (x2.0),2.0,213,True,93.0000,86.3137085,102,0.4961,7.75
random512-10-0.map,random512-10-0.map.scen,8,BFS,1.0,213,True,82.0000,86.3137085,19214,28.8357,-5.00
random512-10-0.map,random512-10-0.map.scen,8,Dijkstra,1.0,213,True,86.3137,86.3137085,16472,43.3795,-0.00
random512-10-0.map,random512-10-0.map.scen,8,A* (Manhattan),1.0,213,True,86.3137,86.3137085,347,1.1056,-0.00
random512-10-0.map,random512-10-0.map.scen,8,A* (Euclid),1.0,213,True,86.3137,86.3137085,956,3.0084,-0.00
random512-10-0.map,random512-10-0.map.scen,8,A* (Octile),1.0,213,True,86.3137,86.3137085,589,1.9657,-0.00
random512-10-0.map,random512-10-0.map.scen,8,WA* (x1.5),1.5,213,True,89.6274,86.3137085,101,0.4080,3.84
random512-10-0.map,random512-10-0.map.scen,8,WA* (x2.0),2.0,213,True,91.8701,86.3137085,96,0.4149,6.44
random512-10-0.map,random512-10-0.map.scen,4,BFS,1.0,231,True,100.0000,94.72792206,17019,19.8562,5.57
random512-10-0.map,random512-10-0.map.scen,4,Dijkstra,1.0,231,True,100.0000,94.72792206,17015,33.8088,5.57
random512-10-0.map,random512-10-0.map.scen,4,A* (Manhattan),1.0,231,True,100.0000,94.72792206,458,1.0524,5.57
random512-10-0.map,random512-10-0.map.scen,4,A* (Euclid),1.0,231,True,100.0000,94.72792206,1211,2.7552,5.57
random512-10-0.map,random512-10-0.map.scen,4,A* (Octile),1.0,231,True,100.0000,94.72792206,920,2.2013,5.57
random512-10-0.map,random512-10-0.map.scen,4,WA* (x1.5),1.5,231,True,100.0000,94.72792206,105,0.3500,5.57
random512-10-0.map,random512-10-0.map.scen,4,WA* (x2.0),2.0,231,True,100.0000,94.72792206,104,0.3202,5.57
random512-10-0.map,random512-10-0.map.scen,8,BFS,1.0,231,True,91.0000,94.72792206,25844,39.5307,-3.94
random512-10-0.map,random512-10-0.map.scen,8,Dijkstra,1.0,231,True,94.7279,94.72792206,21436,57.4722,0.00
random512-10-0.map,random512-10-0.map.scen,8,A* (Manhattan),1.0,231,True,94.7279,94.72792206,543,1.7537,0.00
random512-10-0.map,random512-10-0.map.scen,8,A* (Euclid),1.0,231,True,94.7279,94.72792206,1077,3.6002,0.00
random512-10-0.map,random512-10-0.map.scen,8,A* (Octile),1.0,231,True,94.7279,94.72792206,665,2.2759,0.00
random512-10-0.map,random512-10-0.map.scen,8,WA* (x1.5),1.5,231,True,101.2132,94.72792206,111,0.4251,6.85
random512-10-0.map,random512-10-0.map.scen,8,WA* (x2.0),2.0,231,True,102.0416,94.72792206,106,0.4105,7.72
random512-10-0.map,random512-10-0.map.scen,4,BFS,1.0,249,True,107.0000,99.97056274,20225,21.5404,7.03
random512-10-0.map,random512-10-0.map.scen,4,Dijkstra,1.0,249,True,107.0000,99.97056274,20401,39.7463,7.03
random512-10-0.map,random512-10-0.map.scen,4,A* (Manhattan),1.0,249,True,107.0000,99.97056274,838,2.0380,7.03
random512-10-0.map,random512-10-0.map.scen,4,A* (Euclid),1.0,249,True,107.0000,99.97056274,1583,3.5311,7.03
random512-10-0.map,random512-10-0.map.scen,4,A* (Octile),1.0,249,True,107.0000,99.97056274,1256,3.0244,7.03
random512-10-0.map,random512-10-0.map.scen,4,WA* (x1.5),1.5,249,True,107.0000,99.97056274,110,0.3629,7.03
random512-10-0.map,random512-10-0.map.scen,4,WA* (x2.0),2.0,249,True,107.0000,99.97056274,109,0.3421,7.03
random512-10-0.map,random512-10-0.map.scen,8,BFS,1.0,249,True,95.0000,99.97056274,30601,42.1550,-4.97
random512-10-0.map,random512-10-0.map.scen,8,Dijkstra,1.0,249,True,99.9706,99.97056274,24818,65.8749,0.00
random512-10-0.map,random512-10-0.map.scen,8,A* (Manhattan),1.0,249,True,102.7990,99.97056274,302,0.9928,2.83
random512-10-0.map,random512-10-0.map.scen,8,A* (Euclid),1.0,249,True,99.9706,99.97056274,1107,3.6012,0.00
random512-10-0.map,random512-10-0.map.scen,8,A* (Octile),1.0,249,True,99.9706,99.97056274,260,0.8591,0.00
random512-10-0.map,random512-10-0.map.scen,8,WA* (x1.5),1.5,249,True,104.9411,99.97056274,109,0.4653,4.97
random512-10-0.map,random512-10-0.map.scen,8,WA* (x2.0),2.0,249,True,105.7696,99.97056274,107,0.4341,5.80
random512-10-0.map,random512-10-0.map.scen,4,BFS,1.0,267,True,111.0000,105.14213562,16820,17.7514,5.57
random512-10-0.map,random512-10-0.map.scen,4,Dijkstra,1.0,267,True,111.0000,105.14213562,16942,32.1239,5.57
random512-10-0.map,random512-10-0.map.scen,4,A* (Manhattan),1.0,267,True,111.0000,105.14213562,735,1.6430,5.57
random512-10-0.map,random512-10-0.map.scen,4,A* (Euclid),1.0,267,True,111.0000,105.14213562,1541,3.1435,5.57
random512-10-0.map,random512-10-0.map.scen,4,A* (Octile),1.0,267,True,111.0000,105.14213562,1180,2.5000,5.57
random512-10-0.map,random512-10-0.map.scen,4,WA* (x1.5),1.5,267,True,111.0000,105.14213562,113,0.3725,5.57
random512-10-0.map,random512-10-0.map.scen,4,WA* (x2.0),2.0,267,True,111.0000,105.14213562,113,0.3656,5.57
random512-10-0.map,random512-10-0.map.scen,8,BFS,1.0,267,True,100.0000,105.14213562,23557,33.4182,-4.89
random512-10-0.map,random512-10-0.map.scen,8,Dijkstra,1.0,267,True,105.1421,105.14213562,20036,53.2546,0.00
random512-10-0.map,random512-10-0.map.scen,8,A* (Manhattan),1.0,267,True,107.3848,105.14213562,486,1.5919,2.13
random512-10-0.map,random512-10-0.map.scen,8,A* (Euclid),1.0,267,True,105.1421,105.14213562,1149,3.4358,0.00
random512-10-0.map,random512-10-0.map.scen,8,A* (Octile),1.0,267,True,105.1421,105.14213562,447,1.5850,0.00
random512-10-0.map,random512-10-0.map.scen,8,WA* (x1.5),1.5,267,True,108.4558,105.14213562,107,0.4660,3.15
random512-10-0.map,random512-10-0.map.scen,8,WA* (x2.0),2.0,267,True,109.0416,105.14213562,107,0.4620,3.71
random512-10-0.map,random512-10-0.map.scen,4,BFS,1.0,284,True,119.0000,113.14213562,25043,28.7661,5.18
random512-10-0.map,random512-10-0.map.scen,4,Dijkstra,1.0,284,True,119.0000,113.14213562,25232,49.2404,5.18
random512-10-0.map,random512-10-0.map.scen,4,A* (Manhattan),1.0,284,True,119.0000,113.14213562,555,1.3040,5.18
random512-10-0.map,random512-10-0.map.scen,4,A* (Euclid),1.0,284,True,119.0000,113.14213562,1753,3.8519,5.18
random512-10-0.map,random512-10-0.map.scen,4,A* (Octile),1.0,284,True,119.0000,113.14213562,1330,3.0869,5.18
random512-10-0.map,random512-10-0.map.scen,4,WA* (x1.5),1.5,284,True,119.0000,113.14213562,126,0.3979,5.18
random512-10-0.map,random512-10-0.map.scen,4,WA* (x2.0),2.0,284,True,121.0000,113.14213562,123,0.3807,6.95
random512-10-0.map,random512-10-0.map.scen,8,BFS,1.0,284,True,108.0000,113.14213562,39459,56.1533,-4.54
random512-10-0.map,random512-10-0.map.scen,8,Dijkstra,1.0,284,True,113.1421,113.14213562,31842,84.8467,0.00
random512-10-0.map,random512-10-0.map.scen,8,A* (Manhattan),1.0,284,True,113.3848,113.14213562,533,1.7208,0.21
random512-10-0.map,random512-10-0.map.scen,8,A* (Euclid),1.0,284,True,113.1421,113.14213562,1745,5.1031,0.00
random512-10-0.map,random512-10-0.map.scen,8,A* (Octile),1.0,284,True,113.1421,113.14213562,1013,3.4489,0.00
random512-10-0.map,random512-10-0.map.scen,8,WA* (x1.5),1.5,284,True,115.0416,113.14213562,123,0.4817,1.68
random512-10-0.map,random512-10-0.map.scen,8,WA* (x2.0),2.0,284,True,120.3553,113.14213562,122,0.4855,6.38
random512-10-0.map,random512-10-0.map.scen,4,BFS,1.0,302,True,137.0000,122.94112549,33010,35.2272,11.44
random512-10-0.map,random512-10-0.map.scen,4,Dijkstra,1.0,302,True,137.0000,122.94112549,32839,62.7585,11.44
random512-10-0.map,random512-10-0.map.scen,4,A* (Manhattan),1.0,302,True,137.0000,122.94112549,976,2.3834,11.44
random512-10-0.map,random512-10-0.map.scen,4,A* (Euclid),1.0,302,True,137.0000,122.94112549,3671,7.4749,11.44
random512-10-0.map,random512-10-0.map.scen,4,A* (Octile),1.0,302,True,137.0000,122.94112549,3267,6.7206,11.44
random512-10-0.map,random512-10-0.map.scen,4,WA* (x1.5),1.5,302,True,137.0000,122.94112549,138,0.4802,11.44
random512-10-0.map,random512-10-0.map.scen,4,WA* (x2.0),2.0,302,True,137.0000,122.94112549,138,0.4320,11.44
random512-10-0.map,random512-10-0.map.scen,8,BFS,1.0,302,True,113.0000,122.94112549,42987,61.4743,-8.09
random512-10-0.map,random512-10-0.map.scen,8,Dijkstra,1.0,302,True,122.9411,122.94112549,37251,97.9970,0.00
random512-10-0.map,random512-10-0.map.scen,8,A* (Manhattan),1.0,302,True,127.5269,122.94112549,348,1.2539,3.73
random512-10-0.map,random512-10-0.map.scen,8,A* (Euclid),1.0,302,True,122.9411,122.94112549,2252,6.9340,0.00
random512-10-0.map,random512-10-0.map.scen,8,A* (Octile),1.0,302,True,122.9411,122.94112549,398,1.3164,0.00
random512-10-0.map,random512-10-0.map.scen,8,WA* (x1.5),1.5,302,True,128.7401,122.94112549,130,0.5368,4.72
random512-10-0.map,random512-10-0.map.scen,8,WA* (x2.0),2.0,302,True,131.3259,122.94112549,131,0.5576,6.82
random512-10-0.map,random512-10-0.map.scen,4,BFS,1.0,320,True,143.0000,129.52691193,21283,22.9222,10.40
random512-10-0.map,random512-10-0.map.scen,4,Dijkstra,1.0,320,True,143.0000,129.52691193,21459,41.2118,10.40
random512-10-0.map,random512-10-0.map.scen,4,A* (Manhattan),1.0,320,True,143.0000,129.52691193,1070,2.6183,10.40
random512-10-0.map,random512-10-0.map.scen,4,A* (Euclid),1.0,320,True,143.0000,129.52691193,3657,7.6149,10.40
random512-10-0.map,random512-10-0.map.scen,4,A* (Octile),1.0,320,True,143.0000,129.52691193,3280,6.8975,10.40
random512-10-0.map,random512-10-0.map.scen,4,WA* (x1.5),1.5,320,True,143.0000,129.52691193,147,0.4717,10.40
random512-10-0.map,random512-10-0.map.scen,4,WA* (x2.0),2.0,320,True,143.0000,129.52691193,147,0.4410,10.40
random512-10-0.map,random512-10-0.map.scen,8,BFS,1.0,320,True,120.0000,129.52691193,25089,34.8855,-7.36
random512-10-0.map,random512-10-0.map.scen,8,Dijkstra,1.0,320,True,129.5269,129.52691193,23161,61.9019,0.00
random512-10-0.map,random512-10-0.map.scen,8,A* (Manhattan),1.0,320,True,130.6985,129.52691193,592,1.8339,0.90
random512-10-0.map,random512-10-0.map.scen,8,A* (Euclid),1.0,320,True,129.5269,129.52691193,2410,7.2595,0.00
random512-10-0.map,random512-10-0.map.scen,8,A* (Octile),1.0,320,True,129.5269,129.52691193,542,1.7899,0.00
random512-10-0.map,random512-10-0.map.scen,8,WA* (x1.5),1.5,320,True,136.1543,129.52691193,137,0.5681,5.12
random512-10-0.map,random512-10-0.map.scen,8,WA* (x2.0),2.0,320,True,139.5685,129.52691193,136,0.6035,7.75
random512-10-0.map,random512-10-0.map.scen,4,BFS,1.0,338,True,167.0000,134.19595947,47997,53.7150,24.44
random512-10-0.map,random512-10-0.map.scen,4,Dijkstra,1.0,338,True,167.0000,134.19595947,47630,92.8642,24.44
random512-10-0.map,random512-10-0.map.scen,4,A* (Manhattan),1.0,338,True,167.0000,134.19595947,3368,7.3404,24.44
random512-10-0.map,random512-10-0.map.scen,4,A* (Euclid),1.0,338,True,167.0000,134.19595947,8303,16.8989,24.44
random512-10-0.map,random512-10-0.map.scen,4,A* (Octile),1.0,338,True,167.0000,134.19595947,7669,15.9387,24.44
random512-10-0.map,random512-10-0.map.scen,4,WA* (x1.5),1.5,338,True,167.0000,134.19595947,192,0.5792,24.44
random512-10-0.map,random512-10-0.map.scen,4,WA* (x2.0),2.0,338,True,167.0000,134.19595947,177,0.5344,24.44
random512-10-0.map,random512-10-0.map.scen,8,BFS,1.0,338,True,111.0000,134.19595947,41944,60.3510,-17.29
random512-10-0.map,random512-10-0.map.scen,8,Dijkstra,1.0,338,True,134.1960,134.19595947,45093,120.5602,0.00
random512-10-0.map,random512-10-0.map.scen,8,A* (Manhattan),1.0,338,True,145.3259,134.19595947,463,1.5112,8.29
random512-10-0.map,random512-10-0.map.scen,8,A* (Euclid),1.0,338,True,134.1960,134.19595947,3439,10.8394,0.00
random512-10-0.map,random512-10-0.map.scen,8,A* (Octile),1.0,338,True,134.1960,134.19595947,1753,5.6295,0.00
random512-10-0.map,random512-10-0.map.scen,8,WA* (x1.5),1.5,338,True,137.3675,134.19595947,125,0.5777,2.36
random512-10-0.map,random512-10-0.map.scen,8,WA* (x2.0),2.0,338,True,140.5391,134.19595947,125,0.5173,4.73
random512-10-0.map,random512-10-0.map.scen,4,BFS,1.0,356,True,153.0000,143.62741699,41750,47.6369,6.53
random512-10-0.map,random512-10-0.map.scen,4,Dijkstra,1.0,356,True,153.0000,143.62741699,41407,82.9660,6.53
random512-10-0.map,random512-10-0.map.scen,4,A* (Manhattan),1.0,356,True,153.0000,143.62741699,1551,3.4955,6.53
random512-10-0.map,random512-10-0.map.scen,4,A* (Euclid),1.0,356,True,153.0000,143.62741699,3173,6.5537,6.53
random512-10-0.map,random512-10-0.map.scen,4,A* (Octile),1.0,356,True,153.0000,143.62741699,2632,5.7866,6.53
random512-10-0.map,random512-10-0.map.scen,4,WA* (x1.5),1.5,356,True,153.0000,143.62741699,156,0.4701,6.53
random512-10-0.map,random512-10-0.map.scen,4,WA* (x2.0),2.0,356,True,153.0000,143.62741699,156,0.4624,6.53
random512-10-0.map,random512-10-0.map.scen,8,BFS,1.0,356,True,136.0000,143.62741699,63541,89.8555,-5.31
random512-10-0.map,random512-10-0.map.scen,8,Dijkstra,1.0,356,True,143.6274,143.62741699,52864,157.3720,0.00
random512-10-0.map,random512-10-0.map.scen,8,A* (Manhattan),1.0,356,True,148.1127,143.62741699,529,1.5788,3.12
random512-10-0.map,random512-10-0.map.scen,8,A* (Euclid),1.0,356,True,143.6274,143.62741699,2556,6.7024,0.00
random512-10-0.map,random512-10-0.map.scen,8,A* (Octile),1.0,356,True,143.6274,143.62741699,1183,3.3195,0.00
random512-10-0.map,random512-10-0.map.scen,8,WA* (x1.5),1.5,356,True,153.6690,143.62741699,168,0.6288,6.99
random512-10-0.map,random512-10-0.map.scen,8,WA* (x2.0),2.0,356,True,155.9117,143.62741699,159,0.5904,8.55
random512-10-0.map,random512-10-0.map.scen,4,BFS,1.0,373,True,156.0000,149.55634918,41046,42.5624,4.31
random512-10-0.map,random512-10-0.map.scen,4,Dijkstra,1.0,373,True,156.0000,149.55634918,41021,79.4443,4.31
random512-10-0.map,random512-10-0.map.scen,4,A* (Manhattan),1.0,373,True,156.0000,149.55634918,1233,2.7970,4.31
random512-10-0.map,random512-10-0.map.scen,4,A* (Euclid),1.0,373,True,156.0000,149.55634918,2529,5.5697,4.31
random512-10-0.map,random512-10-0.map.scen,4,A* (Octile),1.0,373,True,156.0000,149.55634918,2040,4.5223,4.31
random512-10-0.map,random512-10-0.map.scen,4,WA* (x1.5),1.5,373,True,156.0000,149.55634918,157,0.5237,4.31
random512-10-0.map,random512-10-0.map.scen,4,WA* (x2.0),2.0,373,True,156.0000,149.55634918,157,0.4865,4.31
random512-10-0.map,random512-10-0.map.scen,8,BFS,1.0,373,True,145.0000,149.55634918,62525,87.5574,-3.05
random512-10-0.map,random512-10-0.map.scen,8,Dijkstra,1.0,373,True,149.5563,149.55634918,52516,142.4262,0.00
random512-10-0.map,random512-10-0.map.scen,8,A* (Manhattan),1.0,373,True,152.9706,149.55634918,622,2.0614,2.28
random512-10-0.map,random512-10-0.map.scen,8,A* (Euclid),1.0,373,True,149.5563,149.55634918,2322,7.1060,0.00
random512-10-0.map,random512-10-0.map.scen,8,A* (Octile),1.0,373,True,149.5563,149.55634918,1247,4.0291,0.00
random512-10-0.map,random512-10-0.map.scen,8,WA* (x1.5),1.5,373,True,162.0833,149.55634918,188,0.7670,8.38
random512-10-0.map,random512-10-0.map.scen,8,WA* (x2.0),2.0,373,True,163.4975,149.55634918,174,0.7086,9.32
random512-10-0.map,random512-10-0.map.scen,4,BFS,1.0,391,True,208.0000,159.96551208,41381,45.0594,30.03
random512-10-0.map,random512-10-0.map.scen,4,Dijkstra,1.0,391,True,208.0000,159.96551208,41448,80.3833,30.03
random512-10-0.map,random512-10-0.map.scen,4,A* (Manhattan),1.0,391,True,208.0000,159.96551208,2598,5.7459,30.03
random512-10-0.map,random512-10-0.map.scen,4,A* (Euclid),1.0,391,True,208.0000,159.96551208,12836,26.8960,30.03
random512-10-0.map,random512-10-0.map.scen,4,A* (Octile),1.0,391,True,208.0000,159.96551208,12217,25.9096,30.03
random512-10-0.map,random512-10-0.map.scen,4,WA* (x1.5),1.5,391,True,208.0000,159.96551208,241,0.7617,30.03
random512-10-0.map,random512-10-0.map.scen,4,WA* (x2.0),2.0,391,True,208.0000,159.96551208,221,0.6875,30.03
random512-10-0.map,random512-10-0.map.scen,8,BFS,1.0,391,True,126.0000,159.96551208,30358,43.3619,-21.23
random512-10-0.map,random512-10-0.map.scen,8,Dijkstra,1.0,391,True,159.9655,159.96551208,36834,99.8019,0.00
random512-10-0.map,random512-10-0.map.scen,8,A* (Manhattan),1.0,391,True,164.3087,159.96551208,156,0.6778,2.72
random512-10-0.map,random512-10-0.map.scen,8,A* (Euclid),1.0,391,True,159.9655,159.96551208,4102,12.8932,0.00
random512-10-0.map,random512-10-0.map.scen,8,A* (Octile),1.0,391,True,159.9655,159.96551208,2374,7.5886,0.00
random512-10-0.map,random512-10-0.map.scen,8,WA* (x1.5),1.5,391,True,162.5513,159.96551208,144,0.7198,1.62
random512-10-0.map,random512-10-0.map.scen,8,WA* (x2.0),2.0,391,True,162.7939,159.96551208,134,0.6485,1.77
random512-10-0.map,random512-10-0.map.scen,4,BFS,1.0,409,True,209.0000,162.13708496,55221,61.0496,28.90
random512-10-0.map,random512-10-0.map.scen,4,Dijkstra,1.0,409,True,209.0000,162.13708496,54945,108.6013,28.90
random512-10-0.map,random512-10-0.map.scen,4,A* (Manhattan),1.0,409,True,209.0000,162.13708496,2782,6.0941,28.90
random512-10-0.map,random512-10-0.map.scen,4,A* (Euclid),1.0,409,True,209.0000,162.13708496,13624,28.5093,28.90
random512-10-0.map,random512-10-0.map.scen,4,A* (Octile),1.0,409,True,209.0000,162.13708496,12616,26.5273,28.90
random512-10-0.map,random512-10-0.map.scen,4,WA* (x1.5),1.5,409,True,209.0000,162.13708496,259,0.7747,28.90
random512-10-0.map,random512-10-0.map.scen,4,WA* (x2.0),2.0,409,True,209.0000,162.13708496,222,0.6545,28.90
random512-10-0.map,random512-10-0.map.scen,8,BFS,1.0,409,True,129.0000,162.13708496,39681,56.3556,-20.44
random512-10-0.map,random512-10-0.map.scen,8,Dijkstra,1.0,409,True,162.1371,162.13708496,47593,128.8921,0.00
random512-10-0.map,random512-10-0.map.scen,8,A* (Manhattan),1.0,409,True,171.1665,162.13708496,253,0.9930,5.57
random512-10-0.map,random512-10-0.map.scen,8,A* (Euclid),1.0,409,True,162.1371,162.13708496,4979,15.7506,0.00
random512-10-0.map,random512-10-0.map.scen,8,A* (Octile),1.0,409,True,162.1371,162.13708496,3468,11.0823,0.00
random512-10-0.map,random512-10-0.map.scen,8,WA* (x1.5),1.5,409,True,162.7229,162.13708496,139,0.7021,0.36
random512-10-0.map,random512-10-0.map.scen,8,WA* (x2.0),2.0,409,True,163.5513,162.13708496,133,0.6287,0.87
random512-10-0.map,random512-10-0.map.scen,4,BFS,1.0,427,True,225.0000,171.1076477,75683,81.4346,31.50
random512-10-0.map,random512-10-0.map.scen,4,Dijkstra,1.0,427,True,225.0000,171.1076477,75234,147.8168,31.50
random512-10-0.map,random512-10-0.map.scen,4,A* (Manhattan),1.0,427,True,225.0000,171.1076477,2065,4.8326,31.50
random512-10-0.map,random512-10-0.map.scen,4,A* (Euclid),1.0,427,True,225.0000,171.1076477,16045,33.8227,31.50
random512-10-0.map,random512-10-0.map.scen,4,A* (Octile),1.0,427,True,225.0000,171.1076477,14853,31.5169,31.50
random512-10-0.map,random512-10-0.map.scen,4,WA* (x1.5),1.5,427,True,225.0000,171.1076477,296,0.8178,31.50
random512-10-0.map,random512-10-0.map.scen,4,WA* (x2.0),2.0,427,True,225.0000,171.1076477,243,0.6848,31.50
random512-10-0.map,random512-10-0.map.scen,8,BFS,1.0,427,True,133.0000,171.1076477,56292,80.4595,-22.27
random512-10-0.map,random512-10-0.map.scen,8,Dijkstra,1.0,427,True,171.1076,171.1076477,67393,182.6678,0.00
random512-10-0.map,random512-10-0.map.scen,8,A* (Manhattan),1.0,427,True,178.1371,171.1076477,185,0.8307,4.11
random512-10-0.map,random512-10-0.map.scen,8,A* (Euclid),1.0,427,True,171.1076,171.1076477,4768,15.4025,0.00
random512-10-0.map,random512-10-0.map.scen,8,A* (Octile),1.0,427,True,171.1076,171.1076477,3154,10.3127,0.00
random512-10-0.map,random512-10-0.map.scen,8,WA* (x1.5),1.5,427,True,175.2082,171.1076477,168,0.7582,2.40
random512-10-0.map,random512-10-0.map.scen,8,WA* (x2.0),2.0,427,True,176.0366,171.1076477,149,0.6885,2.88
random512-10-0.map,random512-10-0.map.scen,4,BFS,1.0,445,True,235.0000,179.93607483,97322,109.7774,30.60
random512-10-0.map,random512-10-0.map.scen,4,Dijkstra,1.0,445,True,235.0000,179.93607483,97645,198.9088,30.60
random512-10-0.map,random512-10-0.map.scen,4,A* (Manhattan),1.0,445,True,235.0000,179.93607483,2341,5.1785,30.60
random512-10-0.map,random512-10-0.map.scen,4,A* (Euclid),1.0,445,True,235.0000,179.93607483,17194,36.2282,30.60
random512-10-0.map,random512-10-0.map.scen,4,A* (Octile),1.0,445,True,235.0000,179.93607483,15958,33.8531,30.60
random512-10-0.map,random512-10-0.map.scen,4,WA* (x1.5),1.5,445,True,235.0000,179.93607483,268,0.7967,30.60
random512-10-0.map,random512-10-0.map.scen,4,WA* (x2.0),2.0,445,True,235.0000,179.93607483,247,0.7325,30.60
random512-10-0.map,random512-10-0.map.scen,8,BFS,1.0,445,True,141.0000,179.93607483,67919,96.7349,-21.64
random512-10-0.map,random512-10-0.map.scen,8,Dijkstra,1.0,445,True,179.9361,179.93607483,82712,224.5066,0.00
random512-10-0.map,random512-10-0.map.scen,8,A* (Manhattan),1.0,445,True,181.1076,179.93607483,166,0.7989,0.65
random512-10-0.map,random512-10-0.map.scen,8,A* (Euclid),1.0,445,True,179.9361,179.93607483,5571,18.4373,0.00
random512-10-0.map,random512-10-0.map.scen,8,A* (Octile),1.0,445,True,179.9361,179.93607483,3414,10.8479,0.00
random512-10-0.map,random512-10-0.map.scen,8,WA* (x1.5),1.5,445,True,185.7939,179.93607483,170,0.8989,3.26
random512-10-0.map,random512-10-0.map.scen,8,WA* (x2.0),2.0,445,True,188.0366,179.93607483,164,0.7755,4.50
random512-10-0.map,random512-10-0.map.scen,4,BFS,1.0,462,True,218.0000,186.36753235,81128,87.2602,16.97
random512-10-0.map,random512-10-0.map.scen,4,Dijkstra,1.0,462,True,218.0000,186.36753235,80920,159.9429,16.97
random512-10-0.map,random512-10-0.map.scen,4,A* (Manhattan),1.0,462,True,218.0000,186.36753235,2653,6.1206,16.97
random512-10-0.map,random512-10-0.map.scen,4,A* (Euclid),1.0,462,True,218.0000,186.36753235,11716,24.8596,16.97
random512-10-0.map,random512-10-0.map.scen,4,A* (Octile),1.0,462,True,218.0000,186.36753235,10656,23.3284,16.97
random512-10-0.map,random512-10-0.map.scen,4,WA* (x1.5),1.5,462,True,220.0000,186.36753235,238,0.7462,18.05
random512-10-0.map,random512-10-0.map.scen,4,WA* (x2.0),2.0,462,True,220.0000,186.36753235,224,0.7021,18.05
random512-10-0.map,random512-10-0.map.scen,8,BFS,1.0,462,True,164.0000,186.36753235,91352,132.7767,-12.00
random512-10-0.map,random512-10-0.map.scen,8,Dijkstra,1.0,462,True,186.3675,186.36753235,87887,245.5765,0.00
random512-10-0.map,random512-10-0.map.scen,8,A* (Manhattan),1.0,462,True,192.3675,186.36753235,732,2.4310,3.22
random512-10-0.map,random512-10-0.map.scen,8,A* (Euclid),1.0,462,True,186.3675,186.36753235,6557,20.5666,0.00
random512-10-0.map,random512-10-0.map.scen,8,A* (Octile),1.0,462,True,186.3675,186.36753235,2478,8.0918,0.00
random512-10-0.map,random512-10-0.map.scen,8,WA* (x1.5),1.5,462,True,191.6812,186.36753235,183,1.2482,2.85
random512-10-0.map,random512-10-0.map.scen,8,WA* (x2.0),2.0,462,True,194.1665,186.36753235,181,1.3051,4.18
random512-10-0.map,random512-10-0.map.scen,4,BFS,1.0,480,True,235.0000,192.23759003,86602,101.5165,22.24
random512-10-0.map,random512-10-0.map.scen,4,Dijkstra,1.0,480,True,235.0000,192.23759003,86159,176.0748,22.24
random512-10-0.map,random512-10-0.map.scen,4,A* (Manhattan),1.0,480,True,235.0000,192.23759003,5035,11.3106,22.24
random512-10-0.map,random512-10-0.map.scen,4,A* (Euclid),1.0,480,True,235.0000,192.23759003,15609,33.3077,22.24
random512-10-0.map,random512-10-0.map.scen,4,A* (Octile),1.0,480,True,235.0000,192.23759003,14442,31.0508,22.24
random512-10-0.map,random512-10-0.map.scen,4,WA* (x1.5),1.5,480,True,237.0000,192.23759003,257,0.8552,23.28
random512-10-0.map,random512-10-0.map.scen,4,WA* (x2.0),2.0,480,True,237.0000,192.23759003,245,0.7971,23.28
random512-10-0.map,random512-10-0.map.scen,8,BFS,1.0,480,True,161.0000,192.23759003,79286,110.7266,-16.25
random512-10-0.map,random512-10-0.map.scen,8,Dijkstra,1.0,480,True,192.2376,192.23759003,84392,232.4191,0.00
random512-10-0.map,random512-10-0.map.scen,8,A* (Manhattan),1.0,480,True,197.9949,192.23759003,710,2.3730,2.99
random512-10-0.map,random512-10-0.map.scen,8,A* (Euclid),1.0,480,True,192.2376,192.23759003,7405,24.0246,0.00
random512-10-0.map,random512-10-0.map.scen,8,A* (Octile),1.0,480,True,192.2376,192.23759003,5064,15.5332,0.00
random512-10-0.map,random512-10-0.map.scen,8,WA* (x1.5),1.5,480,True,199.8944,192.23759003,186,0.8352,3.98
random512-10-0.map,random512-10-0.map.scen,8,WA* (x2.0),2.0,480,True,203.8944,192.23759003,181,0.8329,6.06
random512-10-0.map,random512-10-0.map.scen,4,BFS,1.0,498,True,216.0000,199.59797974,56884,63.5962,8.22
random512-10-0.map,random512-10-0.map.scen,4,Dijkstra,1.0,498,True,216.0000,199.59797974,56887,114.0655,8.22
random512-10-0.map,random512-10-0.map.scen,4,A* (Manhattan),1.0,498,True,216.0000,199.59797974,2365,5.2570,8.22
random512-10-0.map,random512-10-0.map.scen,4,A* (Euclid),1.0,498,True,216.0000,199.59797974,7512,16.2563,8.22
random512-10-0.map,random512-10-0.map.scen,4,A* (Octile),1.0,498,True,216.0000,199.59797974,6349,13.8731,8.22
random512-10-0.map,random512-10-0.map.scen,4,WA* (x1.5),1.5,498,True,220.0000,199.59797974,227,0.7215,10.22
random512-10-0.map,random512-10-0.map.scen,4,WA* (x2.0),2.0,498,True,220.0000,199.59797974,224,0.7480,10.22
random512-10-0.map,random512-10-0.map.scen,8,BFS,1.0,498,True,187.0000,199.59797974,74754,104.5649,-6.31
random512-10-0.map,random512-10-0.map.scen,8,Dijkstra,1.0,498,True,199.5980,199.59797974,66732,186.3319,0.00
random512-10-0.map,random512-10-0.map.scen,8,A* (Manhattan),1.0,498,True,206.4264,199.59797974,1767,5.8288,3.42
random512-10-0.map,random512-10-0.map.scen,8,A* (Euclid),1.0,498,True,199.5980,199.59797974,5777,18.1561,0.00
random512-10-0.map,random512-10-0.map.scen,8,A* (Octile),1.0,498,True,199.5980,199.59797974,2935,8.8911,0.00
random512-10-0.map,random512-10-0.map.scen,8,WA* (x1.5),1.5,498,True,208.5685,199.59797974,217,0.9541,4.49
random512-10-0.map,random512-10-0.map.scen,8,WA* (x2.0),2.0,498,True,206.8112,199.59797974,209,0.9224,3.61
random512-10-0.map,random512-10-0.map.scen,4,BFS,1.0,516,True,264.0000,207.17871551,110754,127.1889,27.43
random512-10-0.map,random512-10-0.map.scen,4,Dijkstra,1.0,516,True,264.0000,207.17871551,110904,233.1016,27.43
random512-10-0.map,random512-10-0.map.scen,4,A* (Manhattan),1.0,516,True,264.0000,207.17871551,5275,11.7468,27.43
random512-10-0.map,random512-10-0.map.scen,4,A* (Euclid),1.0,516,True,264.0000,207.17871551,21076,45.4752,27.43
random512-10-0.map,random512-10-0.map.scen,4,A* (Octile),1.0,516,True,264.0000,207.17871551,19636,43.2382,27.43
random512-10-0.map,random512-10-0.map.scen,4,WA* (x1.5),1.5,516,True,264.0000,207.17871551,311,0.9887,27.43
random512-10-0.map,random512-10-0.map.scen,4,WA* (x2.0),2.0,516,True,264.0000,207.17871551,284,0.8854,27.43
random512-10-0.map,random512-10-0.map.scen,8,BFS,1.0,516,True,167.0000,207.17871551,89866,139.6701,-19.39
random512-10-0.map,random512-10-0.map.scen,8,Dijkstra,1.0,516,True,207.1787,207.17871551,101539,281.1130,0.00
random512-10-0.map,random512-10-0.map.scen,8,A* (Manhattan),1.0,516,True,212.3503,207.17871551,310,1.2845,2.50
random512-10-0.map,random512-10-0.map.scen,8,A* (Euclid),1.0,516,True,207.1787,207.17871551,7726,25.8879,0.00
random512-10-0.map,random512-10-0.map.scen,8,A* (Octile),1.0,516,True,207.1787,207.17871551,4683,14.7396,0.00
random512-10-0.map,random512-10-0.map.scen,8,WA* (x1.5),1.5,516,True,209.5219,207.17871551,194,0.9908,1.13
random512-10-0.map,random512-10-0.map.scen,8,WA* (x2.0),2.0,516,True,218.0071,207.17871551,189,0.8951,5.23
random512-10-0.map,random512-10-0.map.scen,4,BFS,1.0,534,True,255.0000,212.82337646,79734,86.3307,19.82
random512-10-0.map,random512-10-0.map.scen,4,Dijkstra,1.0,534,True,255.0000,212.82337646,79689,157.9726,19.82
random512-10-0.map,random512-10-0.map.scen,4,A* (Manhattan),1.0,534,True,255.0000,212.82337646,4147,9.3500,19.82
random512-10-0.map,random512-10-0.map.scen,4,A* (Euclid),1.0,534,True,255.0000,212.82337646,17398,36.5264,19.82
random512-10-0.map,random512-10-0.map.scen,4,A* (Octile),1.0,534,True,255.0000,212.82337646,16025,33.9610,19.82
random512-10-0.map,random512-10-0.map.scen,4,WA* (x1.5),1.5,534,True,255.0000,212.82337646,278,0.8711,19.82
random512-10-0.map,random512-10-0.map.scen,4,WA* (x2.0),2.0,534,True,255.0000,212.82337646,264,0.8197,19.82
random512-10-0.map,random512-10-0.map.scen,8,BFS,1.0,534,True,183.0000,212.82337646,75699,109.7085,-14.01
random512-10-0.map,random512-10-0.map.scen,8,Dijkstra,1.0,534,True,212.8234,212.82337646,78757,221.4793,0.00
random512-10-0.map,random512-10-0.map.scen,8,A* (Manhattan),1.0,534,True,222.6812,212.82337646,1079,5.9918,4.63
random512-10-0.map,random512-10-0.map.scen,8,A* (Euclid),1.0,534,True,212.8234,212.82337646,8817,27.9487,0.00
random512-10-0.map,random512-10-0.map.scen,8,A* (Octile),1.0,534,True,212.8234,212.82337646,4893,15.3043,0.00
random512-10-0.map,random512-10-0.map.scen,8,WA* (x1.5),1.5,534,True,219.6518,212.82337646,214,0.9224,3.21
random512-10-0.map,random512-10-0.map.scen,8,WA* (x2.0),2.0,534,True,223.0660,212.82337646,201,0.9043,4.81
random512-10-0.map,random512-10-0.map.scen,4,BFS,1.0,551,True,292.0000,222.29141388,76945,84.2171,31.36
random512-10-0.map,random512-10-0.map.scen,4,Dijkstra,1.0,551,True,292.0000,222.29141388,77124,153.7091,31.36
random512-10-0.map,random512-10-0.map.scen,4,A* (Manhattan),1.0,551,True,292.0000,222.29141388,17444,39.3797,31.36
random512-10-0.map,random512-10-0.map.scen,4,A* (Euclid),1.0,551,True,292.0000,222.29141388,25190,53.4558,31.36
random512-10-0.map,random512-10-0.map.scen,4,A* (Octile),1.0,551,True,292.0000,222.29141388,24070,51.5706,31.36
random512-10-0.map,random512-10-0.map.scen,4,WA* (x1.5),1.5,551,True,292.0000,222.29141388,478,1.3350,31.36
random512-10-0.map,random512-10-0.map.scen,4,WA* (x2.0),2.0,551,True,292.0000,222.29141388,330,0.9711,31.36
random512-10-0.map,random512-10-0.map.scen,8,BFS,1.0,551,True,173.0000,222.29141388,55508,78.9329,-22.17
random512-10-0.map,random512-10-0.map.scen,8,Dijkstra,1.0,551,True,222.2914,222.29141388,66760,185.9749,0.00
random512-10-0.map,random512-10-0.map.scen,8,A* (Manhattan),1.0,551,True,223.4630,222.29141388,205,0.9680,0.53
random512-10-0.map,random512-10-0.map.scen,8,A* (Euclid),1.0,551,True,222.2914,222.29141388,9404,30.0674,0.00
random512-10-0.map,random512-10-0.map.scen,8,A* (Octile),1.0,551,True,222.2914,222.29141388,6181,20.3126,0.00
random512-10-0.map,random512-10-0.map.scen,8,WA* (x1.5),1.5,551,True,229.9066,222.29141388,250,1.0998,3.43
random512-10-0.map,random512-10-0.map.scen,8,WA* (x2.0),2.0,551,True,228.1493,222.29141388,211,0.9341,2.64
random512-10-0.map,random512-10-0.map.scen,4,BFS,1.0,569,True,296.0000,225.70562744,93580,107.7523,31.14
random512-10-0.map,random512-10-0.map.scen,4,Dijkstra,1.0,569,True,296.0000,225.70562744,93244,190.9970,31.14
random512-10-0.map,random512-10-0.map.scen,4,A* (Manhattan),1.0,569,True,296.0000,225.70562744,4954,11.1727,31.14
random512-10-0.map,random512-10-0.map.scen,4,A* (Euclid),1.0,569,True,296.0000,225.70562744,27513,58.5029,31.14
random512-10-0.map,random512-10-0.map.scen,4,A* (Octile),1.0,569,True,296.0000,225.70562744,25815,58.0173,31.14
random512-10-0.map,random512-10-0.map.scen,4,WA* (x1.5),1.5,569,True,296.0000,225.70562744,351,1.0997,31.14
random512-10-0.map,random512-10-0.map.scen,4,WA* (x2.0),2.0,569,True,296.0000,225.70562744,306,0.9351,31.14
random512-10-0.map,random512-10-0.map.scen,8,BFS,1.0,569,True,176.0000,225.70562744,66231,92.7584,-22.02
random512-10-0.map,random512-10-0.map.scen,8,Dijkstra,1.0,569,True,225.7056,225.70562744,81976,221.7371,0.00
random512-10-0.map,random512-10-0.map.scen,8,A* (Manhattan),1.0,569,True,233.5635,225.70562744,271,1.1967,3.48
random512-10-0.map,random512-10-0.map.scen,8,A* (Euclid),1.0,569,True,225.7056,225.70562744,8097,25.9720,0.00
random512-10-0.map,random512-10-0.map.scen,8,A* (Octile),1.0,569,True,225.7056,225.70562744,4865,16.0040,0.00
random512-10-0.map,random512-10-0.map.scen,8,WA* (x1.5),1.5,569,True,233.5635,225.70562744,206,0.9670,3.48
random512-10-0.map,random512-10-0.map.scen,8,WA* (x2.0),2.0,569,True,234.0488,225.70562744,193,0.9538,3.70
random512-10-0.map,random512-10-0.map.scen,4,BFS,1.0,587,True,246.0000,235.6984848,74032,80.9459,4.37
random512-10-0.map,random512-10-0.map.scen,4,Dijkstra,1.0,587,True,246.0000,235.6984848,74135,150.3457,4.37
random512-10-0.map,random512-10-0.map.scen,4,A* (Manhattan),1.0,587,True,246.0000,235.6984848,2427,5.5950,4.37
random512-10-0.map,random512-10-0.map.scen,4,A* (Euclid),1.0,587,True,246.0000,235.6984848,5875,12.7661,4.37
random512-10-0.map,random512-10-0.map.scen,4,A* (Octile),1.0,587,True,246.0000,235.6984848,4042,8.6213,4.37
random512-10-0.map,random512-10-0.map.scen,4,WA* (x1.5),1.5,587,True,252.0000,235.6984848,267,0.8206,6.92
random512-10-0.map,random512-10-0.map.scen,4,WA* (x2.0),2.0,587,True,252.0000,235.6984848,260,0.8473,6.92
random512-10-0.map,random512-10-0.map.scen,8,BFS,1.0,587,True,227.0000,235.6984848,108904,155.8197,-3.69
random512-10-0.map,random512-10-0.map.scen,8,Dijkstra,1.0,587,True,235.6985,235.6984848,91863,255.1542,0.00
random512-10-0.map,random512-10-0.map.scen,8,A* (Manhattan),1.0,587,True,236.0416,235.6984848,3711,11.4900,0.15
random512-10-0.map,random512-10-0.map.scen,8,A* (Euclid),1.0,587,True,235.6985,235.6984848,5608,17.1245,0.00
random512-10-0.map,random512-10-0.map.scen,8,A* (Octile),1.0,587,True,235.6985,235.6984848,3036,9.9866,0.00
random512-10-0.map,random512-10-0.map.scen,8,WA* (x1.5),1.5,587,True,251.0538,235.6984848,274,1.0951,6.51
random512-10-0.map,random512-10-0.map.scen,8,WA* (x2.0),2.0,587,True,255.7817,235.6984848,272,1.0930,8.52
random512-10-0.map,random512-10-0.map.scen,4,BFS,1.0,605,True,274.0000,240.61017303,77947,89.0140,13.88
random512-10-0.map,random512-10-0.map.scen,4,Dijkstra,1.0,605,True,274.0000,240.61017303,78279,157.9871,13.88
random512-10-0.map,random512-10-0.map.scen,4,A* (Manhattan),1.0,605,True,274.0000,240.61017303,5447,12.2167,13.88
random512-10-0.map,random512-10-0.map.scen,4,A* (Euclid),1.0,605,True,274.0000,240.61017303,16984,37.3085,13.88
random512-10-0.map,random512-10-0.map.scen,4,A* (Octile),1.0,605,True,274.0000,240.61017303,15205,33.9083,13.88
random512-10-0.map,random512-10-0.map.scen,4,WA* (x1.5),1.5,605,True,274.0000,240.61017303,286,0.9355,13.88
random512-10-0.map,random512-10-0.map.scen,4,WA* (x2.0),2.0,605,True,274.0000,240.61017303,280,0.9029,13.88
random512-10-0.map,random512-10-0.map.scen,8,BFS,1.0,605,True,216.0000,240.61017303,82918,119.1055,-10.23
random512-10-0.map,random512-10-0.map.scen,8,Dijkstra,1.0,605,True,240.6102,240.61017303,81729,226.9931,0.00
random512-10-0.map,random512-10-0.map.scen,8,A* (Manhattan),1.0,605,True,248.1249,240.61017303,1636,5.2594,3.12
random512-10-0.map,random512-10-0.map.scen,8,A* (Euclid),1.0,605,True,240.6102,240.61017303,10887,34.6458,0.00
random512-10-0.map,random512-10-0.map.scen,8,A* (Octile),1.0,605,True,240.6102,240.61017303,9186,29.3909,0.00
random512-10-0.map,random512-10-0.map.scen,8,WA* (x1.5),1.5,605,True,249.8234,240.61017303,243,1.1655,3.83
random512-10-0.map,random512-10-0.map.scen,8,WA* (x2.0),2.0,605,True,256.3087,240.61017303,246,1.1047,6.52
random512-10-0.map,random512-10-0.map.scen,4,BFS,1.0,623,True,334.0000,251.98989868,100981,115.6295,32.54
random512-10-0.map,random512-10-0.map.scen,4,Dijkstra,1.0,623,True,334.0000,251.98989868,101026,211.6285,32.54
random512-10-0.map,random512-10-0.map.scen,4,A* (Manhattan),1.0,623,True,334.0000,251.98989868,8637,19.5965,32.54
random512-10-0.map,random512-10-0.map.scen,4,A* (Euclid),1.0,623,True,334.0000,251.98989868,33253,70.4964,32.54
random512-10-0.map,random512-10-0.map.scen,4,A* (Octile),1.0,623,True,334.0000,251.98989868,31790,74.1107,32.54
random512-10-0.map,random512-10-0.map.scen,4,WA* (x1.5),1.5,623,True,334.0000,251.98989868,421,1.2324,32.54
random512-10-0.map,random512-10-0.map.scen,4,WA* (x2.0),2.0,623,True,334.0000,251.98989868,367,1.0685,32.54
random512-10-0.map,random512-10-0.map.scen,8,BFS,1.0,623,True,194.0000,251.98989868,72104,114.5060,-23.01
random512-10-0.map,random512-10-0.map.scen,8,Dijkstra,1.0,623,True,251.9899,251.98989868,86385,236.4010,0.00
random512-10-0.map,random512-10-0.map.scen,8,A* (Manhattan),1.0,623,True,259.0193,251.98989868,270,1.1970,2.79
random512-10-0.map,random512-10-0.map.scen,8,A* (Euclid),1.0,623,True,251.9899,251.98989868,9373,31.0241,0.00
random512-10-0.map,random512-10-0.map.scen,8,A* (Octile),1.0,623,True,251.9899,251.98989868,5814,19.6865,0.00
random512-10-0.map,random512-10-0.map.scen,8,WA* (x1.5),1.5,623,True,254.9188,251.98989868,231,1.0451,1.16
random512-10-0.map,random512-10-0.map.scen,8,WA* (x2.0),2.0,623,True,255.7473,251.98989868,215,1.0465,1.49
random512-10-0.map,random512-10-0.map.scen,4,BFS,1.0,640,True,338.0000,257.16147156,111114,121.5185,31.43
random512-10-0.map,random512-10-0.map.scen,4,Dijkstra,1.0,640,True,338.0000,257.16147156,111085,220.3169,31.43
random512-10-0.map,random512-10-0.map.scen,4,A* (Manhattan),1.0,640,True,338.0000,257.16147156,5612,12.6678,31.43
random512-10-0.map,random512-10-0.map.scen,4,A* (Euclid),1.0,640,True,338.0000,257.16147156,34974,73.5735,31.43
random512-10-0.map,random512-10-0.map.scen,4,A* (Octile),1.0,640,True,338.0000,257.16147156,32830,69.2676,31.43
random512-10-0.map,random512-10-0.map.scen,4,WA* (x1.5),1.5,640,True,338.0000,257.16147156,429,1.3141,31.43
random512-10-0.map,random512-10-0.map.scen,4,WA* (x2.0),2.0,640,True,338.0000,257.16147156,357,1.0770,31.43
random512-10-0.map,random512-10-0.map.scen,8,BFS,1.0,640,True,200.0000,257.16147156,80050,112.0618,-22.23
random512-10-0.map,random512-10-0.map.scen,8,Dijkstra,1.0,640,True,257.1615,257.16147156,98643,271.6593,0.00
random512-10-0.map,random512-10-0.map.scen,8,A* (Manhattan),1.0,640,True,265.9483,257.16147156,361,1.4606,3.42
random512-10-0.map,random512-10-0.map.scen,8,A* (Euclid),1.0,640,True,257.1615,257.16147156,11337,37.0664,0.00
random512-10-0.map,random512-10-0.map.scen,8,A* (Octile),1.0,640,True,257.1615,257.16147156,7201,23.9937,0.00
random512-10-0.map,random512-10-0.map.scen,8,WA* (x1.5),1.5,640,True,264.1909,257.16147156,243,1.1421,2.73
random512-10-0.map,random512-10-0.map.scen,8,WA* (x2.0),2.0,640,True,266.1909,257.16147156,229,1.0397,3.51
random512-10-0.map,random512-10-0.map.scen,4,BFS,1.0,658,True,335.0000,262.36248169,106267,117.1569,27.69
random512-10-0.map,random512-10-0.map.scen,4,Dijkstra,1.0,658,True,335.0000,262.36248169,106351,241.8509,27.69
random512-10-0.map,random512-10-0.map.scen,4,A* (Manhattan),1.0,658,True,335.0000,262.36248169,7893,20.0497,27.69
random512-10-0.map,random512-10-0.map.scen,4,A* (Euclid),1.0,658,True,335.0000,262.36248169,33921,81.8470,27.69
random512-10-0.map,random512-10-0.map.scen,4,A* (Octile),1.0,658,True,335.0000,262.36248169,32052,67.3255,27.69
random512-10-0.map,random512-10-0.map.scen,4,WA* (x1.5),1.5,658,True,337.0000,262.36248169,403,1.1183,28.45
random512-10-0.map,random512-10-0.map.scen,4,WA* (x2.0),2.0,658,True,335.0000,262.36248169,357,1.0187,27.69
random512-10-0.map,random512-10-0.map.scen,8,BFS,1.0,658,True,211.0000,262.36248169,85171,132.9932,-19.58
random512-10-0.map,random512-10-0.map.scen,8,Dijkstra,1.0,658,True,262.3625,262.36248169,95930,313.5633,0.00
random512-10-0.map,random512-10-0.map.scen,8,A* (Manhattan),1.0,658,True,280.1787,262.36248169,1078,3.8528,6.79
random512-10-0.map,random512-10-0.map.scen,8,A* (Euclid),1.0,658,True,262.3625,262.36248169,12693,53.0289,0.00
random512-10-0.map,random512-10-0.map.scen,8,A* (Octile),1.0,658,True,262.3625,262.36248169,8505,31.0654,0.00
random512-10-0.map,random512-10-0.map.scen,8,WA* (x1.5),1.5,658,True,265.8772,262.36248169,236,1.3888,1.34
random512-10-0.map,random512-10-0.map.scen,8,WA* (x2.0),2.0,658,True,273.6346,262.36248169,243,1.2508,4.30
random512-10-0.map,random512-10-0.map.scen,4,BFS,1.0,676,True,299.0000,270.88225098,125408,147.0158,10.38
random512-10-0.map,random512-10-0.map.scen,4,Dijkstra,1.0,676,True,299.0000,270.88225098,125264,269.4760,10.38
random512-10-0.map,random512-10-0.map.scen,4,A* (Manhattan),1.0,676,True,299.0000,270.88225098,4559,10.2007,10.38
random512-10-0.map,random512-10-0.map.scen,4,A* (Euclid),1.0,676,True,299.0000,270.88225098,16747,36.6539,10.38
random512-10-0.map,random512-10-0.map.scen,4,A* (Octile),1.0,676,True,299.0000,270.88225098,14607,34.2500,10.38
random512-10-0.map,random512-10-0.map.scen,4,WA* (x1.5),1.5,676,True,301.0000,270.88225098,320,1.0449,11.12
random512-10-0.map,random512-10-0.map.scen,4,WA* (x2.0),2.0,676,True,301.0000,270.88225098,311,1.0165,11.12
random512-10-0.map,random512-10-0.map.scen,8,BFS,1.0,676,True,251.0000,270.88225098,151765,238.2401,-7.34
random512-10-0.map,random512-10-0.map.scen,8,Dijkstra,1.0,676,True,270.8823,270.88225098,141338,414.8051,0.00
random512-10-0.map,random512-10-0.map.scen,8,A* (Manhattan),1.0,676,True,279.7107,270.88225098,2214,6.7443,3.26
random512-10-0.map,random512-10-0.map.scen,8,A* (Euclid),1.0,676,True,270.8823,270.88225098,11562,38.7149,0.00
random512-10-0.map,random512-10-0.map.scen,8,A* (Octile),1.0,676,True,270.8823,270.88225098,3040,10.8191,0.00
random512-10-0.map,random512-10-0.map.scen,8,WA* (x1.5),1.5,676,True,283.1665,270.88225098,279,1.3473,4.53
random512-10-0.map,random512-10-0.map.scen,8,WA* (x2.0),2.0,676,True,289.7523,270.88225098,284,1.2789,6.97
random512-10-0.map,random512-10-0.map.scen,4,BFS,1.0,694,True,325.0000,279.89444427,113329,129.8205,16.12
random512-10-0.map,random512-10-0.map.scen,4,Dijkstra,1.0,694,True,325.0000,279.89444427,113001,313.0122,16.12
random512-10-0.map,random512-10-0.map.scen,4,A* (Manhattan),1.0,694,True,325.0000,279.89444427,8605,19.9638,16.12
random512-10-0.map,random512-10-0.map.scen,4,A* (Euclid),1.0,694,True,325.0000,279.89444427,25724,62.9437,16.12
random512-10-0.map,random512-10-0.map.scen,4,A* (Octile),1.0,694,True,325.0000,279.89444427,23326,62.2571,16.12
random512-10-0.map,random512-10-0.map.scen,4,WA* (x1.5),1.5,694,True,325.0000,279.89444427,366,1.2933,16.12
random512-10-0.map,random512-10-0.map.scen,4,WA* (x2.0),2.0,694,True,325.0000,279.89444427,338,1.0847,16.12
random512-10-0.map,random512-10-0.map.scen,8,BFS,1.0,694,True,248.0000,279.89444427,123295,185.4549,-11.40
