MapName,Scenario,Connectivity,Algorithm,Weight,TaskID,Success,PathLength,OptimalLength,ExpandedNodes,TimeMS,Suboptimality
random512-10-0.map,random512-10-0.map.scen,4,BFS,1.0,0,True,3.0000,2.41421356,20,0.0451,24.26
random512-10-0.map,random512-10-0.map.scen,4,BFS,1.0,1,True,0.0000,0.0,1,0.0014,0.00
random512-10-0.map,random512-10-0.map.scen,4,BFS,1.0,2,True,3.0000,3.0,15,0.0220,0.00
random512-10-0.map,random512-10-0.map.scen,4,BFS,1.0,3,True,4.0000,2.82842712,29,0.0509,41.42
random512-10-0.map,random512-10-0.map.scen,4,BFS,1.0,4,True,0.0000,0.0,1,0.0012,0.00
random512-10-0.map,random512-10-0.map.scen,4,BFS,1.0,5,True,4.0000,3.41421356,38,0.0513,17.16
random512-10-0.map,random512-10-0.map.scen,4,BFS,1.0,6,True,0.0000,0.0,1,0.0011,0.00
random512-10-0.map,random512-10-0.map.scen,4,BFS,1.0,7,True,4.0000,3.41421356,27,0.0377,17.16
random512-10-0.map,random512-10-0.map.scen,4,BFS,1.0,8,True,4.0000,3.41421356,24,0.0324,17.16
random512-10-0.map,random512-10-0.map.scen,4,BFS,1.0,9,True,4.0000,2.82842712,27,0.0381,41.42
random512-10-0.map,random512-10-0.map.scen,4,BFS,1.0,10,True,9.0000,6.65685425,118,0.1692,35.20
random512-10-0.map,random512-10-0.map.scen,4,BFS,1.0,11,True,7.0000,6.41421356,88,0.1116,9.13
random512-10-0.map,random512-10-0.map.scen,4,BFS,1.0,12,True,8.0000,6.82842712,114,0.1765,17.16
random512-10-0.map,random512-10-0.map.scen,4,BFS,1.0,13,True,6.0000,5.41421356,73,0.1224,10.82
random512-10-0.map,random512-10-0.map.scen,4,BFS,1.0,14,True,9.0000,7.24264069,137,0.1948,24.26
random512-10-0.map,random512-10-0.map.scen,4,BFS,1.0,15,True,8.0000,7.41421356,96,0.1242,7.90
random512-10-0.map,random512-10-0.map.scen,4,BFS,1.0,16,True,8.0000,6.24264069,124,0.1674,28.15
random512-10-0.map,random512-10-0.map.scen,4,BFS,1.0,17,True,8.0000,6.82842712,126,0.1765,17.16
random512-10-0.map,random512-10-0.map.scen,4,BFS,1.0,18,True,9.0000,7.24264069,125,0.1788,24.26
random512-10-0.map,random512-10-0.map.scen,4,BFS,1.0,19,True,5.0000,4.41421356,46,0.0601,13.27
random512-10-0.map,random512-10-0.map.scen,4,BFS,1.0,20,True,9.0000,9.0,148,0.2194,0.00
random512-10-0.map,random512-10-0.map.scen,4,BFS,1.0,21,True,10.0000,8.24264069,171,0.2530,21.32
random512-10-0.map,random512-10-0.map.scen,4,BFS,1.0,22,True,13.0000,10.07106781,305,0.5875,29.08
random512-10-0.map,random512-10-0.map.scen,4,BFS,1.0,23,True,12.0000,9.07106781,252,0.4719,32.29
random512-10-0.map,random512-10-0.map.scen,4,BFS,1.0,24,True,13.0000,10.07106781,278,0.5045,29.08
random512-10-0.map,random512-10-0.map.scen,4,BFS,1.0,25,True,13.0000,11.24264069,264,0.3806,15.63
random512-10-0.map,random512-10-0.map.scen,4,BFS,1.0,26,True,13.0000,10.07106781,247,0.3829,29.08
random512-10-0.map,random512-10-0.map.scen,4,BFS,1.0,27,True,10.0000,9.41421356,163,0.3569,6.22
random512-10-0.map,random512-10-0.map.scen,4,BFS,1.0,28,True,9.0000,9.0,146,0.2227,0.00
random512-10-0.map,random512-10-0.map.scen,4,BFS,1.0,29,True,10.0000,8.82842712,181,0.2833,13.27
random512-10-0.map,random512-10-0.map.scen,4,BFS,1.0,30,True,19.0000,14.89949493,594,0.7219,27.52
random512-10-0.map,random512-10-0.map.scen,4,BFS,1.0,31,True,18.0000,15.07106781,540,0.7068,19.43
random512-10-0.map,random512-10-0.map.scen,4,BFS,1.0,32,True,17.0000,12.89949493,520,0.6616,31.79
random512-10-0.map,random512-10-0.map.scen,4,BFS,1.0,33,True,21.0000,15.72792206,789,1.0376,33.52
random512-10-0.map,random512-10-0.map.scen,4,BFS,1.0,34,True,15.0000,14.41421356,396,0.5281,4.06
random512-10-0.map,random512-10-0.map.scen,4,BFS,1.0,35,True,21.0000,15.14213562,749,0.8943,38.69
random512-10-0.map,random512-10-0.map.scen,4,BFS,1.0,36,True,18.0000,15.65685425,530,0.6763,14.97
random512-10-0.map,random512-10-0.map.scen,4,BFS,1.0,37,True,16.0000,13.07106781,453,0.6275,22.41
random512-10-0.map,random512-10-0.map.scen,4,BFS,1.0,38,True,20.0000,15.89949493,737,0.9051,25.79
random512-10-0.map,random512-10-0.map.scen,4,BFS,1.0,39,True,15.0000,13.24264069,402,0.5338,13.27
random512-10-0.map,random512-10-0.map.scen,4,BFS,1.0,40,True,24.0000,19.89949493,978,1.1211,20.61
random512-10-0.map,random512-10-0.map.scen,4,BFS,1.0,41,True,21.0000,18.07106781,735,1.0287,16.21
random512-10-0.map,random512-10-0.map.scen,4,BFS,1.0,42,True,21.0000,16.3137085,304,0.5910,28.73
random512-10-0.map,random512-10-0.map.scen,4,BFS,1.0,43,True,24.0000,18.14213562,1008,1.2623,32.29
random512-10-0.map,random512-10-0.map.scen,4,BFS,1.0,44,True,20.0000,18.82842712,701,0.8577,6.22
random512-10-0.map,random512-10-0.map.scen,4,BFS,1.0,45,True,20.0000,18.24264069,698,0.8756,9.63
random512-10-0.map,random512-10-0.map.scen,4,BFS,1.0,46,True,20.0000,18.82842712,636,0.7784,6.22
random512-10-0.map,random512-10-0.map.scen,4,BFS,1.0,47,True,24.0000,18.14213562,1035,1.2381,32.29
random512-10-0.map,random512-10-0.map.scen,4,BFS,1.0,48,True,24.0000,19.3137085,1044,1.3149,24.26
random512-10-0.map,random512-10-0.map.scen,4,BFS,1.0,49,True,21.0000,18.07106781,767,1.0099,16.21
random512-10-0.map,random512-10-0.map.scen,4,BFS,1.0,50,True,24.0000,20.48528137,1045,1.2899,17.16
random512-10-0.map,random512-10-0.map.scen,4,BFS,1.0,51,True,25.0000,23.82842712,1056,1.3366,4.92
random512-10-0.map,random512-10-0.map.scen,4,BFS,1.0,52,True,23.0000,21.24264069,918,1.1013,8.27
random512-10-0.map,random512-10-0.map.scen,4,BFS,1.0,53,True,28.0000,21.55634918,1277,1.5023,29.89
random512-10-0.map,random512-10-0.map.scen,4,BFS,1.0,54,True,27.0000,22.89949493,1234,1.4529,17.91
random512-10-0.map,random512-10-0.map.scen,4,BFS,1.0,55,True,27.0000,22.3137085,1292,1.4896,21.00
random512-10-0.map,random512-10-0.map.scen,4,BFS,1.0,56,True,23.0000,21.24264069,931,1.1089,8.27
random512-10-0.map,random512-10-0.map.scen,4,BFS,1.0,57,True,28.0000,22.72792206,1366,1.5896,23.20
random512-10-0.map,random512-10-0.map.scen,4,BFS,1.0,58,True,26.0000,21.3137085,1172,1.4113,21.99
random512-10-0.map,random512-10-0.map.scen,4,BFS,1.0,59,True,27.0000,20.55634918,1300,1.6180,31.35
random512-10-0.map,random512-10-0.map.scen,4,BFS,1.0,60,True,30.0000,27.07106781,1544,1.9751,10.82
random512-10-0.map,random512-10-0.map.scen,4,BFS,1.0,61,True,31.0000,25.14213562,1716,2.0278,23.30
random512-10-0.map,random512-10-0.map.scen,4,BFS,1.0,62,True,32.0000,24.97056274,1839,2.0586,28.15
random512-10-0.map,random512-10-0.map.scen,4,BFS,1.0,63,True,27.0000,24.89949493,1226,1.4459,8.44
random512-10-0.map,random512-10-0.map.scen,4,BFS,1.0,64,True,31.0000,26.89949493,1683,1.8439,15.24
random512-10-0.map,random512-10-0.map.scen,4,BFS,1.0,65,True,30.0000,27.07106781,957,1.1074,10.82
random512-10-0.map,random512-10-0.map.scen,4,BFS,1.0,66,True,33.0000,26.55634918,1912,2.1574,24.26
random512-10-0.map,random512-10-0.map.scen,4,BFS,1.0,67,True,31.0000,27.48528137,1629,1.8759,12.79
random512-10-0.map,random512-10-0.map.scen,4,BFS,1.0,68,True,28.0000,26.82842712,1418,1.5623,4.37
random512-10-0.map,random512-10-0.map.scen,4,BFS,1.0,69,True,29.0000,24.89949493,1354,1.7206,16.47
random512-10-0.map,random512-10-0.map.scen,4,BFS,1.0,70,True,39.0000,30.21320343,2672,2.9898,29.08
random512-10-0.map,random512-10-0.map.scen,4,BFS,1.0,71,True,34.0000,28.72792206,2110,2.2827,18.35
random512-10-0.map,random512-10-0.map.scen,4,BFS,1.0,72,True,35.0000,29.14213562,2217,2.3996,20.10
random512-10-0.map,random512-10-0.map.scen,4,BFS,1.0,73,True,35.0000,29.14213562,2104,2.2982,20.10
random512-10-0.map,random512-10-0.map.scen,4,BFS,1.0,74,True,39.0000,31.97056274,2564,2.8944,21.99
random512-10-0.map,random512-10-0.map.scen,4,BFS,1.0,75,True,32.0000,30.82842712,1862,2.2589,3.80
random512-10-0.map,random512-10-0.map.scen,4,BFS,1.0,76,True,37.0000,31.72792206,2290,2.6011,16.62
random512-10-0.map,random512-10-0.map.scen,4,BFS,1.0,77,True,35.0000,30.3137085,2211,2.3636,15.46
random512-10-0.map,random512-10-0.map.scen,4,BFS,1.0,78,True,31.0000,29.82842712,1688,1.8887,3.93
random512-10-0.map,random512-10-0.map.scen,4,BFS,1.0,79,True,34.0000,29.89949493,2035,2.2074,13.71
random512-10-0.map,random512-10-0.map.scen,4,BFS,1.0,80,True,36.0000,32.48528137,2280,2.4709,10.82
random512-10-0.map,random512-10-0.map.scen,4,BFS,1.0,81,True,43.0000,33.62741699,3259,3.5856,27.87
random512-10-0.map,random512-10-0.map.scen,4,BFS,1.0,82,True,33.0000,32.41421356,1826,2.7338,1.81
random512-10-0.map,random512-10-0.map.scen,4,BFS,1.0,83,True,41.0000,33.97056274,2978,3.3127,20.69
random512-10-0.map,random512-10-0.map.scen,4,BFS,1.0,84,True,38.0000,32.72792206,1977,2.1190,16.11
random512-10-0.map,random512-10-0.map.scen,4,BFS,1.0,85,True,42.0000,33.79898987,2983,3.3990,24.26
random512-10-0.map,random512-10-0.map.scen,4,BFS,1.0,86,True,45.0000,35.04163055,3543,4.0706,28.42
random512-10-0.map,random512-10-0.map.scen,4,BFS,1.0,87,True,42.0000,34.97056274,1965,2.0872,20.10
random512-10-0.map,random512-10-0.map.scen,4,BFS,1.0,88,True,46.0000,34.87005768,3239,3.7227,31.92
random512-10-0.map,random512-10-0.map.scen,4,BFS,1.0,89,True,46.0000,35.45584412,3736,3.9470,29.74
random512-10-0.map,random512-10-0.map.scen,4,BFS,1.0,90,True,47.0000,37.04163055,3902,4.1167,26.88
random512-10-0.map,random512-10-0.map.scen,4,BFS,1.0,91,True,46.0000,38.38477631,3801,4.5154,19.84
random512-10-0.map,random512-10-0.map.scen,4,BFS,1.0,92,True,39.0000,36.07106781,2451,2.7283,8.12
random512-10-0.map,random512-10-0.map.scen,4,BFS,1.0,93,True,49.0000,37.87005768,4308,4.5218,29.39
random512-10-0.map,random512-10-0.map.scen,4,BFS,1.0,94,True,49.0000,37.87005768,4274,4.4654,29.39
random512-10-0.map,random512-10-0.map.scen,4,BFS,1.0,95,True,49.0000,39.62741699,3631,4.1036,23.65
random512-10-0.map,random512-10-0.map.scen,4,BFS,1.0,96,True,48.0000,38.04163055,3306,3.4567,26.18
random512-10-0.map,random512-10-0.map.scen,4,BFS,1.0,97,True,42.0000,36.72792206,2484,2.6953,14.35
random512-10-0.map,random512-10-0.map.scen,4,BFS,1.0,98,True,50.0000,36.52691193,4469,4.7804,36.89
random512-10-0.map,random512-10-0.map.scen,4,BFS,1.0,99,True,49.0000,37.87005768,4233,4.8104,29.39
random512-10-0.map,random512-10-0.map.scen,4,BFS,1.0,100,True,44.0000,42.82842712,3403,3.6877,2.74
random512-10-0.map,random512-10-0.map.scen,4,BFS,1.0,101,True,52.0000,40.87005768,4804,5.1298,27.23
random512-10-0.map,random512-10-0.map.scen,4,BFS,1.0,102,True,54.0000,43.45584412,5196,6.0728,24.26
random512-10-0.map,random512-10-0.map.scen,4,BFS,1.0,103,True,51.0000,43.38477631,3890,4.0812,17.55
random512-10-0.map,random512-10-0.map.scen,4,BFS,1.0,104,True,53.0000,43.04163055,2848,3.0920,23.14
random512-10-0.map,random512-10-0.map.scen,4,BFS,1.0,105,True,52.0000,40.28427124,2946,3.1593,29.08
random512-10-0.map,random512-10-0.map.scen,4,BFS,1.0,106,True,45.0000,40.3137085,3527,4.0332,11.62
random512-10-0.map,random512-10-0.map.scen,4,BFS,1.0,107,True,44.0000,41.07106781,3427,3.9348,7.13
random512-10-0.map,random512-10-0.map.scen,4,BFS,1.0,108,True,52.0000,40.87005768,4715,4.9349,27.23
random512-10-0.map,random512-10-0.map.scen,4,BFS,1.0,109,True,52.0000,42.04163055,4758,5.0149,23.69
random512-10-0.map,random512-10-0.map.scen,4,BFS,1.0,110,True,62.0000,47.94112549,6774,7.5093,29.33
random512-10-0.map,random512-10-0.map.scen,4,BFS,1.0,111,True,52.0000,45.55634918,4618,4.7678,14.14
random512-10-0.map,random512-10-0.map.scen,4,BFS,1.0,112,True,58.0000,44.52691193,6056,6.6096,30.26
random512-10-0.map,random512-10-0.map.scen,4,BFS,1.0,113,True,51.0000,47.48528137,2804,3.0218,7.40
random512-10-0.map,random512-10-0.map.scen,4,BFS,1.0,114,True,62.0000,47.94112549,5724,6.1451,29.33
random512-10-0.map,random512-10-0.map.scen,4,BFS,1.0,115,True,51.0000,47.48528137,3630,3.7566,7.40
random512-10-0.map,random512-10-0.map.scen,4,BFS,1.0,116,True,48.0000,44.48528137,4079,4.4109,7.90
random512-10-0.map,random512-10-0.map.scen,4,BFS,1.0,117,True,57.0000,44.11269836,5772,6.2691,29.21
random512-10-0.map,random512-10-0.map.scen,4,BFS,1.0,118,True,56.0000,44.87005768,5162,5.6432,24.80
random512-10-0.map,random512-10-0.map.scen,4,BFS,1.0,119,True,48.0000,44.48528137,3280,3.5726,7.90
random512-10-0.map,random512-10-0.map.scen,4,BFS,1.0,120,True,50.0000,48.82842712,4462,4.7912,2.40
random512-10-0.map,random512-10-0.map.scen,4,BFS,1.0,121,True,52.0000,50.82842712,4251,4.4609,2.30
random512-10-0.map,random512-10-0.map.scen,4,BFS,1.0,122,True,60.0000,50.04163055,6324,7.3939,19.90
random512-10-0.map,random512-10-0.map.scen,4,BFS,1.0,123,True,64.0000,48.76955261,7142,7.5877,31.23
random512-10-0.map,random512-10-0.map.scen,4,BFS,1.0,124,True,56.0000,49.55634918,5472,6.8005,13.00
random512-10-0.map,random512-10-0.map.scen,4,BFS,1.0,125,True,58.0000,51.21320343,4833,4.9959,13.25
random512-10-0.map,random512-10-0.map.scen,4,BFS,1.0,126,True,52.0000,48.48528137,4819,5.3240,7.25
random512-10-0.map,random512-10-0.map.scen,4,BFS,1.0,127,True,67.0000,51.76955261,8000,8.7941,29.42
random512-10-0.map,random512-10-0.map.scen,4,BFS,1.0,128,True,53.0000,49.48528137,4900,5.3661,7.10
random512-10-0.map,random512-10-0.map.scen,4,BFS,1.0,129,True,64.0000,49.94112549,7213,7.8830,28.15
random512-10-0.map,random512-10-0.map.scen,4,BFS,1.0,130,True,58.0000,54.48528137,5817,6.1862,6.45
random512-10-0.map,random512-10-0.map.scen,4,BFS,1.0,131,True,71.0000,54.59797974,8797,9.3781,30.04
random512-10-0.map,random512-10-0.map.scen,4,BFS,1.0,132,True,64.0000,54.62741699,6310,6.8493,17.16
random512-10-0.map,random512-10-0.map.scen,4,BFS,1.0,133,True,60.0000,53.55634918,6347,6.7912,12.03
random512-10-0.map,random512-10-0.map.scen,4,BFS,1.0,134,True,59.0000,55.48528137,4999,5.3661,6.33
random512-10-0.map,random512-10-0.map.scen,4,BFS,1.0,135,True,63.0000,54.79898987,7154,7.6299,14.97
random512-10-0.map,random512-10-0.map.scen,4,BFS,1.0,136,True,59.0000,55.48528137,6097,6.6788,6.33
random512-10-0.map,random512-10-0.map.scen,4,BFS,1.0,137,True,62.0000,52.62741699,6733,7.1120,17.81
random512-10-0.map,random512-10-0.map.scen,4,BFS,1.0,138,True,54.0000,52.82842712,4643,5.0893,2.22
random512-10-0.map,random512-10-0.map.scen,4,BFS,1.0,139,True,71.0000,54.0121933,8798,9.2749,31.45
random512-10-0.map,random512-10-0.map.scen,4,BFS,1.0,140,True,69.0000,57.28427124,5766,6.3752,20.45
random512-10-0.map,random512-10-0.map.scen,4,BFS,1.0,141,True,73.0000,56.0121933,9303,10.0560,30.33
random512-10-0.map,random512-10-0.map.scen,4,BFS,1.0,142,True,78.0000,59.84062042,10790,11.9018,30.35
random512-10-0.map,random512-10-0.map.scen,4,BFS,1.0,143,True,74.0000,58.18376617,9538,10.1028,27.18
random512-10-0.map,random512-10-0.map.scen,4,BFS,1.0,144,True,66.0000,56.04163055,7842,8.1571,17.77
random512-10-0.map,random512-10-0.map.scen,4,BFS,1.0,145,True,71.0000,56.94112549,7850,8.2574,24.69
random512-10-0.map,random512-10-0.map.scen,4,BFS,1.0,146,True,64.0000,59.3137085,7140,7.5858,7.90
random512-10-0.map,random512-10-0.map.scen,4,BFS,1.0,147,True,61.0000,58.65685425,6662,7.2065,3.99
random512-10-0.map,random512-10-0.map.scen,4,BFS,1.0,148,True,76.0000,56.66904755,5592,5.7957,34.11
random512-10-0.map,random512-10-0.map.scen,4,BFS,1.0,149,True,77.0000,58.84062042,10519,11.5725,30.86
random512-10-0.map,random512-10-0.map.scen,4,BFS,1.0,150,True,66.0000,61.89949493,7696,8.0934,6.62
random512-10-0.map,random512-10-0.map.scen,4,BFS,1.0,151,True,75.0000,62.6984848,10001,10.6143,19.62
random512-10-0.map,random512-10-0.map.scen,4,BFS,1.0,152,True,77.0000,61.76955261,10389,11.3580,24.66
random512-10-0.map,random512-10-0.map.scen,4,BFS,1.0,153,True,74.0000,61.11269836,9513,9.8967,21.09
random512-10-0.map,random512-10-0.map.scen,4,BFS,1.0,154,True,75.0000,60.35533905,9924,11.7760,24.26
random512-10-0.map,random512-10-0.map.scen,4,BFS,1.0,155,True,75.0000,63.87005768,9693,11.0492,17.43
random512-10-0.map,random512-10-0.map.scen,4,BFS,1.0,156,True,74.0000,61.6984848,9351,10.1561,19.94
random512-10-0.map,random512-10-0.map.scen,4,BFS,1.0,157,True,76.0000,62.52691193,10163,11.2391,21.55
random512-10-0.map,random512-10-0.map.scen,4,BFS,1.0,158,True,69.0000,62.55634918,8280,8.8973,10.30
random512-10-0.map,random512-10-0.map.scen,4,BFS,1.0,159,True,75.0000,60.35533905,9942,10.4300,24.26
random512-10-0.map,random512-10-0.map.scen,4,BFS,1.0,160,True,69.0000,64.3137085,8401,9.0272,7.29
random512-10-0.map,random512-10-0.map.scen,4,BFS,1.0,161,True,77.0000,67.87005768,7428,7.6633,13.45
random512-10-0.map,random512-10-0.map.scen,4,BFS,1.0,162,True,83.0000,67.76955261,12081,12.9336,22.47
random512-10-0.map,random512-10-0.map.scen,4,BFS,1.0,163,True,70.0000,67.65685425,8706,9.3301,3.46
random512-10-0.map,random512-10-0.map.scen,4,BFS,1.0,164,True,83.0000,64.84062042,8854,10.1312,28.01
random512-10-0.map,random512-10-0.map.scen,4,BFS,1.0,165,True,86.0000,66.66904755,13221,14.0472,29.00
random512-10-0.map,random512-10-0.map.scen,4,BFS,1.0,166,True,82.0000,65.0121933,11807,12.7125,26.13
random512-10-0.map,random512-10-0.map.scen,4,BFS,1.0,167,True,83.0000,67.76955261,12277,13.8366,22.47
random512-10-0.map,random512-10-0.map.scen,4,BFS,1.0,168,True,75.0000,67.97056274,7108,7.7979,10.34
random512-10-0.map,random512-10-0.map.scen,4,BFS,1.0,169,True,71.0000,65.72792206,8806,9.6299,8.02
random512-10-0.map,random512-10-0.map.scen,4,BFS,1.0,170,True,74.0000,70.48528137,9629,10.3917,4.99
random512-10-0.map,random512-10-0.map.scen,4,BFS,1.0,171,True,76.0000,70.72792206,9785,10.8241,7.45
random512-10-0.map,random512-10-0.map.scen,4,BFS,1.0,172,True,83.0000,68.59797974,9366,10.0819,20.99
random512-10-0.map,random512-10-0.map.scen,4,BFS,1.0,173,True,87.0000,71.18376617,13281,14.8974,22.22
random512-10-0.map,random512-10-0.map.scen,4,BFS,1.0,174,True,71.0000,68.07106781,8844,9.9448,4.30
random512-10-0.map,random512-10-0.map.scen,4,BFS,1.0,175,True,79.0000,68.45584412,9669,11.0621,15.40
random512-10-0.map,random512-10-0.map.scen,4,BFS,1.0,176,True,73.0000,68.3137085,9226,11.9495,6.86
random512-10-0.map,random512-10-0.map.scen,4,BFS,1.0,177,True,92.0000,69.74011536,14975,16.2945,31.92
random512-10-0.map,random512-10-0.map.scen,4,BFS,1.0,178,True,90.0000,71.25483398,10386,11.6653,26.31
random512-10-0.map,random512-10-0.map.scen,4,BFS,1.0,179,True,77.0000,71.72792206,10554,11.8602,7.35
random512-10-0.map,random512-10-0.map.scen,4,BFS,1.0,180,True,97.0000,74.15432892,14836,16.1787,30.81
random512-10-0.map,random512-10-0.map.scen,4,BFS,1.0,181,True,77.0000,72.3137085,9581,16.8117,6.48
random512-10-0.map,random512-10-0.map.scen,4,BFS,1.0,182,True,96.0000,73.15432892,9903,10.6861,31.23
random512-10-0.map,random512-10-0.map.scen,4,BFS,1.0,183,True,85.0000,72.35533905,12807,14.2573,17.48
random512-10-0.map,random512-10-0.map.scen,4,BFS,1.0,184,True,85.0000,72.6984848,7302,7.8362,16.92
random512-10-0.map,random512-10-0.map.scen,4,BFS,1.0,185,True,83.0000,73.04163055,12223,14.2267,13.63
random512-10-0.map,random512-10-0.map.scen,4,BFS,1.0,186,True,91.0000,72.84062042,14684,15.3073,24.93
random512-10-0.map,random512-10-0.map.scen,4,BFS,1.0,187,True,86.0000,72.52691193,13192,14.6031,18.58
random512-10-0.map,random512-10-0.map.scen,4,BFS,1.0,188,True,95.0000,73.91168823,15307,16.1605,28.53
random512-10-0.map,random512-10-0.map.scen,4,BFS,1.0,189,True,91.0000,72.25483398,7414,7.8516,25.94
random512-10-0.map,random512-10-0.map.scen,4,BFS,1.0,190,True,89.0000,76.11269836,13995,15.2915,16.93
random512-10-0.map,random512-10-0.map.scen,4,BFS,1.0,191,True,97.0000,77.66904755,13763,14.3255,24.89
random512-10-0.map,random512-10-0.map.scen,4,BFS,1.0,192,True,94.0000,76.42640686,11638,12.0990,22.99
random512-10-0.map,random512-10-0.map.scen,4,BFS,1.0,193,True,86.0000,79.55634918,13086,13.8204,8.10
random512-10-0.map,random512-10-0.map.scen,4,BFS,1.0,194,True,85.0000,77.97056274,12392,13.8810,9.02
random512-10-0.map,random512-10-0.map.scen,4,BFS,1.0,195,True,95.0000,78.0121933,10126,10.7409,21.78
random512-10-0.map,random512-10-0.map.scen,4,BFS,1.0,196,True,88.0000,78.04163055,13688,14.0141,12.76
random512-10-0.map,random512-10-0.map.scen,4,BFS,1.0,197,True,92.0000,77.94112549,15066,16.2343,18.04
random512-10-0.map,random512-10-0.map.scen,4,BFS,1.0,198,True,103.0000,77.81118317,18983,19.1133,32.37
random512-10-0.map,random512-10-0.map.scen,4,BFS,1.0,199,True,101.0000,76.98275604,18255,18.5670,31.20
random512-10-0.map,random512-10-0.map.scen,4,BFS,1.0,200,True,102.0000,82.08326111,9861,10.8754,24.26
random512-10-0.map,random512-10-0.map.scen,4,BFS,1.0,201,True,112.0000,83.88225098,13646,14.3456,33.52
random512-10-0.map,random512-10-0.map.scen,4,BFS,1.0,202,True,90.0000,80.62741699,13460,14.5202,11.62
random512-10-0.map,random512-10-0.map.scen,4,BFS,1.0,203,True,109.0000,82.05382385,12713,14.3374,32.84
random512-10-0.map,random512-10-0.map.scen,4,BFS,1.0,204,True,107.0000,82.3969696,12845,13.7368,29.86
random512-10-0.map,random512-10-0.map.scen,4,BFS,1.0,205,True,86.0000,82.48528137,13023,14.1591,4.26
random512-10-0.map,random512-10-0.map.scen,4,BFS,1.0,206,True,92.0000,80.28427124,15012,15.8018,14.59
random512-10-0.map,random512-10-0.map.scen,4,BFS,1.0,207,True,101.0000,81.66904755,11134,12.6974,23.67
random512-10-0.map,random512-10-0.map.scen,4,BFS,1.0,208,True,100.0000,83.59797974,16563,17.5321,19.62
random512-10-0.map,random512-10-0.map.scen,4,BFS,1.0,209,True,88.0000,82.14213562,7492,7.8680,7.13
random512-10-0.map,random512-10-0.map.scen,4,BFS,1.0,210,True,90.0000,85.3137085,8232,10.1796,5.49
random512-10-0.map,random512-10-0.map.scen,4,BFS,1.0,211,True,113.0000,87.22539673,22791,25.0572,29.55
random512-10-0.map,random512-10-0.map.scen,4,BFS,1.0,212,True,90.0000,85.3137085,14141,14.9214,5.49
random512-10-0.map,random512-10-0.map.scen,4,BFS,1.0,213,True,91.0000,86.3137085,13563,15.2483,5.43
random512-10-0.map,random512-10-0.map.scen,4,BFS,1.0,214,True,100.0000,84.18376617,17753,18.3044,18.79
random512-10-0.map,random512-10-0.map.scen,4,BFS,1.0,215,True,93.0000,86.55634918,15359,17.0721,7.44
random512-10-0.map,random512-10-0.map.scen,4,BFS,1.0,216,True,106.0000,87.25483398,19948,20.8710,21.48
random512-10-0.map,random512-10-0.map.scen,4,BFS,1.0,217,True,110.0000,84.81118317,20709,23.3742,29.70
random512-10-0.map,random512-10-0.map.scen,4,BFS,1.0,218,True,98.0000,84.18376617,16850,18.3437,16.41
random512-10-0.map,random512-10-0.map.scen,4,BFS,1.0,219,True,92.0000,87.89949493,15022,16.2704,4.66
random512-10-0.map,random512-10-0.map.scen,4,BFS,1.0,220,True,100.0000,91.79898987,17534,19.8351,8.93
random512-10-0.map,random512-10-0.map.scen,4,BFS,1.0,221,True,101.0000,91.62741699,14100,15.1144,10.23
random512-10-0.map,random512-10-0.map.scen,4,BFS,1.0,222,True,113.0000,88.05382385,22908,24.5203,28.33
random512-10-0.map,random512-10-0.map.scen,4,BFS,1.0,223,True,95.0000,91.48528137,15803,17.3628,3.84
random512-10-0.map,random512-10-0.map.scen,4,BFS,1.0,224,True,100.0000,88.87005768,15710,16.8806,12.52
random512-10-0.map,random512-10-0.map.scen,4,BFS,1.0,225,True,110.0000,88.32590179,21666,23.9120,24.54
random512-10-0.map,random512-10-0.map.scen,4,BFS,1.0,226,True,96.0000,90.14213562,16481,17.5874,6.50
random512-10-0.map,random512-10-0.map.scen,4,BFS,1.0,227,True,94.0000,88.72792206,15575,16.8705,5.94
random512-10-0.map,random512-10-0.map.scen,4,BFS,1.0,228,True,117.0000,88.88225098,24260,26.5818,31.63
random512-10-0.map,random512-10-0.map.scen,4,BFS,1.0,229,True,95.0000,89.72792206,13072,14.6190,5.88
random512-10-0.map,random512-10-0.map.scen,4,BFS,1.0,230,True,106.0000,93.11269836,19543,20.4467,13.84
random512-10-0.map,random512-10-0.map.scen,4,BFS,1.0,231,True,100.0000,94.72792206,17019,17.3174,5.57
random512-10-0.map,random512-10-0.map.scen,4,BFS,1.0,232,True,122.0000,95.05382385,24857,25.1707,28.35
random512-10-0.map,random512-10-0.map.scen,4,BFS,1.0,233,True,121.0000,93.46803741,25952,26.2108,29.46
random512-10-0.map,random512-10-0.map.scen,4,BFS,1.0,234,True,124.0000,94.7106781,27297,29.4989,30.93
random512-10-0.map,random512-10-0.map.scen,4,BFS,1.0,235,True,109.0000,95.52691193,21208,22.3771,14.10
random512-10-0.map,random512-10-0.map.scen,4,BFS,1.0,236,True,105.0000,94.45584412,19601,20.3250,11.16
random512-10-0.map,random512-10-0.map.scen,4,BFS,1.0,237,True,124.0000,94.7106781,27164,27.6135,30.93
random512-10-0.map,random512-10-0.map.scen,4,BFS,1.0,238,True,125.0000,95.95331879,27951,29.1773,30.27
random512-10-0.map,random512-10-0.map.scen,4,BFS,1.0,239,True,101.0000,95.72792206,17946,18.2780,5.51
random512-10-0.map,random512-10-0.map.scen,4,BFS,1.0,240,True,124.0000,99.98275604,19606,19.8396,24.02
random512-10-0.map,random512-10-0.map.scen,4,BFS,1.0,241,True,122.0000,96.22539673,26253,26.5272,26.79
random512-10-0.map,random512-10-0.map.scen,4,BFS,1.0,242,True,126.0000,97.29646454,23342,24.8690,29.50
random512-10-0.map,random512-10-0.map.scen,4,BFS,1.0,243,True,126.0000,99.63961029,22173,22.8268,26.46
random512-10-0.map,random512-10-0.map.scen,4,BFS,1.0,244,True,102.0000,97.3137085,18437,18.6982,4.82
random512-10-0.map,random512-10-0.map.scen,4,BFS,1.0,245,True,104.0000,97.55634918,18902,19.0600,6.61
random512-10-0.map,random512-10-0.map.scen,4,BFS,1.0,246,True,105.0000,99.72792206,19367,20.5438,5.29
random512-10-0.map,random512-10-0.map.scen,4,BFS,1.0,247,True,105.0000,96.21320343,19552,19.7831,9.13
random512-10-0.map,random512-10-0.map.scen,4,BFS,1.0,248,True,126.0000,97.29646454,26871,28.2627,29.50
random512-10-0.map,random512-10-0.map.scen,4,BFS,1.0,249,True,107.0000,99.97056274,20225,21.0871,7.03
random512-10-0.map,random512-10-0.map.scen,4,BFS,1.0,250,True,136.0000,102.0243866,32691,34.0363,33.30
random512-10-0.map,random512-10-0.map.scen,4,BFS,1.0,251,True,133.0000,103.12489166,26887,27.4972,28.97
random512-10-0.map,random512-10-0.map.scen,4,BFS,1.0,252,True,115.0000,100.35533905,23349,24.1901,14.59
random512-10-0.map,random512-10-0.map.scen,4,BFS,1.0,253,True,108.0000,101.55634918,20913,21.5700,6.34
random512-10-0.map,random512-10-0.map.scen,4,BFS,1.0,254,True,113.0000,101.87005768,22201,24.8150,10.93
random512-10-0.map,random512-10-0.map.scen,4,BFS,1.0,255,True,112.0000,103.79898987,17713,17.6144,7.90
random512-10-0.map,random512-10-0.map.scen,4,BFS,1.0,256,True,110.0000,102.97056274,18222,18.3873,6.83
random512-10-0.map,random512-10-0.map.scen,4,BFS,1.0,257,True,128.0000,101.63961029,29218,29.6445,25.94
random512-10-0.map,random512-10-0.map.scen,4,BFS,1.0,258,True,105.0000,100.89949493,9520,10.5441,4.06
random512-10-0.map,random512-10-0.map.scen,4,BFS,1.0,259,True,108.0000,101.55634918,13240,13.5003,6.34
random512-10-0.map,random512-10-0.map.scen,4,BFS,1.0,260,True,111.0000,106.55634918,17848,18.0573,4.17
random512-10-0.map,random512-10-0.map.scen,4,BFS,1.0,261,True,137.0000,106.53910522,24362,24.9203,28.59
random512-10-0.map,random512-10-0.map.scen,4,BFS,1.0,262,True,143.0000,107.85281372,33345,33.5688,32.59
random512-10-0.map,random512-10-0.map.scen,4,BFS,1.0,263,True,129.0000,104.3969696,29376,30.2385,23.57
random512-10-0.map,random512-10-0.map.scen,4,BFS,1.0,264,True,139.0000,106.19595947,30477,30.6486,30.89
random512-10-0.map,random512-10-0.map.scen,4,BFS,1.0,265,True,121.0000,105.18376617,25970,26.8235,15.04
random512-10-0.map,random512-10-0.map.scen,4,BFS,1.0,266,True,132.0000,106.22539673,30715,31.1446,24.26
random512-10-0.map,random512-10-0.map.scen,4,BFS,1.0,267,True,111.0000,105.14213562,16820,16.9939,5.57
random512-10-0.map,random512-10-0.map.scen,4,BFS,1.0,268,True,142.0000,106.85281372,35605,35.8490,32.89
random512-10-0.map,random512-10-0.map.scen,4,BFS,1.0,269,True,130.0000,104.22539673,29560,30.7425,24.73
random512-10-0.map,random512-10-0.map.scen,4,BFS,1.0,270,True,133.0000,109.22539673,24187,25.0381,21.77
random512-10-0.map,random512-10-0.map.scen,4,BFS,1.0,271,True,117.0000,108.21320343,24489,25.2368,8.12
random512-10-0.map,random512-10-0.map.scen,4,BFS,1.0,272,True,134.0000,110.56854248,29830,30.3768,21.19
random512-10-0.map,random512-10-0.map.scen,4,BFS,1.0,273,True,133.0000,111.32590179,30168,30.6193,19.47
random512-10-0.map,random512-10-0.map.scen,4,BFS,1.0,274,True,132.0000,108.56854248,30892,31.3998,21.58
random512-10-0.map,random512-10-0.map.scen,4,BFS,1.0,275,True,145.0000,108.68124084,34221,34.2992,33.42
random512-10-0.map,random512-10-0.map.scen,4,BFS,1.0,276,True,143.0000,109.61017303,19042,18.9874,30.46
random512-10-0.map,random512-10-0.map.scen,4,BFS,1.0,277,True,142.0000,110.95331879,29119,30.6166,27.98
random512-10-0.map,random512-10-0.map.scen,4,BFS,1.0,278,True,115.0000,109.14213562,23436,25.2003,5.37
random512-10-0.map,random512-10-0.map.scen,4,BFS,1.0,279,True,141.0000,111.12489166,34975,35.0545,26.88
random512-10-0.map,random512-10-0.map.scen,4,BFS,1.0,280,True,126.0000,114.87005768,28123,28.3338,9.69
random512-10-0.map,random512-10-0.map.scen,4,BFS,1.0,281,True,153.0000,115.50966797,37582,38.8025,32.46
random512-10-0.map,random512-10-0.map.scen,4,BFS,1.0,282,True,123.0000,115.38477631,26855,27.6871,6.60
random512-10-0.map,random512-10-0.map.scen,4,BFS,1.0,283,True,122.0000,112.62741699,26340,26.9486,8.32
random512-10-0.map,random512-10-0.map.scen,4,BFS,1.0,284,True,119.0000,113.14213562,25043,27.1751,5.18
random512-10-0.map,random512-10-0.map.scen,4,BFS,1.0,285,True,151.0000,114.68124084,40374,40.8349,31.67
random512-10-0.map,random512-10-0.map.scen,4,BFS,1.0,286,True,124.0000,115.21320343,21003,21.8418,7.63
random512-10-0.map,random512-10-0.map.scen,4,BFS,1.0,287,True,142.0000,114.46803741,23256,24.7418,24.05
random512-10-0.map,random512-10-0.map.scen,4,BFS,1.0,288,True,150.0000,114.85281372,39937,40.2713,30.60
random512-10-0.map,random512-10-0.map.scen,4,BFS,1.0,289,True,143.0000,114.29646454,34077,34.1510,25.11
random512-10-0.map,random512-10-0.map.scen,4,BFS,1.0,290,True,127.0000,119.97056274,28398,30.1208,5.86
random512-10-0.map,random512-10-0.map.scen,4,BFS,1.0,291,True,134.0000,116.42640686,24226,25.1289,15.09
random512-10-0.map,random512-10-0.map.scen,4,BFS,1.0,292,True,138.0000,118.08326111,22662,24.8311,16.87
random512-10-0.map,random512-10-0.map.scen,4,BFS,1.0,293,True,147.0000,118.88225098,38204,40.9853,23.65
random512-10-0.map,random512-10-0.map.scen,4,BFS,1.0,294,True,149.0000,116.19595947,39200,43.6917,28.23
random512-10-0.map,random512-10-0.map.scen,4,BFS,1.0,295,True,148.0000,119.29646454,38679,41.6406,24.06
random512-10-0.map,random512-10-0.map.scen,4,BFS,1.0,296,True,151.0000,117.0243866,32962,36.3409,29.03
random512-10-0.map,random512-10-0.map.scen,4,BFS,1.0,297,True,126.0000,118.97056274,19694,21.3711,5.91
random512-10-0.map,random512-10-0.map.scen,4,BFS,1.0,298,True,151.0000,117.0243866,38195,40.3196,29.03
random512-10-0.map,random512-10-0.map.scen,4,BFS,1.0,299,True,126.0000,116.62741699,26146,28.9242,8.04
random512-10-0.map,random512-10-0.map.scen,4,BFS,1.0,300,True,153.0000,121.36753235,36428,38.8711,26.06
random512-10-0.map,random512-10-0.map.scen,4,BFS,1.0,301,True,156.0000,122.0243866,37018,38.9242,27.84
random512-10-0.map,random512-10-0.map.scen,4,BFS,1.0,302,True,137.0000,122.94112549,33010,37.5929,11.44
random512-10-0.map,random512-10-0.map.scen,4,BFS,1.0,303,True,128.0000,122.14213562,19059,20.6698,4.80
random512-10-0.map,random512-10-0.map.scen,4,BFS,1.0,304,True,157.0000,121.85281372,36756,49.1801,28.84
random512-10-0.map,random512-10-0.map.scen,4,BFS,1.0,305,True,132.0000,122.87005768,26292,30.7062,7.43
random512-10-0.map,random512-10-0.map.scen,4,BFS,1.0,306,True,162.0000,123.33809509,24779,28.1614,31.35
random512-10-0.map,random512-10-0.map.scen,4,BFS,1.0,307,True,141.0000,121.08326111,20632,23.3991,16.45
random512-10-0.map,random512-10-0.map.scen,4,BFS,1.0,308,True,130.0000,122.38477631,18481,20.3712,6.22
random512-10-0.map,random512-10-0.map.scen,4,BFS,1.0,309,True,160.0000,120.75230865,24948,26.6215,32.50
random512-10-0.map,random512-10-0.map.scen,4,BFS,1.0,310,True,144.0000,127.59797974,36621,40.3144,12.85
random512-10-0.map,random512-10-0.map.scen,4,BFS,1.0,311,True,164.0000,125.33809509,20829,24.0346,30.85
random512-10-0.map,random512-10-0.map.scen,4,BFS,1.0,312,True,137.0000,124.11269836,33303,37.6471,10.38
random512-10-0.map,random512-10-0.map.scen,4,BFS,1.0,313,True,154.0000,124.7106781,41572,51.3436,23.49
random512-10-0.map,random512-10-0.map.scen,4,BFS,1.0,314,True,135.0000,125.62741699,32048,36.7246,7.46
random512-10-0.map,random512-10-0.map.scen,4,BFS,1.0,315,True,136.0000,126.62741699,32311,37.0126,7.40
random512-10-0.map,random512-10-0.map.scen,4,BFS,1.0,316,True,147.0000,124.15432892,37327,68.6989,18.40
random512-10-0.map,random512-10-0.map.scen,4,BFS,1.0,317,True,163.0000,126.68124084,47522,58.4868,28.67
random512-10-0.map,random512-10-0.map.scen,4,BFS,1.0,318,True,152.0000,124.46803741,41069,43.3807,22.12
random512-10-0.map,random512-10-0.map.scen,4,BFS,1.0,319,True,145.0000,126.84062042,37097,39.2356,14.32
random512-10-0.map,random512-10-0.map.scen,4,BFS,1.0,320,True,143.0000,129.52691193,21283,23.0800,10.40
random512-10-0.map,random512-10-0.map.scen,4,BFS,1.0,321,True,145.0000,129.76955261,30703,32.4811,11.74
random512-10-0.map,random512-10-0.map.scen,4,BFS,1.0,322,True,145.0000,130.35533905,37306,39.6348,11.23
random512-10-0.map,random512-10-0.map.scen,4,BFS,1.0,323,True,174.0000,131.23759003,49988,56.1703,32.58
random512-10-0.map,random512-10-0.map.scen,4,BFS,1.0,324,True,130.0000,128.24264069,27563,33.9132,1.37
random512-10-0.map,random512-10-0.map.scen,4,BFS,1.0,325,True,170.0000,130.16652222,50857,57.2909,30.60
random512-10-0.map,random512-10-0.map.scen,4,BFS,1.0,326,True,137.0000,131.14213562,33326,35.9085,4.47
random512-10-0.map,random512-10-0.map.scen,4,BFS,1.0,327,True,149.0000,129.66904755,39171,43.1250,14.91
random512-10-0.map,random512-10-0.map.scen,4,BFS,1.0,328,True,148.0000,129.25483398,33282,35.4358,14.50
random512-10-0.map,random512-10-0.map.scen,4,BFS,1.0,329,True,163.0000,131.95331879,41149,42.4118,23.53
random512-10-0.map,random512-10-0.map.scen,4,BFS,1.0,330,True,145.0000,132.6984848,29660,30.4916,9.27
random512-10-0.map,random512-10-0.map.scen,4,BFS,1.0,331,True,149.0000,134.94112549,31791,33.8773,10.42
random512-10-0.map,random512-10-0.map.scen,4,BFS,1.0,332,True,170.0000,133.09545441,38081,39.1305,27.73
random512-10-0.map,random512-10-0.map.scen,4,BFS,1.0,333,True,161.0000,134.05382385,46301,49.3325,20.10
random512-10-0.map,random512-10-0.map.scen,4,BFS,1.0,334,True,150.0000,134.18376617,39947,41.2290,11.79
random512-10-0.map,random512-10-0.map.scen,4,BFS,1.0,335,True,167.0000,133.61017303,49179,51.3560,24.99
random512-10-0.map,random512-10-0.map.scen,4,BFS,1.0,336,True,175.0000,134.58073578,37815,39.7668,30.03
random512-10-0.map,random512-10-0.map.scen,4,BFS,1.0,337,True,161.0000,135.81118317,25986,27.1040,18.55
random512-10-0.map,random512-10-0.map.scen,4,BFS,1.0,338,True,167.0000,134.19595947,47997,52.9431,24.44
random512-10-0.map,random512-10-0.map.scen,4,BFS,1.0,339,True,176.0000,134.4091629,43322,47.0526,30.94
random512-10-0.map,random512-10-0.map.scen,4,BFS,1.0,340,True,172.0000,137.43860016,48043,49.6563,25.15
random512-10-0.map,random512-10-0.map.scen,4,BFS,1.0,341,True,154.0000,137.59797974,41336,41.9654,11.92
random512-10-0.map,random512-10-0.map.scen,4,BFS,1.0,342,True,145.0000,138.55634918,21035,22.0187,4.65
random512-10-0.map,random512-10-0.map.scen,4,BFS,1.0,343,True,180.0000,137.23759003,31162,31.9628,31.16
random512-10-0.map,random512-10-0.map.scen,4,BFS,1.0,344,True,178.0000,139.92388153,50424,53.4734,27.21
random512-10-0.map,random512-10-0.map.scen,4,BFS,1.0,345,True,178.0000,138.75230865,35514,36.1245,28.29
random512-10-0.map,random512-10-0.map.scen,4,BFS,1.0,346,True,148.0000,136.87005768,38665,38.9587,8.13
random512-10-0.map,random512-10-0.map.scen,4,BFS,1.0,347,True,179.0000,139.75230865,56124,57.9944,28.08
random512-10-0.map,random512-10-0.map.scen,4,BFS,1.0,348,True,158.0000,136.91168823,43304,45.2199,15.40
random512-10-0.map,random512-10-0.map.scen,4,BFS,1.0,349,True,185.0000,139.89444427,60976,61.6552,32.24
random512-10-0.map,random512-10-0.map.scen,4,BFS,1.0,350,True,184.0000,142.4091629,58337,58.6965,29.21
random512-10-0.map,random512-10-0.map.scen,4,BFS,1.0,351,True,189.0000,142.7228714,32847,33.4638,32.42
random512-10-0.map,random512-10-0.map.scen,4,BFS,1.0,352,True,181.0000,142.33809509,36707,37.3976,27.16
random512-10-0.map,random512-10-0.map.scen,4,BFS,1.0,353,True,184.0000,142.99494934,32210,32.9334,28.68
random512-10-0.map,random512-10-0.map.scen,4,BFS,1.0,354,True,156.0000,143.11269836,42921,45.3407,9.01
random512-10-0.map,random512-10-0.map.scen,4,BFS,1.0,355,True,147.0000,141.72792206,30740,31.4384,3.72
random512-10-0.map,random512-10-0.map.scen,4,BFS,1.0,356,True,153.0000,143.62741699,41750,44.2530,6.53
random512-10-0.map,random512-10-0.map.scen,4,BFS,1.0,357,True,184.0000,142.4091629,59880,60.6657,29.21
random512-10-0.map,random512-10-0.map.scen,4,BFS,1.0,358,True,152.0000,143.21320343,35090,35.4042,6.14
random512-10-0.map,random512-10-0.map.scen,4,BFS,1.0,359,True,184.0000,143.58073578,60002,61.6333,28.15
random512-10-0.map,random512-10-0.map.scen,4,BFS,1.0,360,True,156.0000,146.62741699,39782,40.3906,6.39
random512-10-0.map,random512-10-0.map.scen,4,BFS,1.0,361,True,164.0000,144.66904755,47560,49.5479,13.36
random512-10-0.map,random512-10-0.map.scen,4,BFS,1.0,362,True,173.0000,144.88225098,51136,53.4604,19.41
random512-10-0.map,random512-10-0.map.scen,4,BFS,1.0,363,True,192.0000,146.89444427,46653,59.2076,30.71
random512-10-0.map,random512-10-0.map.scen,4,BFS,1.0,364,True,167.0000,145.91168823,49844,54.4161,14.45
random512-10-0.map,random512-10-0.map.scen,4,BFS,1.0,365,True,190.0000,146.65180359,63963,64.9539,29.56
random512-10-0.map,random512-10-0.map.scen,4,BFS,1.0,366,True,188.0000,145.23759003,41587,42.5776,29.44
random512-10-0.map,random512-10-0.map.scen,4,BFS,1.0,367,True,195.0000,146.96551208,42472,45.0354,32.68
random512-10-0.map,random512-10-0.map.scen,4,BFS,1.0,368,True,191.0000,147.06601715,56868,58.3455,29.87
random512-10-0.map,random512-10-0.map.scen,4,BFS,1.0,369,True,178.0000,147.53910522,29406,30.3177,20.65
random512-10-0.map,random512-10-0.map.scen,4,BFS,1.0,370,True,176.0000,150.22539673,52884,56.7110,17.16
random512-10-0.map,random512-10-0.map.scen,4,BFS,1.0,371,True,180.0000,149.53910522,30273,35.0128,20.37
random512-10-0.map,random512-10-0.map.scen,4,BFS,1.0,372,True,195.0000,150.96551208,54103,61.6500,29.17
random512-10-0.map,random512-10-0.map.scen,4,BFS,1.0,373,True,156.0000,149.55634918,41046,46.3971,4.31
random512-10-0.map,random512-10-0.map.scen,4,BFS,1.0,374,True,163.0000,149.52691193,45874,52.5038,9.01
random512-10-0.map,random512-10-0.map.scen,4,BFS,1.0,375,True,162.0000,149.11269836,39540,44.3187,8.64
random512-10-0.map,random512-10-0.map.scen,4,BFS,1.0,376,True,174.0000,148.22539673,40109,43.5139,17.39
random512-10-0.map,random512-10-0.map.scen,4,BFS,1.0,377,True,198.0000,151.13708496,68169,73.5272,31.01
random512-10-0.map,random512-10-0.map.scen,4,BFS,1.0,378,True,190.0000,148.99494934,59548,64.6481,27.52
random512-10-0.map,random512-10-0.map.scen,4,BFS,1.0,379,True,174.0000,150.56854248,53685,58.8012,15.56
random512-10-0.map,random512-10-0.map.scen,4,BFS,1.0,380,True,195.0000,152.82337646,57982,61.7165,27.60
random512-10-0.map,random512-10-0.map.scen,4,BFS,1.0,381,True,172.0000,152.08326111,46789,51.2901,13.10
random512-10-0.map,random512-10-0.map.scen,4,BFS,1.0,382,True,177.0000,153.56854248,55708,59.2639,15.26
random512-10-0.map,random512-10-0.map.scen,4,BFS,1.0,383,True,166.0000,154.28427124,40668,43.8612,7.59
random512-10-0.map,random512-10-0.map.scen,4,BFS,1.0,384,True,178.0000,152.81118317,44612,49.9360,16.48
random512-10-0.map,random512-10-0.map.scen,4,BFS,1.0,385,True,167.0000,152.94112549,49745,55.9902,9.19
random512-10-0.map,random512-10-0.map.scen,4,BFS,1.0,386,True,176.0000,155.49747467,40579,44.0937,13.19
random512-10-0.map,random512-10-0.map.scen,4,BFS,1.0,387,True,166.0000,153.11269836,38482,42.4520,8.42
random512-10-0.map,random512-10-0.map.scen,4,BFS,1.0,388,True,176.0000,152.56854248,31745,35.1145,15.36
random512-10-0.map,random512-10-0.map.scen,4,BFS,1.0,389,True,200.0000,154.30865784,70058,74.9531,29.61
random512-10-0.map,random512-10-0.map.scen,4,BFS,1.0,390,True,196.0000,156.16652222,67950,71.6513,25.51
random512-10-0.map,random512-10-0.map.scen,4,BFS,1.0,391,True,208.0000,159.96551208,41381,44.9796,30.03
random512-10-0.map,random512-10-0.map.scen,4,BFS,1.0,392,True,186.0000,159.05382385,30651,33.2789,16.94
random512-10-0.map,random512-10-0.map.scen,4,BFS,1.0,393,True,208.0000,159.37972565,42585,46.7707,30.51
random512-10-0.map,random512-10-0.map.scen,4,BFS,1.0,394,True,179.0000,157.32590179,54811,58.3226,13.78
random512-10-0.map,random512-10-0.map.scen,4,BFS,1.0,395,True,206.0000,159.7228714,74778,78.8215,28.97
random512-10-0.map,random512-10-0.map.scen,4,BFS,1.0,396,True,207.0000,157.79393921,73880,77.4045,31.18
random512-10-0.map,random512-10-0.map.scen,4,BFS,1.0,397,True,207.0000,158.37972565,76352,81.2983,30.70
random512-10-0.map,random512-10-0.map.scen,4,BFS,1.0,398,True,176.0000,157.25483398,47236,52.4452,11.92
random512-10-0.map,random512-10-0.map.scen,4,BFS,1.0,399,True,174.0000,157.0121933,51508,56.7480,10.82
random512-10-0.map,random512-10-0.map.scen,4,BFS,1.0,400,True,175.0000,161.52691193,23999,27.4361,8.34
random512-10-0.map,random512-10-0.map.scen,4,BFS,1.0,401,True,192.0000,162.7106781,63263,67.3818,18.00
random512-10-0.map,random512-10-0.map.scen,4,BFS,1.0,402,True,182.0000,163.25483398,58553,62.9909,11.48
random512-10-0.map,random512-10-0.map.scen,4,BFS,1.0,403,True,215.0000,160.52186127,52454,56.2133,33.94
random512-10-0.map,random512-10-0.map.scen,4,BFS,1.0,404,True,186.0000,161.3969696,50863,54.5597,15.24
random512-10-0.map,random512-10-0.map.scen,4,BFS,1.0,405,True,186.0000,161.3969696,30777,32.6572,15.24
random512-10-0.map,random512-10-0.map.scen,4,BFS,1.0,406,True,203.0000,161.4091629,36723,38.7781,25.77
random512-10-0.map,random512-10-0.map.scen,4,BFS,1.0,407,True,192.0000,163.88225098,65329,68.8388,17.16
random512-10-0.map,random512-10-0.map.scen,4,BFS,1.0,408,True,211.0000,160.03657989,72039,75.3988,31.84
random512-10-0.map,random512-10-0.map.scen,4,BFS,1.0,409,True,209.0000,162.13708496,55221,59.5188,28.90
random512-10-0.map,random512-10-0.map.scen,4,BFS,1.0,410,True,211.0000,167.06601715,74866,78.5796,26.30
random512-10-0.map,random512-10-0.map.scen,4,BFS,1.0,411,True,201.0000,165.85281372,63201,66.5870,21.19
random512-10-0.map,random512-10-0.map.scen,4,BFS,1.0,412,True,219.0000,164.52186127,83208,86.4792,33.11
random512-10-0.map,random512-10-0.map.scen,4,BFS,1.0,413,True,172.0000,164.38477631,45324,49.5721,4.63
random512-10-0.map,random512-10-0.map.scen,4,BFS,1.0,414,True,188.0000,165.74011536,33005,35.0451,13.43
random512-10-0.map,random512-10-0.map.scen,4,BFS,1.0,415,True,192.0000,167.3969696,43681,48.3424,14.70
random512-10-0.map,random512-10-0.map.scen,4,BFS,1.0,416,True,174.0000,166.62741699,38372,41.0404,4.42
random512-10-0.map,random512-10-0.map.scen,4,BFS,1.0,417,True,173.0000,164.21320343,30273,32.4901,5.35
random512-10-0.map,random512-10-0.map.scen,4,BFS,1.0,418,True,220.0000,167.27922058,79193,82.5106,31.52
random512-10-0.map,random512-10-0.map.scen,4,BFS,1.0,419,True,207.0000,165.4091629,69084,72.1788,25.14
random512-10-0.map,random512-10-0.map.scen,4,BFS,1.0,420,True,197.0000,170.05382385,51902,56.6436,15.85
random512-10-0.map,random512-10-0.map.scen,4,BFS,1.0,421,True,179.0000,168.45584412,55051,59.0361,6.26
random512-10-0.map,random512-10-0.map.scen,4,BFS,1.0,422,True,223.0000,168.52186127,87914,95.9705,32.33
random512-10-0.map,random512-10-0.map.scen,4,BFS,1.0,423,True,220.0000,171.37972565,78932,83.3535,28.37
random512-10-0.map,random512-10-0.map.scen,4,BFS,1.0,424,True,226.0000,171.52186127,79687,82.5665,31.76
random512-10-0.map,random512-10-0.map.scen,4,BFS,1.0,425,True,183.0000,168.94112549,55447,59.6564,8.32
random512-10-0.map,random512-10-0.map.scen,4,BFS,1.0,426,True,219.0000,169.20815277,72299,76.1907,29.43
random512-10-0.map,random512-10-0.map.scen,4,BFS,1.0,427,True,225.0000,171.1076477,75683,80.2072,31.50
random512-10-0.map,random512-10-0.map.scen,4,BFS,1.0,428,True,216.0000,170.30865784,45075,50.0114,26.83
random512-10-0.map,random512-10-0.map.scen,4,BFS,1.0,429,True,207.0000,169.50966797,76330,79.7583,22.12
random512-10-0.map,random512-10-0.map.scen,4,BFS,1.0,430,True,188.0000,173.94112549,58426,62.4458,8.08
random512-10-0.map,random512-10-0.map.scen,4,BFS,1.0,431,True,199.0000,173.81118317,41557,43.4985,14.49
random512-10-0.map,random512-10-0.map.scen,4,BFS,1.0,432,True,200.0000,175.98275604,49071,53.0221,13.65
random512-10-0.map,random512-10-0.map.scen,4,BFS,1.0,433,True,221.0000,172.37972565,41025,43.1939,28.21
random512-10-0.map,random512-10-0.map.scen,4,BFS,1.0,434,True,190.0000,172.42640686,64106,67.9858,10.19
random512-10-0.map,random512-10-0.map.scen,4,BFS,1.0,435,True,225.0000,175.79393921,53946,57.7042,27.99
random512-10-0.map,random512-10-0.map.scen,4,BFS,1.0,436,True,211.0000,175.85281372,56619,60.2272,19.99
random512-10-0.map,random512-10-0.map.scen,4,BFS,1.0,437,True,201.0000,175.81118317,38284,41.6184,14.33
random512-10-0.map,random512-10-0.map.scen,4,BFS,1.0,438,True,187.0000,172.94112549,62021,66.2433,8.13
random512-10-0.map,random512-10-0.map.scen,4,BFS,1.0,439,True,199.0000,173.22539673,69752,73.6184,14.88
random512-10-0.map,random512-10-0.map.scen,4,BFS,1.0,440,True,187.0000,176.45584412,22015,23.3314,5.98
random512-10-0.map,random512-10-0.map.scen,4,BFS,1.0,441,True,211.0000,177.61017303,79550,83.7765,18.80
random512-10-0.map,random512-10-0.map.scen,4,BFS,1.0,442,True,187.0000,178.21320343,32736,35.7043,4.93
random512-10-0.map,random512-10-0.map.scen,4,BFS,1.0,443,True,209.0000,179.12489166,50776,56.5690,16.68
random512-10-0.map,random512-10-0.map.scen,4,BFS,1.0,444,True,188.0000,178.62741699,57601,62.2536,5.25
random512-10-0.map,random512-10-0.map.scen,4,BFS,1.0,445,True,235.0000,179.93607483,97322,106.5595,30.60
random512-10-0.map,random512-10-0.map.scen,4,BFS,1.0,446,True,232.0000,179.86500702,58728,64.0063,28.99
random512-10-0.map,random512-10-0.map.scen,4,BFS,1.0,447,True,229.0000,176.27922058,92199,101.3140,29.91
random512-10-0.map,random512-10-0.map.scen,4,BFS,1.0,448,True,233.0000,177.93607483,81558,86.8477,30.95
random512-10-0.map,random512-10-0.map.scen,4,BFS,1.0,449,True,230.0000,176.1076477,85575,97.0049,30.60
random512-10-0.map,random512-10-0.map.scen,4,BFS,1.0,450,True,229.0000,182.7228714,93103,102.0260,25.33
random512-10-0.map,random512-10-0.map.scen,4,BFS,1.0,451,True,191.0000,181.62741699,28906,30.6044,5.16
random512-10-0.map,random512-10-0.map.scen,4,BFS,1.0,452,True,186.0000,180.14213562,59337,64.3110,3.25
random512-10-0.map,random512-10-0.map.scen,4,BFS,1.0,453,True,191.0000,181.62741699,64740,69.2431,5.16
random512-10-0.map,random512-10-0.map.scen,4,BFS,1.0,454,True,188.0000,182.72792206,49573,53.7806,2.89
random512-10-0.map,random512-10-0.map.scen,4,BFS,1.0,455,True,236.0000,180.35028839,98540,108.2665,30.86
random512-10-0.map,random512-10-0.map.scen,4,BFS,1.0,456,True,245.0000,183.49242401,92558,102.2651,33.52
random512-10-0.map,random512-10-0.map.scen,4,BFS,1.0,457,True,241.0000,180.07821045,98669,107.3972,33.83
random512-10-0.map,random512-10-0.map.scen,4,BFS,1.0,458,True,242.0000,183.4213562,92323,103.0628,31.94
random512-10-0.map,random512-10-0.map.scen,4,BFS,1.0,459,True,236.0000,182.69343414,54611,59.4041,29.18
random512-10-0.map,random512-10-0.map.scen,4,BFS,1.0,460,True,194.0000,186.97056274,66815,71.6410,3.76
random512-10-0.map,random512-10-0.map.scen,4,BFS,1.0,461,True,196.0000,186.04163055,36613,39.5185,5.35
random512-10-0.map,random512-10-0.map.scen,4,BFS,1.0,462,True,218.0000,186.36753235,81128,84.2121,16.97
random512-10-0.map,random512-10-0.map.scen,4,BFS,1.0,463,True,199.0000,184.94112549,55278,58.7571,7.60
random512-10-0.map,random512-10-0.map.scen,4,BFS,1.0,464,True,230.0000,184.89444427,66379,69.8537,24.40
random512-10-0.map,random512-10-0.map.scen,4,BFS,1.0,465,True,220.0000,187.19595947,71167,74.3211,17.52
random512-10-0.map,random512-10-0.map.scen,4,BFS,1.0,466,True,207.0000,184.15432892,40713,43.7140,12.41
random512-10-0.map,random512-10-0.map.scen,4,BFS,1.0,467,True,237.0000,184.27922058,42278,47.1525,28.61
random512-10-0.map,random512-10-0.map.scen,4,BFS,1.0,468,True,247.0000,187.24978332,53128,57.7980,31.91
random512-10-0.map,random512-10-0.map.scen,4,BFS,1.0,469,True,194.0000,186.38477631,41109,43.1839,4.09
random512-10-0.map,random512-10-0.map.scen,4,BFS,1.0,470,True,200.0000,190.87005768,68640,72.0194,4.78
random512-10-0.map,random512-10-0.map.scen,4,BFS,1.0,471,True,200.0000,188.87005768,37686,39.6819,5.89
random512-10-0.map,random512-10-0.map.scen,4,BFS,1.0,472,True,245.0000,190.52186127,87568,96.6421,28.59
random512-10-0.map,random512-10-0.map.scen,4,BFS,1.0,473,True,218.0000,188.36753235,57303,60.8838,15.73
random512-10-0.map,random512-10-0.map.scen,4,BFS,1.0,474,True,207.0000,189.42640686,75958,79.8110,9.28
random512-10-0.map,random512-10-0.map.scen,4,BFS,1.0,475,True,223.0000,189.0243866,69247,73.0304,17.97
random512-10-0.map,random512-10-0.map.scen,4,BFS,1.0,476,True,201.0000,191.04163055,37649,39.7574,5.21
random512-10-0.map,random512-10-0.map.scen,4,BFS,1.0,477,True,202.0000,191.45584412,52155,56.0329,5.51
random512-10-0.map,random512-10-0.map.scen,4,BFS,1.0,478,True,215.0000,191.56854248,39143,42.9729,12.23
random512-10-0.map,random512-10-0.map.scen,4,BFS,1.0,479,True,245.0000,189.93607483,98260,113.7575,28.99
random512-10-0.map,random512-10-0.map.scen,4,BFS,1.0,480,True,235.0000,192.23759003,86602,95.8330,22.24
random512-10-0.map,random512-10-0.map.scen,4,BFS,1.0,481,True,241.0000,193.55129852,76253,82.0091,24.51
random512-10-0.map,random512-10-0.map.scen,4,BFS,1.0,482,True,207.0000,195.28427124,47927,54.5425,6.00
random512-10-0.map,random512-10-0.map.scen,4,BFS,1.0,483,True,225.0000,192.78174591,83834,88.4325,16.71
random512-10-0.map,random512-10-0.map.scen,4,BFS,1.0,484,True,237.0000,193.65180359,46984,51.7045,22.38
random512-10-0.map,random512-10-0.map.scen,4,BFS,1.0,485,True,213.0000,193.66904755,67407,71.0612,9.98
random512-10-0.map,random512-10-0.map.scen,4,BFS,1.0,486,True,256.0000,193.32085113,71819,75.4872,32.42
random512-10-0.map,random512-10-0.map.scen,4,BFS,1.0,487,True,231.0000,193.50966797,58920,63.0829,19.37
random512-10-0.map,random512-10-0.map.scen,4,BFS,1.0,488,True,245.0000,192.27922058,62006,65.6340,27.42
random512-10-0.map,random512-10-0.map.scen,4,BFS,1.0,489,True,256.0000,193.32085113,96283,108.9136,32.42
random512-10-0.map,random512-10-0.map.scen,4,BFS,1.0,490,True,263.0000,197.97770538,95714,108.5071,32.84
random512-10-0.map,random512-10-0.map.scen,4,BFS,1.0,491,True,237.0000,196.58073578,93593,106.8841,20.56
random512-10-0.map,random512-10-0.map.scen,4,BFS,1.0,492,True,223.0000,198.3969696,51439,68.5009,12.40
random512-10-0.map,random512-10-0.map.scen,4,BFS,1.0,493,True,235.0000,197.50966797,74081,83.2427,18.98
random512-10-0.map,random512-10-0.map.scen,4,BFS,1.0,494,True,239.0000,196.82337646,93296,106.6968,21.43
random512-10-0.map,random512-10-0.map.scen,4,BFS,1.0,495,True,231.0000,197.61017303,54984,63.9990,16.90
random512-10-0.map,random512-10-0.map.scen,4,BFS,1.0,496,True,262.0000,199.32085113,84547,92.4578,31.45
random512-10-0.map,random512-10-0.map.scen,4,BFS,1.0,497,True,262.0000,198.7350647,88604,105.1106,31.83
random512-10-0.map,random512-10-0.map.scen,4,BFS,1.0,498,True,216.0000,199.59797974,56884,66.9500,8.22
random512-10-0.map,random512-10-0.map.scen,4,BFS,1.0,499,True,238.0000,198.16652222,97175,108.7216,20.10
random512-10-0.map,random512-10-0.map.scen,4,BFS,1.0,500,True,217.0000,200.0121933,75876,80.7544,8.49
random512-10-0.map,random512-10-0.map.scen,4,BFS,1.0,501,True,225.0000,200.3969696,76137,83.1290,12.28
random512-10-0.map,random512-10-0.map.scen,4,BFS,1.0,502,True,210.0000,200.62741699,51129,56.5457,4.67
random512-10-0.map,random512-10-0.map.scen,4,BFS,1.0,503,True,268.0000,202.39191894,88280,101.6545,32.42
random512-10-0.map,random512-10-0.map.scen,4,BFS,1.0,504,True,219.0000,201.42640686,72275,76.3083,8.72
random512-10-0.map,random512-10-0.map.scen,4,BFS,1.0,505,True,231.0000,200.53910522,75910,77.6904,15.19
random512-10-0.map,random512-10-0.map.scen,4,BFS,1.0,506,True,253.0000,202.03657989,61825,64.4709,25.22
random512-10-0.map,random512-10-0.map.scen,4,BFS,1.0,507,True,254.0000,203.03657989,64150,77.7343,25.10
random512-10-0.map,random512-10-0.map.scen,4,BFS,1.0,508,True,263.0000,200.90663757,98802,115.3561,30.91
random512-10-0.map,random512-10-0.map.scen,4,BFS,1.0,509,True,214.0000,203.45584412,81184,86.7458,5.18
random512-10-0.map,random512-10-0.map.scen,4,BFS,1.0,510,True,259.0000,206.27922058,117516,135.5304,25.56
random512-10-0.map,random512-10-0.map.scen,4,BFS,1.0,511,True,268.0000,205.90663757,45705,57.5098,30.16
random512-10-0.map,random512-10-0.map.scen,4,BFS,1.0,512,True,247.0000,206.58073578,106983,114.6984,19.57
random512-10-0.map,random512-10-0.map.scen,4,BFS,1.0,513,True,235.0000,205.7106781,90845,112.2352,14.24
random512-10-0.map,random512-10-0.map.scen,4,BFS,1.0,514,True,251.0000,206.48023071,85069,99.8799,21.56
random512-10-0.map,random512-10-0.map.scen,4,BFS,1.0,515,True,214.0000,204.04163055,74201,78.5872,4.88
random512-10-0.map,random512-10-0.map.scen,4,BFS,1.0,516,True,264.0000,207.17871551,110754,133.6334,27.43
random512-10-0.map,random512-10-0.map.scen,4,BFS,1.0,517,True,216.0000,205.45584412,43148,52.0056,5.13
random512-10-0.map,random512-10-0.map.scen,4,BFS,1.0,518,True,273.0000,207.39191894,62090,70.9133,31.63
random512-10-0.map,random512-10-0.map.scen,4,BFS,1.0,519,True,214.0000,205.79898987,66315,70.5165,3.98
random512-10-0.map,random512-10-0.map.scen,4,BFS,1.0,520,True,255.0000,210.48023071,62602,69.4912,21.15
random512-10-0.map,random512-10-0.map.scen,4,BFS,1.0,521,True,261.0000,208.27922058,102143,116.6557,25.31
random512-10-0.map,random512-10-0.map.scen,4,BFS,1.0,522,True,249.0000,211.16652222,58831,65.4293,17.92
random512-10-0.map,random512-10-0.map.scen,4,BFS,1.0,523,True,267.0000,210.76450195,114246,128.8649,26.68
random512-10-0.map,random512-10-0.map.scen,4,BFS,1.0,524,True,219.0000,211.97056274,80350,89.2263,3.32
random512-10-0.map,random512-10-0.map.scen,4,BFS,1.0,525,True,225.0000,209.18376617,70779,80.2585,7.56
random512-10-0.map,random512-10-0.map.scen,4,BFS,1.0,526,True,273.0000,209.7350647,108750,121.7053,30.16
random512-10-0.map,random512-10-0.map.scen,4,BFS,1.0,527,True,222.0000,208.18376617,28577,30.4720,6.64
random512-10-0.map,random512-10-0.map.scen,4,BFS,1.0,528,True,258.0000,209.37972565,110212,131.1662,23.22
random512-10-0.map,random512-10-0.map.scen,4,BFS,1.0,529,True,258.0000,208.20815277,79578,84.8615,23.91
random512-10-0.map,random512-10-0.map.scen,4,BFS,1.0,530,True,226.0000,213.11269836,86069,102.6618,6.05
random512-10-0.map,random512-10-0.map.scen,4,BFS,1.0,531,True,232.0000,215.0121933,72744,78.5744,7.90
random512-10-0.map,random512-10-0.map.scen,4,BFS,1.0,532,True,271.0000,213.00714264,122637,135.7584,27.23
random512-10-0.map,random512-10-0.map.scen,4,BFS,1.0,533,True,268.0000,215.86500702,88247,101.3247,24.15
random512-10-0.map,random512-10-0.map.scen,4,BFS,1.0,534,True,255.0000,212.82337646,79734,86.2267,19.82
random512-10-0.map,random512-10-0.map.scen,4,BFS,1.0,535,True,272.0000,212.83556976,117035,128.5005,27.80
random512-10-0.map,random512-10-0.map.scen,4,BFS,1.0,536,True,226.0000,212.18376617,71373,77.2364,6.51
random512-10-0.map,random512-10-0.map.scen,4,BFS,1.0,537,True,263.0000,214.96551208,106405,118.1636,22.35
random512-10-0.map,random512-10-0.map.scen,4,BFS,1.0,538,True,223.0000,213.04163055,60713,63.6697,4.67
random512-10-0.map,random512-10-0.map.scen,4,BFS,1.0,539,True,272.0000,212.24978332,130667,140.0625,28.15
random512-10-0.map,random512-10-0.map.scen,4,BFS,1.0,540,True,289.0000,216.36248169,137011,149.9921,33.57
random512-10-0.map,random512-10-0.map.scen,4,BFS,1.0,541,True,247.0000,217.7106781,74203,80.4372,13.45
random512-10-0.map,random512-10-0.map.scen,4,BFS,1.0,542,True,232.0000,216.76955261,52486,58.7840,7.03
random512-10-0.map,random512-10-0.map.scen,4,BFS,1.0,543,True,290.0000,218.53405456,91663,112.8328,32.70
random512-10-0.map,random512-10-0.map.scen,4,BFS,1.0,544,True,276.0000,218.00714264,120074,175.9966,26.60
random512-10-0.map,random512-10-0.map.scen,4,BFS,1.0,545,True,288.0000,216.53405456,73802,82.9002,33.00
random512-10-0.map,random512-10-0.map.scen,4,BFS,1.0,546,True,291.0000,218.36248169,119220,138.1547,33.26
random512-10-0.map,random512-10-0.map.scen,4,BFS,1.0,547,True,283.0000,219.14927826,75805,79.5258,29.14
random512-10-0.map,random512-10-0.map.scen,4,BFS,1.0,548,True,269.0000,218.62236633,96439,106.1339,23.04
random512-10-0.map,random512-10-0.map.scen,4,BFS,1.0,549,True,277.0000,216.07821045,114296,151.0937,28.19
random512-10-0.map,random512-10-0.map.scen,4,BFS,1.0,550,True,258.0000,221.09545441,44290,52.6310,16.69
random512-10-0.map,random512-10-0.map.scen,4,BFS,1.0,551,True,292.0000,222.29141388,76945,80.3468,31.36
random512-10-0.map,random512-10-0.map.scen,4,BFS,1.0,552,True,234.0000,223.6984848,85665,96.4128,4.61
random512-10-0.map,random512-10-0.map.scen,4,BFS,1.0,553,True,231.0000,221.62741699,83834,93.7461,4.23
random512-10-0.map,random512-10-0.map.scen,4,BFS,1.0,554,True,235.0000,220.94112549,83042,88.9742,6.36
random512-10-0.map,random512-10-0.map.scen,4,BFS,1.0,555,True,277.0000,220.76450195,127843,142.2551,25.47
random512-10-0.map,random512-10-0.map.scen,4,BFS,1.0,556,True,262.0000,223.92388153,112724,129.6704,17.00
random512-10-0.map,random512-10-0.map.scen,4,BFS,1.0,557,True,260.0000,221.33809509,36713,39.3326,17.47
random512-10-0.map,random512-10-0.map.scen,4,BFS,1.0,558,True,283.0000,222.66399689,76937,86.9439,27.10
random512-10-0.map,random512-10-0.map.scen,4,BFS,1.0,559,True,281.0000,223.59292908,115430,127.6230,25.67
random512-10-0.map,random512-10-0.map.scen,4,BFS,1.0,560,True,262.0000,225.09545441,96242,104.2883,16.40
random512-10-0.map,random512-10-0.map.scen,4,BFS,1.0,561,True,294.0000,225.46298675,113311,127.2581,30.40
random512-10-0.map,random512-10-0.map.scen,4,BFS,1.0,562,True,252.0000,224.46803741,100840,119.6606,12.27
random512-10-0.map,random512-10-0.map.scen,4,BFS,1.0,563,True,292.0000,226.97770538,88148,159.2054,28.65
random512-10-0.map,random512-10-0.map.scen,4,BFS,1.0,564,True,255.0000,225.12489166,93657,117.7861,13.27
random512-10-0.map,random512-10-0.map.scen,4,BFS,1.0,565,True,243.0000,227.76955261,45478,57.7092,6.69
random512-10-0.map,random512-10-0.map.scen,4,BFS,1.0,566,True,254.0000,227.05382385,71035,82.6138,11.87
random512-10-0.map,random512-10-0.map.scen,4,BFS,1.0,567,True,248.0000,224.22539673,102523,119.2598,10.60
random512-10-0.map,random512-10-0.map.scen,4,BFS,1.0,568,True,296.0000,227.46298675,117062,128.1683,30.13
random512-10-0.map,random512-10-0.map.scen,4,BFS,1.0,569,True,296.0000,225.70562744,93580,104.4070,31.14
random512-10-0.map,random512-10-0.map.scen,4,BFS,1.0,570,True,268.0000,228.16652222,113717,128.2138,17.46
random512-10-0.map,random512-10-0.map.scen,4,BFS,1.0,571,True,301.0000,228.94826813,95979,112.2133,31.47
random512-10-0.map,random512-10-0.map.scen,4,BFS,1.0,572,True,272.0000,230.99494934,65904,75.5712,17.75
random512-10-0.map,random512-10-0.map.scen,4,BFS,1.0,573,True,306.0000,231.60512237,150364,167.4480,32.12
random512-10-0.map,random512-10-0.map.scen,4,BFS,1.0,574,True,242.0000,230.87005768,70230,85.9750,4.82
random512-10-0.map,random512-10-0.map.scen,4,BFS,1.0,575,True,293.0000,229.7350647,127491,143.3182,27.54
random512-10-0.map,random512-10-0.map.scen,4,BFS,1.0,576,True,303.0000,229.19090881,103996,125.5109,32.20
random512-10-0.map,random512-10-0.map.scen,4,BFS,1.0,577,True,252.0000,229.74011536,65958,77.5406,9.69
random512-10-0.map,random512-10-0.map.scen,4,BFS,1.0,578,True,302.0000,230.53405456,110690,127.5361,31.00
random512-10-0.map,random512-10-0.map.scen,4,BFS,1.0,579,True,280.0000,231.37972565,67613,78.2941,21.01
random512-10-0.map,random512-10-0.map.scen,4,BFS,1.0,580,True,260.0000,235.3969696,72159,80.6659,10.45
