MapName,Scenario,Connectivity,Algorithm,Weight,TaskID,Success,PathLength,OptimalLength,ExpandedNodes,TimeMS,Suboptimality
Moscow_0_256.map,Moscow_0_256.map.scen,4,BFS,1.0,0,True,2.0000,1.41421356,12,0.0279,41.42
Moscow_0_256.map,Moscow_0_256.map.scen,4,BFS,1.0,1,True,4.0000,3.41421356,25,0.0352,17.16
Moscow_0_256.map,Moscow_0_256.map.scen,4,BFS,1.0,2,True,2.0000,2.0,5,0.0107,0.00
Moscow_0_256.map,Moscow_0_256.map.scen,4,BFS,1.0,3,True,3.0000,3.0,12,0.0249,0.00
Moscow_0_256.map,Moscow_0_256.map.scen,4,BFS,1.0,4,True,1.0000,1.0,2,0.0059,0.00
Moscow_0_256.map,Moscow_0_256.map.scen,4,BFS,1.0,5,True,3.0000,2.41421356,23,0.0331,24.26
Moscow_0_256.map,Moscow_0_256.map.scen,4,BFS,1.0,6,True,3.0000,2.41421356,18,0.0250,24.26
Moscow_0_256.map,Moscow_0_256.map.scen,4,BFS,1.0,7,True,4.0000,2.82842712,39,0.0521,41.42
Moscow_0_256.map,Moscow_0_256.map.scen,4,BFS,1.0,8,True,4.0000,2.82842712,30,0.0390,41.42
Moscow_0_256.map,Moscow_0_256.map.scen,4,BFS,1.0,9,True,4.0000,3.41421356,32,0.0405,17.16
Moscow_0_256.map,Moscow_0_256.map.scen,4,BFS,1.0,10,True,8.0000,6.24264069,132,0.2745,28.15
Moscow_0_256.map,Moscow_0_256.map.scen,4,BFS,1.0,11,True,7.0000,5.24264069,83,0.2200,33.52
Moscow_0_256.map,Moscow_0_256.map.scen,4,BFS,1.0,12,True,8.0000,6.82842712,135,0.2013,17.16
Moscow_0_256.map,Moscow_0_256.map.scen,4,BFS,1.0,13,True,7.0000,7.0,106,0.1529,0.00
Moscow_0_256.map,Moscow_0_256.map.scen,4,BFS,1.0,14,True,6.0000,4.24264069,68,0.1067,41.42
Moscow_0_256.map,Moscow_0_256.map.scen,4,BFS,1.0,15,True,6.0000,6.0,79,0.1162,0.00
Moscow_0_256.map,Moscow_0_256.map.scen,4,BFS,1.0,16,True,7.0000,5.24264069,59,0.0757,33.52
Moscow_0_256.map,Moscow_0_256.map.scen,4,BFS,1.0,17,True,10.0000,7.65685425,192,0.3120,30.60
Moscow_0_256.map,Moscow_0_256.map.scen,4,BFS,1.0,18,True,8.0000,6.82842712,83,0.1015,17.16
Moscow_0_256.map,Moscow_0_256.map.scen,4,BFS,1.0,19,True,7.0000,6.41421356,95,0.1252,9.13
Moscow_0_256.map,Moscow_0_256.map.scen,4,BFS,1.0,20,True,13.0000,10.07106781,345,0.5254,29.08
Moscow_0_256.map,Moscow_0_256.map.scen,4,BFS,1.0,21,True,8.0000,8.0,106,0.1591,0.00
Moscow_0_256.map,Moscow_0_256.map.scen,4,BFS,1.0,22,True,11.0000,10.41421356,137,0.1933,5.62
Moscow_0_256.map,Moscow_0_256.map.scen,4,BFS,1.0,23,True,14.0000,9.89949493,400,0.5598,41.42
Moscow_0_256.map,Moscow_0_256.map.scen,4,BFS,1.0,24,True,12.0000,11.41421356,290,0.4441,5.13
Moscow_0_256.map,Moscow_0_256.map.scen,4,BFS,1.0,25,True,9.0000,9.0,165,0.2486,0.00
Moscow_0_256.map,Moscow_0_256.map.scen,4,BFS,1.0,26,True,11.0000,9.24264069,238,0.4113,19.01
Moscow_0_256.map,Moscow_0_256.map.scen,4,BFS,1.0,27,True,13.0000,9.48528137,211,0.4213,37.05
Moscow_0_256.map,Moscow_0_256.map.scen,4,BFS,1.0,28,True,10.0000,9.41421356,129,0.1858,6.22
Moscow_0_256.map,Moscow_0_256.map.scen,4,BFS,1.0,29,True,13.0000,11.82842712,317,0.4620,9.90
Moscow_0_256.map,Moscow_0_256.map.scen,4,BFS,1.0,30,True,13.0000,12.41421356,280,0.4648,4.72
Moscow_0_256.map,Moscow_0_256.map.scen,4,BFS,1.0,31,True,17.0000,14.65685425,366,0.4970,15.99
Moscow_0_256.map,Moscow_0_256.map.scen,4,BFS,1.0,32,True,17.0000,14.07106781,356,0.5332,20.82
Moscow_0_256.map,Moscow_0_256.map.scen,4,BFS,1.0,33,True,15.0000,13.82842712,428,0.5796,8.47
Moscow_0_256.map,Moscow_0_256.map.scen,4,BFS,1.0,34,True,13.0000,12.41421356,337,0.5200,4.72
Moscow_0_256.map,Moscow_0_256.map.scen,4,BFS,1.0,35,True,16.0000,13.65685425,447,0.6162,17.16
Moscow_0_256.map,Moscow_0_256.map.scen,4,BFS,1.0,36,True,15.0000,14.41421356,300,0.4685,4.06
Moscow_0_256.map,Moscow_0_256.map.scen,4,BFS,1.0,37,True,15.0000,13.24264069,319,0.4699,13.27
Moscow_0_256.map,Moscow_0_256.map.scen,4,BFS,1.0,38,True,14.0000,12.24264069,359,0.5132,14.35
Moscow_0_256.map,Moscow_0_256.map.scen,4,BFS,1.0,39,True,17.0000,14.65685425,501,0.6681,15.99
Moscow_0_256.map,Moscow_0_256.map.scen,4,BFS,1.0,40,True,21.0000,16.3137085,625,0.8397,28.73
Moscow_0_256.map,Moscow_0_256.map.scen,4,BFS,1.0,41,True,23.0000,19.48528137,795,0.9665,18.04
Moscow_0_256.map,Moscow_0_256.map.scen,4,BFS,1.0,42,True,22.0000,17.89949493,632,0.7880,22.91
Moscow_0_256.map,Moscow_0_256.map.scen,4,BFS,1.0,43,True,25.0000,17.97056274,1071,1.2810,39.12
Moscow_0_256.map,Moscow_0_256.map.scen,4,BFS,1.0,44,True,22.0000,17.89949493,641,0.8601,22.91
Moscow_0_256.map,Moscow_0_256.map.scen,4,BFS,1.0,45,True,22.0000,19.65685425,688,0.9427,11.92
Moscow_0_256.map,Moscow_0_256.map.scen,4,BFS,1.0,46,True,19.0000,17.24264069,564,0.7419,10.19
Moscow_0_256.map,Moscow_0_256.map.scen,4,BFS,1.0,47,True,19.0000,16.65685425,516,0.7005,14.07
Moscow_0_256.map,Moscow_0_256.map.scen,4,BFS,1.0,48,True,21.0000,18.07106781,481,0.6035,16.21
Moscow_0_256.map,Moscow_0_256.map.scen,4,BFS,1.0,49,True,23.0000,18.89949493,529,0.6798,21.70
Moscow_0_256.map,Moscow_0_256.map.scen,4,BFS,1.0,50,True,26.0000,20.72792206,610,0.8136,25.43
Moscow_0_256.map,Moscow_0_256.map.scen,4,BFS,1.0,51,True,25.0000,21.48528137,1034,1.2332,16.36
Moscow_0_256.map,Moscow_0_256.map.scen,4,BFS,1.0,52,True,29.0000,23.14213562,1199,1.3964,25.31
Moscow_0_256.map,Moscow_0_256.map.scen,4,BFS,1.0,53,True,23.0000,20.07106781,973,1.1710,14.59
Moscow_0_256.map,Moscow_0_256.map.scen,4,BFS,1.0,54,True,26.0000,21.89949493,1027,1.2031,18.72
Moscow_0_256.map,Moscow_0_256.map.scen,4,BFS,1.0,55,True,23.0000,20.07106781,500,0.6476,14.59
Moscow_0_256.map,Moscow_0_256.map.scen,4,BFS,1.0,56,True,24.0000,22.24264069,875,1.0847,7.90
Moscow_0_256.map,Moscow_0_256.map.scen,4,BFS,1.0,57,True,29.0000,23.72792206,507,0.8008,22.22
Moscow_0_256.map,Moscow_0_256.map.scen,4,BFS,1.0,58,True,30.0000,21.79898987,1061,1.2734,37.62
Moscow_0_256.map,Moscow_0_256.map.scen,4,BFS,1.0,59,True,30.0000,23.55634918,894,1.0539,27.35
Moscow_0_256.map,Moscow_0_256.map.scen,4,BFS,1.0,60,True,32.0000,25.55634918,1126,1.3163,25.21
Moscow_0_256.map,Moscow_0_256.map.scen,4,BFS,1.0,61,True,34.0000,26.97056274,1749,1.9036,26.06
Moscow_0_256.map,Moscow_0_256.map.scen,4,BFS,1.0,62,True,30.0000,24.14213562,1617,1.7246,24.26
Moscow_0_256.map,Moscow_0_256.map.scen,4,BFS,1.0,63,True,29.0000,26.65685425,1332,1.5171,8.79
Moscow_0_256.map,Moscow_0_256.map.scen,4,BFS,1.0,64,True,32.0000,26.14213562,1669,1.8050,22.41
Moscow_0_256.map,Moscow_0_256.map.scen,4,BFS,1.0,65,True,29.0000,26.07106781,1103,1.2720,11.23
Moscow_0_256.map,Moscow_0_256.map.scen,4,BFS,1.0,66,True,32.0000,26.14213562,408,0.5350,22.41
Moscow_0_256.map,Moscow_0_256.map.scen,4,BFS,1.0,67,True,31.0000,26.89949493,1349,1.8181,15.24
Moscow_0_256.map,Moscow_0_256.map.scen,4,BFS,1.0,68,True,30.0000,24.14213562,668,0.9011,24.26
Moscow_0_256.map,Moscow_0_256.map.scen,4,BFS,1.0,69,True,36.0000,27.21320343,1558,1.7160,32.29
Moscow_0_256.map,Moscow_0_256.map.scen,4,BFS,1.0,70,True,36.0000,29.55634918,1385,1.5539,21.80
Moscow_0_256.map,Moscow_0_256.map.scen,4,BFS,1.0,71,True,39.0000,29.04163055,1375,1.5052,34.29
Moscow_0_256.map,Moscow_0_256.map.scen,4,BFS,1.0,72,True,34.0000,29.89949493,1319,1.4480,13.71
Moscow_0_256.map,Moscow_0_256.map.scen,4,BFS,1.0,73,True,32.0000,29.65685425,1465,1.6411,7.90
Moscow_0_256.map,Moscow_0_256.map.scen,4,BFS,1.0,74,True,39.0000,29.62741699,2077,2.3458,31.63
Moscow_0_256.map,Moscow_0_256.map.scen,4,BFS,1.0,75,True,33.0000,28.3137085,949,1.1146,16.55
Moscow_0_256.map,Moscow_0_256.map.scen,4,BFS,1.0,76,True,40.0000,29.45584412,2420,2.6022,35.80
Moscow_0_256.map,Moscow_0_256.map.scen,4,BFS,1.0,77,True,41.0000,31.62741699,2661,2.9296,29.63
Moscow_0_256.map,Moscow_0_256.map.scen,4,BFS,1.0,78,True,35.0000,28.55634918,1773,2.0632,22.56
Moscow_0_256.map,Moscow_0_256.map.scen,4,BFS,1.0,79,True,38.0000,29.79898987,1706,2.1264,27.52
Moscow_0_256.map,Moscow_0_256.map.scen,4,BFS,1.0,80,True,41.0000,32.21320343,2064,2.1976,27.28
Moscow_0_256.map,Moscow_0_256.map.scen,4,BFS,1.0,81,True,40.0000,34.14213562,1606,1.7473,17.16
Moscow_0_256.map,Moscow_0_256.map.scen,4,BFS,1.0,82,True,47.0000,33.52691193,2166,2.3086,40.19
Moscow_0_256.map,Moscow_0_256.map.scen,4,BFS,1.0,83,True,47.0000,34.6984848,3160,3.2164,35.45
Moscow_0_256.map,Moscow_0_256.map.scen,4,BFS,1.0,84,True,44.0000,34.62741699,2483,2.7604,27.07
Moscow_0_256.map,Moscow_0_256.map.scen,4,BFS,1.0,85,True,46.0000,34.87005768,3458,3.5192,31.92
Moscow_0_256.map,Moscow_0_256.map.scen,4,BFS,1.0,86,True,48.0000,33.94112549,3496,3.4860,41.42
Moscow_0_256.map,Moscow_0_256.map.scen,4,BFS,1.0,87,True,45.0000,35.04163055,2995,3.1618,28.42
Moscow_0_256.map,Moscow_0_256.map.scen,4,BFS,1.0,88,True,40.0000,35.3137085,1236,1.4067,13.27
Moscow_0_256.map,Moscow_0_256.map.scen,4,BFS,1.0,89,True,34.0000,32.24264069,724,0.8913,5.45
Moscow_0_256.map,Moscow_0_256.map.scen,4,BFS,1.0,90,True,47.0000,39.38477631,2165,2.3325,19.34
Moscow_0_256.map,Moscow_0_256.map.scen,4,BFS,1.0,91,True,50.0000,38.28427124,2463,2.6829,30.60
Moscow_0_256.map,Moscow_0_256.map.scen,4,BFS,1.0,92,True,47.0000,37.62741699,3060,3.1597,24.91
Moscow_0_256.map,Moscow_0_256.map.scen,4,BFS,1.0,93,True,47.0000,37.62741699,3147,3.2510,24.91
Moscow_0_256.map,Moscow_0_256.map.scen,4,BFS,1.0,94,True,55.0000,39.76955261,3846,3.9406,38.30
Moscow_0_256.map,Moscow_0_256.map.scen,4,BFS,1.0,95,True,46.0000,36.62741699,1823,1.9943,25.59
Moscow_0_256.map,Moscow_0_256.map.scen,4,BFS,1.0,96,True,44.0000,36.97056274,2623,2.7776,19.01
Moscow_0_256.map,Moscow_0_256.map.scen,4,BFS,1.0,97,True,47.0000,39.38477631,2951,3.1017,19.34
Moscow_0_256.map,Moscow_0_256.map.scen,4,BFS,1.0,98,True,49.0000,38.45584412,3372,3.5454,27.42
Moscow_0_256.map,Moscow_0_256.map.scen,4,BFS,1.0,99,True,45.0000,36.21320343,1596,1.7160,24.26
Moscow_0_256.map,Moscow_0_256.map.scen,4,BFS,1.0,100,True,52.0000,42.62741699,3370,3.4581,21.99
Moscow_0_256.map,Moscow_0_256.map.scen,4,BFS,1.0,101,True,51.0000,43.38477631,2886,3.0011,17.55
Moscow_0_256.map,Moscow_0_256.map.scen,4,BFS,1.0,102,True,52.0000,41.45584412,3178,3.2788,25.43
Moscow_0_256.map,Moscow_0_256.map.scen,4,BFS,1.0,103,True,51.0000,43.38477631,3584,3.6556,17.55
Moscow_0_256.map,Moscow_0_256.map.scen,4,BFS,1.0,104,True,59.0000,43.18376617,2851,2.9081,36.63
Moscow_0_256.map,Moscow_0_256.map.scen,4,BFS,1.0,105,True,55.0000,40.94112549,3791,4.5968,34.34
Moscow_0_256.map,Moscow_0_256.map.scen,4,BFS,1.0,106,True,49.0000,41.97056274,2688,2.8789,16.75
Moscow_0_256.map,Moscow_0_256.map.scen,4,BFS,1.0,107,True,50.0000,42.38477631,3264,3.4104,17.97
Moscow_0_256.map,Moscow_0_256.map.scen,4,BFS,1.0,108,True,47.0000,43.48528137,2633,2.7900,8.08
Moscow_0_256.map,Moscow_0_256.map.scen,4,BFS,1.0,109,True,55.0000,43.28427124,2600,2.7248,27.07
Moscow_0_256.map,Moscow_0_256.map.scen,4,BFS,1.0,110,True,61.0000,47.52691193,3911,3.9855,28.35
Moscow_0_256.map,Moscow_0_256.map.scen,4,BFS,1.0,111,True,49.0000,44.3137085,3340,3.3691,10.58
Moscow_0_256.map,Moscow_0_256.map.scen,4,BFS,1.0,112,True,61.0000,47.52691193,4995,5.2326,28.35
Moscow_0_256.map,Moscow_0_256.map.scen,4,BFS,1.0,113,True,57.0000,44.11269836,3593,3.6819,29.21
Moscow_0_256.map,Moscow_0_256.map.scen,4,BFS,1.0,114,True,54.0000,45.79898987,4394,4.4145,17.91
Moscow_0_256.map,Moscow_0_256.map.scen,4,BFS,1.0,115,True,53.0000,45.97056274,2732,2.8613,15.29
Moscow_0_256.map,Moscow_0_256.map.scen,4,BFS,1.0,116,True,61.0000,47.52691193,2736,2.7564,28.35
Moscow_0_256.map,Moscow_0_256.map.scen,4,BFS,1.0,117,True,50.0000,45.89949493,2909,3.0251,8.93
Moscow_0_256.map,Moscow_0_256.map.scen,4,BFS,1.0,118,True,56.0000,47.79898987,4351,4.3241,17.16
Moscow_0_256.map,Moscow_0_256.map.scen,4,BFS,1.0,119,True,54.0000,44.62741699,4486,4.5416,21.00
Moscow_0_256.map,Moscow_0_256.map.scen,4,BFS,1.0,120,True,59.0000,51.04163055,4548,4.5407,15.59
Moscow_0_256.map,Moscow_0_256.map.scen,4,BFS,1.0,121,True,54.0000,49.89949493,4135,4.1376,8.22
Moscow_0_256.map,Moscow_0_256.map.scen,4,BFS,1.0,122,True,55.0000,48.55634918,2646,2.7846,13.27
Moscow_0_256.map,Moscow_0_256.map.scen,4,BFS,1.0,123,True,69.0000,51.42640686,2611,2.7194,34.17
Moscow_0_256.map,Moscow_0_256.map.scen,4,BFS,1.0,124,True,63.0000,49.52691193,6191,6.3189,27.20
Moscow_0_256.map,Moscow_0_256.map.scen,4,BFS,1.0,125,True,64.0000,51.6984848,5860,5.9901,23.79
Moscow_0_256.map,Moscow_0_256.map.scen,4,BFS,1.0,126,True,54.0000,48.14213562,3980,4.0418,12.17
Moscow_0_256.map,Moscow_0_256.map.scen,4,BFS,1.0,127,True,61.0000,49.87005768,5668,5.7682,22.32
Moscow_0_256.map,Moscow_0_256.map.scen,4,BFS,1.0,128,True,57.0000,48.79898987,4467,5.4805,16.81
Moscow_0_256.map,Moscow_0_256.map.scen,4,BFS,1.0,129,True,57.0000,50.55634918,4979,5.2148,12.75
Moscow_0_256.map,Moscow_0_256.map.scen,4,BFS,1.0,130,True,63.0000,52.45584412,4070,4.0397,20.10
Moscow_0_256.map,Moscow_0_256.map.scen,4,BFS,1.0,131,True,61.0000,54.55634918,4132,4.1701,11.81
Moscow_0_256.map,Moscow_0_256.map.scen,4,BFS,1.0,132,True,62.0000,53.79898987,4208,4.4556,15.24
Moscow_0_256.map,Moscow_0_256.map.scen,4,BFS,1.0,133,True,74.0000,53.49747467,6835,7.0437,38.32
Moscow_0_256.map,Moscow_0_256.map.scen,4,BFS,1.0,134,True,73.0000,53.08326111,5552,5.7002,37.52
Moscow_0_256.map,Moscow_0_256.map.scen,4,BFS,1.0,135,True,61.0000,52.79898987,4862,4.7860,15.53
Moscow_0_256.map,Moscow_0_256.map.scen,4,BFS,1.0,136,True,69.0000,53.76955261,4068,4.1580,28.33
Moscow_0_256.map,Moscow_0_256.map.scen,4,BFS,1.0,137,True,61.0000,52.79898987,2419,2.4907,15.53
Moscow_0_256.map,Moscow_0_256.map.scen,4,BFS,1.0,138,True,70.0000,55.94112549,4302,4.2890,25.13
Moscow_0_256.map,Moscow_0_256.map.scen,4,BFS,1.0,139,True,74.0000,55.84062042,7241,7.5453,32.52
Moscow_0_256.map,Moscow_0_256.map.scen,4,BFS,1.0,140,True,76.0000,59.59797974,4945,4.9281,27.52
Moscow_0_256.map,Moscow_0_256.map.scen,4,BFS,1.0,141,True,69.0000,57.87005768,3777,3.6639,19.23
Moscow_0_256.map,Moscow_0_256.map.scen,4,BFS,1.0,142,True,71.0000,56.94112549,4061,4.0654,24.69
Moscow_0_256.map,Moscow_0_256.map.scen,4,BFS,1.0,143,True,73.0000,59.52691193,5042,6.3673,22.63
Moscow_0_256.map,Moscow_0_256.map.scen,4,BFS,1.0,144,True,62.0000,57.3137085,2939,2.9912,8.18
Moscow_0_256.map,Moscow_0_256.map.scen,4,BFS,1.0,145,True,78.0000,58.08326111,3349,3.4588,34.29
Moscow_0_256.map,Moscow_0_256.map.scen,4,BFS,1.0,146,True,63.0000,57.72792206,4250,4.3275,9.13
Moscow_0_256.map,Moscow_0_256.map.scen,4,BFS,1.0,147,True,66.0000,58.38477631,5045,5.1812,13.04
Moscow_0_256.map,Moscow_0_256.map.scen,4,BFS,1.0,148,True,82.0000,59.74011536,7668,8.5095,37.26
Moscow_0_256.map,Moscow_0_256.map.scen,4,BFS,1.0,149,True,56.0000,56.0,3636,3.7804,0.00
Moscow_0_256.map,Moscow_0_256.map.scen,4,BFS,1.0,150,True,85.0000,62.15432892,8455,8.5122,36.76
Moscow_0_256.map,Moscow_0_256.map.scen,4,BFS,1.0,151,True,66.0000,61.89949493,4796,5.0430,6.62
Moscow_0_256.map,Moscow_0_256.map.scen,4,BFS,1.0,152,True,87.0000,63.56854248,10416,10.8299,36.86
Moscow_0_256.map,Moscow_0_256.map.scen,4,BFS,1.0,153,True,82.0000,62.66904755,8904,8.9051,30.85
Moscow_0_256.map,Moscow_0_256.map.scen,4,BFS,1.0,154,True,81.0000,62.25483398,8316,8.4483,30.11
Moscow_0_256.map,Moscow_0_256.map.scen,4,BFS,1.0,155,True,73.0000,61.87005768,4238,4.3293,17.99
Moscow_0_256.map,Moscow_0_256.map.scen,4,BFS,1.0,156,True,76.0000,63.6984848,5703,5.9303,19.31
Moscow_0_256.map,Moscow_0_256.map.scen,4,BFS,1.0,157,True,74.0000,60.52691193,7502,7.5918,22.26
Moscow_0_256.map,Moscow_0_256.map.scen,4,BFS,1.0,158,True,83.0000,60.74011536,9302,9.3419,36.65
Moscow_0_256.map,Moscow_0_256.map.scen,4,BFS,1.0,159,True,78.0000,60.42640686,5566,5.7912,29.08
Moscow_0_256.map,Moscow_0_256.map.scen,4,BFS,1.0,160,True,89.0000,65.56854248,3757,3.7856,35.74
Moscow_0_256.map,Moscow_0_256.map.scen,4,BFS,1.0,161,True,89.0000,67.91168823,11923,13.1055,31.05
Moscow_0_256.map,Moscow_0_256.map.scen,4,BFS,1.0,162,True,79.0000,64.35533905,8448,8.4212,22.76
Moscow_0_256.map,Moscow_0_256.map.scen,4,BFS,1.0,163,True,79.0000,64.35533905,6682,7.2605,22.76
Moscow_0_256.map,Moscow_0_256.map.scen,4,BFS,1.0,164,True,78.0000,66.87005768,7882,7.7909,16.64
Moscow_0_256.map,Moscow_0_256.map.scen,4,BFS,1.0,165,True,83.0000,65.42640686,7398,7.5376,26.86
Moscow_0_256.map,Moscow_0_256.map.scen,4,BFS,1.0,166,True,77.0000,67.62741699,8250,8.2689,13.86
Moscow_0_256.map,Moscow_0_256.map.scen,4,BFS,1.0,167,True,76.0000,65.45584412,8583,8.7917,16.11
Moscow_0_256.map,Moscow_0_256.map.scen,4,BFS,1.0,168,True,86.0000,67.25483398,8889,9.0067,27.87
Moscow_0_256.map,Moscow_0_256.map.scen,4,BFS,1.0,169,True,78.0000,65.11269836,7627,7.6207,19.79
Moscow_0_256.map,Moscow_0_256.map.scen,4,BFS,1.0,170,True,87.0000,71.76955261,7623,7.8054,21.22
Moscow_0_256.map,Moscow_0_256.map.scen,4,BFS,1.0,171,True,77.0000,71.14213562,7452,7.4585,8.23
Moscow_0_256.map,Moscow_0_256.map.scen,4,BFS,1.0,172,True,85.0000,69.76955261,9252,10.0278,21.83
Moscow_0_256.map,Moscow_0_256.map.scen,4,BFS,1.0,173,True,81.0000,69.87005768,4292,4.4017,15.93
Moscow_0_256.map,Moscow_0_256.map.scen,4,BFS,1.0,174,True,82.0000,69.6984848,7726,7.8170,17.65
Moscow_0_256.map,Moscow_0_256.map.scen,4,BFS,1.0,175,True,80.0000,70.04163055,5855,6.2181,14.22
Moscow_0_256.map,Moscow_0_256.map.scen,4,BFS,1.0,176,True,84.0000,71.11269836,7373,8.3083,18.12
Moscow_0_256.map,Moscow_0_256.map.scen,4,BFS,1.0,177,True,85.0000,71.52691193,10706,11.7070,18.84
Moscow_0_256.map,Moscow_0_256.map.scen,4,BFS,1.0,178,True,77.0000,70.55634918,8847,8.9843,9.13
Moscow_0_256.map,Moscow_0_256.map.scen,4,BFS,1.0,179,True,87.0000,68.84062042,12014,12.3178,26.38
Moscow_0_256.map,Moscow_0_256.map.scen,4,BFS,1.0,180,True,99.0000,73.81118317,6922,7.2755,34.13
Moscow_0_256.map,Moscow_0_256.map.scen,4,BFS,1.0,181,True,93.0000,74.84062042,10211,10.6462,24.26
Moscow_0_256.map,Moscow_0_256.map.scen,4,BFS,1.0,182,True,81.0000,73.87005768,6337,6.4428,9.65
Moscow_0_256.map,Moscow_0_256.map.scen,4,BFS,1.0,183,True,84.0000,73.45584412,4552,4.5737,14.35
Moscow_0_256.map,Moscow_0_256.map.scen,4,BFS,1.0,184,True,89.0000,73.76955261,6218,7.2324,20.65
Moscow_0_256.map,Moscow_0_256.map.scen,4,BFS,1.0,185,True,86.0000,75.45584412,9180,9.2094,13.97
Moscow_0_256.map,Moscow_0_256.map.scen,4,BFS,1.0,186,True,95.0000,75.08326111,9480,9.8634,26.53
Moscow_0_256.map,Moscow_0_256.map.scen,4,BFS,1.0,187,True,80.0000,72.97056274,6721,6.8321,9.63
Moscow_0_256.map,Moscow_0_256.map.scen,4,BFS,1.0,188,True,95.0000,75.66904755,6509,6.5439,25.55
Moscow_0_256.map,Moscow_0_256.map.scen,4,BFS,1.0,189,True,90.0000,74.18376617,8932,8.8994,21.32
Moscow_0_256.map,Moscow_0_256.map.scen,4,BFS,1.0,190,True,98.0000,79.84062042,13221,13.4776,22.74
Moscow_0_256.map,Moscow_0_256.map.scen,4,BFS,1.0,191,True,89.0000,79.76955261,5778,5.8878,11.57
Moscow_0_256.map,Moscow_0_256.map.scen,4,BFS,1.0,192,True,103.0000,78.3969696,10934,11.3277,31.38
Moscow_0_256.map,Moscow_0_256.map.scen,4,BFS,1.0,193,True,92.0000,76.76955261,7024,6.9936,19.84
Moscow_0_256.map,Moscow_0_256.map.scen,4,BFS,1.0,194,True,91.0000,78.11269836,10309,10.5981,16.50
Moscow_0_256.map,Moscow_0_256.map.scen,4,BFS,1.0,195,True,102.0000,78.56854248,11400,11.6970,29.82
Moscow_0_256.map,Moscow_0_256.map.scen,4,BFS,1.0,196,True,94.0000,76.42640686,10764,11.4028,22.99
Moscow_0_256.map,Moscow_0_256.map.scen,4,BFS,1.0,197,True,90.0000,77.6984848,6281,6.3680,15.83
Moscow_0_256.map,Moscow_0_256.map.scen,4,BFS,1.0,198,True,91.0000,78.6984848,8197,8.3988,15.63
Moscow_0_256.map,Moscow_0_256.map.scen,4,BFS,1.0,199,True,98.0000,79.25483398,5997,6.1292,23.65
Moscow_0_256.map,Moscow_0_256.map.scen,4,BFS,1.0,200,True,100.0000,83.0121933,4904,4.8786,20.46
Moscow_0_256.map,Moscow_0_256.map.scen,4,BFS,1.0,201,True,102.0000,80.32590179,7303,7.4832,26.98
Moscow_0_256.map,Moscow_0_256.map.scen,4,BFS,1.0,202,True,96.0000,83.6984848,12197,12.4356,14.70
Moscow_0_256.map,Moscow_0_256.map.scen,4,BFS,1.0,203,True,95.0000,80.94112549,10020,9.9488,17.37
Moscow_0_256.map,Moscow_0_256.map.scen,4,BFS,1.0,204,True,108.0000,83.3969696,11431,11.7997,29.50
Moscow_0_256.map,Moscow_0_256.map.scen,4,BFS,1.0,205,True,107.0000,80.63961029,10588,10.7755,32.69
Moscow_0_256.map,Moscow_0_256.map.scen,4,BFS,1.0,206,True,99.0000,82.0121933,12767,12.8196,20.71
Moscow_0_256.map,Moscow_0_256.map.scen,4,BFS,1.0,207,True,98.0000,81.0121933,11110,11.3657,20.97
Moscow_0_256.map,Moscow_0_256.map.scen,4,BFS,1.0,208,True,90.0000,82.38477631,10305,10.5781,9.24
Moscow_0_256.map,Moscow_0_256.map.scen,4,BFS,1.0,209,True,99.0000,82.0121933,13520,13.4703,20.71
Moscow_0_256.map,Moscow_0_256.map.scen,4,BFS,1.0,210,True,104.0000,87.0121933,10133,9.9704,19.52
Moscow_0_256.map,Moscow_0_256.map.scen,4,BFS,1.0,211,True,97.0000,84.6984848,8665,8.5720,14.52
Moscow_0_256.map,Moscow_0_256.map.scen,4,BFS,1.0,212,True,102.0000,87.94112549,11975,12.1021,15.99
Moscow_0_256.map,Moscow_0_256.map.scen,4,BFS,1.0,213,True,109.0000,86.98275604,12191,12.3370,25.31
Moscow_0_256.map,Moscow_0_256.map.scen,4,BFS,1.0,214,True,97.0000,85.28427124,10502,10.8038,13.74
Moscow_0_256.map,Moscow_0_256.map.scen,4,BFS,1.0,215,True,108.0000,85.74011536,8020,8.4081,25.96
Moscow_0_256.map,Moscow_0_256.map.scen,4,BFS,1.0,216,True,105.0000,85.08326111,8114,7.9272,23.41
Moscow_0_256.map,Moscow_0_256.map.scen,4,BFS,1.0,217,True,108.0000,85.74011536,15895,15.8849,25.96
Moscow_0_256.map,Moscow_0_256.map.scen,4,BFS,1.0,218,True,101.0000,86.88225098,14835,14.5384,16.25
Moscow_0_256.map,Moscow_0_256.map.scen,4,BFS,1.0,219,True,110.0000,87.74011536,12520,12.5896,25.37
Moscow_0_256.map,Moscow_0_256.map.scen,4,BFS,1.0,220,True,118.0000,91.05382385,10456,10.6296,29.59
Moscow_0_256.map,Moscow_0_256.map.scen,4,BFS,1.0,221,True,113.0000,91.91168823,14090,13.8106,22.94
Moscow_0_256.map,Moscow_0_256.map.scen,4,BFS,1.0,222,True,110.0000,88.32590179,13728,13.7446,24.54
Moscow_0_256.map,Moscow_0_256.map.scen,4,BFS,1.0,223,True,113.0000,90.15432892,12672,12.8203,25.34
Moscow_0_256.map,Moscow_0_256.map.scen,4,BFS,1.0,224,True,117.0000,89.46803741,18029,17.8089,30.77
Moscow_0_256.map,Moscow_0_256.map.scen,4,BFS,1.0,225,True,118.0000,88.12489166,12776,12.7871,33.90
Moscow_0_256.map,Moscow_0_256.map.scen,4,BFS,1.0,226,True,119.0000,90.29646454,7844,7.7413,31.79
Moscow_0_256.map,Moscow_0_256.map.scen,4,BFS,1.0,227,True,113.0000,91.91168823,12483,12.3298,22.94
Moscow_0_256.map,Moscow_0_256.map.scen,4,BFS,1.0,228,True,119.0000,90.29646454,17831,17.4173,31.79
Moscow_0_256.map,Moscow_0_256.map.scen,4,BFS,1.0,229,True,109.0000,89.08326111,12657,12.6447,22.36
Moscow_0_256.map,Moscow_0_256.map.scen,4,BFS,1.0,230,True,101.0000,92.21320343,11639,11.6978,9.53
Moscow_0_256.map,Moscow_0_256.map.scen,4,BFS,1.0,231,True,122.0000,93.88225098,13255,13.2602,29.95
Moscow_0_256.map,Moscow_0_256.map.scen,4,BFS,1.0,232,True,108.0000,95.6984848,8309,8.2357,12.85
Moscow_0_256.map,Moscow_0_256.map.scen,4,BFS,1.0,233,True,113.0000,94.84062042,15365,15.1631,19.15
Moscow_0_256.map,Moscow_0_256.map.scen,4,BFS,1.0,234,True,121.0000,94.63961029,14765,16.1367,27.85
Moscow_0_256.map,Moscow_0_256.map.scen,4,BFS,1.0,235,True,109.0000,94.35533905,14218,25.2733,15.52
Moscow_0_256.map,Moscow_0_256.map.scen,4,BFS,1.0,236,True,122.0000,92.7106781,11332,15.1720,31.59
Moscow_0_256.map,Moscow_0_256.map.scen,4,BFS,1.0,237,True,123.0000,92.53910522,20219,20.4128,32.92
Moscow_0_256.map,Moscow_0_256.map.scen,4,BFS,1.0,238,True,111.0000,94.0121933,13613,14.7122,18.07
Moscow_0_256.map,Moscow_0_256.map.scen,4,BFS,1.0,239,True,112.0000,92.66904755,8970,9.1112,20.86
Moscow_0_256.map,Moscow_0_256.map.scen,4,BFS,1.0,240,True,129.0000,96.78174591,10886,12.1338,33.29
Moscow_0_256.map,Moscow_0_256.map.scen,4,BFS,1.0,241,True,124.0000,98.22539673,10968,12.1895,26.24
Moscow_0_256.map,Moscow_0_256.map.scen,4,BFS,1.0,242,True,122.0000,96.81118317,20974,23.6372,26.02
Moscow_0_256.map,Moscow_0_256.map.scen,4,BFS,1.0,243,True,117.0000,97.08326111,16413,17.3471,20.52
Moscow_0_256.map,Moscow_0_256.map.scen,4,BFS,1.0,244,True,129.0000,98.68124084,12109,13.1343,30.72
Moscow_0_256.map,Moscow_0_256.map.scen,4,BFS,1.0,245,True,109.0000,96.11269836,8508,9.3197,13.41
Moscow_0_256.map,Moscow_0_256.map.scen,4,BFS,1.0,246,True,131.0000,99.95331879,22218,22.6730,31.06
Moscow_0_256.map,Moscow_0_256.map.scen,4,BFS,1.0,247,True,128.0000,99.88225098,6241,6.1710,28.15
Moscow_0_256.map,Moscow_0_256.map.scen,4,BFS,1.0,248,True,117.0000,97.66904755,16077,16.1279,19.79
Moscow_0_256.map,Moscow_0_256.map.scen,4,BFS,1.0,249,True,124.0000,97.05382385,11799,12.1347,27.76
Moscow_0_256.map,Moscow_0_256.map.scen,4,BFS,1.0,250,True,125.0000,103.32590179,18259,17.8291,20.98
Moscow_0_256.map,Moscow_0_256.map.scen,4,BFS,1.0,251,True,129.0000,103.81118317,14174,14.5068,24.26
Moscow_0_256.map,Moscow_0_256.map.scen,4,BFS,1.0,252,True,122.0000,101.49747467,8193,8.9465,20.20
Moscow_0_256.map,Moscow_0_256.map.scen,4,BFS,1.0,253,True,116.0000,103.6984848,11902,13.6572,11.86
Moscow_0_256.map,Moscow_0_256.map.scen,4,BFS,1.0,254,True,138.0000,102.85281372,20792,29.0626,34.17
Moscow_0_256.map,Moscow_0_256.map.scen,4,BFS,1.0,255,True,121.0000,102.84062042,10347,11.0184,17.66
Moscow_0_256.map,Moscow_0_256.map.scen,4,BFS,1.0,256,True,106.0000,101.89949493,15357,16.9106,4.02
Moscow_0_256.map,Moscow_0_256.map.scen,4,BFS,1.0,257,True,128.0000,101.63961029,15388,16.7074,25.94
Moscow_0_256.map,Moscow_0_256.map.scen,4,BFS,1.0,258,True,113.0000,100.6984848,7066,7.2048,12.22
Moscow_0_256.map,Moscow_0_256.map.scen,4,BFS,1.0,259,True,111.0000,102.79898987,8401,9.2795,7.98
Moscow_0_256.map,Moscow_0_256.map.scen,4,BFS,1.0,260,True,139.0000,104.43860016,11315,11.8781,33.09
Moscow_0_256.map,Moscow_0_256.map.scen,4,BFS,1.0,261,True,129.0000,105.56854248,20892,23.3104,22.20
Moscow_0_256.map,Moscow_0_256.map.scen,4,BFS,1.0,262,True,121.0000,104.0121933,13638,14.6876,16.33
Moscow_0_256.map,Moscow_0_256.map.scen,4,BFS,1.0,263,True,130.0000,105.98275604,20111,21.4802,22.66
Moscow_0_256.map,Moscow_0_256.map.scen,4,BFS,1.0,264,True,141.0000,104.68124084,16362,16.9369,34.69
Moscow_0_256.map,Moscow_0_256.map.scen,4,BFS,1.0,265,True,125.0000,105.66904755,16439,17.5886,18.29
Moscow_0_256.map,Moscow_0_256.map.scen,4,BFS,1.0,266,True,123.0000,105.42640686,13722,13.9677,16.67
Moscow_0_256.map,Moscow_0_256.map.scen,4,BFS,1.0,267,True,120.0000,105.35533905,13076,13.8123,13.90
Moscow_0_256.map,Moscow_0_256.map.scen,4,BFS,1.0,268,True,122.0000,107.94112549,15751,16.6502,13.02
Moscow_0_256.map,Moscow_0_256.map.scen,4,BFS,1.0,269,True,128.0000,107.49747467,18735,18.8891,19.07
Moscow_0_256.map,Moscow_0_256.map.scen,4,BFS,1.0,270,True,124.0000,110.22539673,16755,17.0554,12.50
Moscow_0_256.map,Moscow_0_256.map.scen,4,BFS,1.0,271,True,130.0000,109.49747467,9392,9.3185,18.72
Moscow_0_256.map,Moscow_0_256.map.scen,4,BFS,1.0,272,True,130.0000,111.84062042,21735,25.6438,16.24
Moscow_0_256.map,Moscow_0_256.map.scen,4,BFS,1.0,273,True,132.0000,108.56854248,16205,17.4912,21.58
Moscow_0_256.map,Moscow_0_256.map.scen,4,BFS,1.0,274,True,152.0000,110.99494934,24730,26.0501,36.94
Moscow_0_256.map,Moscow_0_256.map.scen,4,BFS,1.0,275,True,138.0000,111.63961029,11853,11.8250,23.61
Moscow_0_256.map,Moscow_0_256.map.scen,4,BFS,1.0,276,True,142.0000,110.36753235,13893,14.1919,28.66
Moscow_0_256.map,Moscow_0_256.map.scen,4,BFS,1.0,277,True,130.0000,108.26702728,18370,20.5623,20.07
Moscow_0_256.map,Moscow_0_256.map.scen,4,BFS,1.0,278,True,136.0000,110.81118317,19849,20.5427,22.73
Moscow_0_256.map,Moscow_0_256.map.scen,4,BFS,1.0,279,True,126.0000,111.35533905,22044,24.4523,13.15
Moscow_0_256.map,Moscow_0_256.map.scen,4,BFS,1.0,280,True,148.0000,115.78174591,27227,28.5415,27.83
Moscow_0_256.map,Moscow_0_256.map.scen,4,BFS,1.0,281,True,145.0000,112.19595947,15927,17.8258,29.24
Moscow_0_256.map,Moscow_0_256.map.scen,4,BFS,1.0,282,True,136.0000,114.32590179,22285,23.9407,18.96
Moscow_0_256.map,Moscow_0_256.map.scen,4,BFS,1.0,283,True,135.0000,113.32590179,16918,17.8591,19.13
Moscow_0_256.map,Moscow_0_256.map.scen,4,BFS,1.0,284,True,142.0000,115.63961029,10632,11.6831,22.80
Moscow_0_256.map,Moscow_0_256.map.scen,4,BFS,1.0,285,True,132.0000,112.66904755,11507,12.9755,17.16
Moscow_0_256.map,Moscow_0_256.map.scen,4,BFS,1.0,286,True,152.0000,113.92388153,23256,24.9367,33.42
Moscow_0_256.map,Moscow_0_256.map.scen,4,BFS,1.0,287,True,144.0000,112.36753235,14976,16.4394,28.15
Moscow_0_256.map,Moscow_0_256.map.scen,4,BFS,1.0,288,True,152.0000,112.16652222,18479,19.3765,35.51
Moscow_0_256.map,Moscow_0_256.map.scen,4,BFS,1.0,289,True,147.0000,114.19595947,12501,13.1070,28.73
Moscow_0_256.map,Moscow_0_256.map.scen,4,BFS,1.0,290,True,139.0000,116.15432892,9379,9.4398,19.67
Moscow_0_256.map,Moscow_0_256.map.scen,4,BFS,1.0,291,True,158.0000,116.99494934,20033,33.8873,35.05
Moscow_0_256.map,Moscow_0_256.map.scen,4,BFS,1.0,292,True,149.0000,116.78174591,18202,21.4982,27.59
Moscow_0_256.map,Moscow_0_256.map.scen,4,BFS,1.0,293,True,138.0000,116.81118317,19123,20.2204,18.14
Moscow_0_256.map,Moscow_0_256.map.scen,4,BFS,1.0,294,True,125.0000,118.55634918,8830,9.5782,5.44
Moscow_0_256.map,Moscow_0_256.map.scen,4,BFS,1.0,295,True,157.0000,117.16652222,27877,29.6781,34.00
Moscow_0_256.map,Moscow_0_256.map.scen,4,BFS,1.0,296,True,153.0000,116.09545441,22076,22.6158,31.79
Moscow_0_256.map,Moscow_0_256.map.scen,4,BFS,1.0,297,True,137.0000,118.84062042,12481,12.6065,15.28
Moscow_0_256.map,Moscow_0_256.map.scen,4,BFS,1.0,298,True,137.0000,118.25483398,14557,14.6623,15.85
Moscow_0_256.map,Moscow_0_256.map.scen,4,BFS,1.0,299,True,137.0000,117.66904755,12419,12.2558,16.43
Moscow_0_256.map,Moscow_0_256.map.scen,4,BFS,1.0,300,True,144.0000,122.32590179,26585,26.7405,17.72
Moscow_0_256.map,Moscow_0_256.map.scen,4,BFS,1.0,301,True,155.0000,122.19595947,14592,14.5768,26.85
Moscow_0_256.map,Moscow_0_256.map.scen,4,BFS,1.0,302,True,134.0000,121.6984848,23021,23.4117,10.11
Moscow_0_256.map,Moscow_0_256.map.scen,4,BFS,1.0,303,True,163.0000,120.82337646,30477,29.6132,34.91
Moscow_0_256.map,Moscow_0_256.map.scen,4,BFS,1.0,304,True,156.0000,122.0243866,14638,14.0237,27.84
Moscow_0_256.map,Moscow_0_256.map.scen,4,BFS,1.0,305,True,149.0000,123.81118317,17948,17.2967,20.34
Moscow_0_256.map,Moscow_0_256.map.scen,4,BFS,1.0,306,True,146.0000,123.74011536,12677,13.1396,17.99
Moscow_0_256.map,Moscow_0_256.map.scen,4,BFS,1.0,307,True,164.0000,122.4091629,28372,27.9123,33.98
Moscow_0_256.map,Moscow_0_256.map.scen,4,BFS,1.0,308,True,143.0000,123.66904755,25054,24.8209,15.63
Moscow_0_256.map,Moscow_0_256.map.scen,4,BFS,1.0,309,True,154.0000,122.95331879,11262,11.4513,25.25
Moscow_0_256.map,Moscow_0_256.map.scen,4,BFS,1.0,310,True,142.0000,127.94112549,17135,25.1058,10.99
Moscow_0_256.map,Moscow_0_256.map.scen,4,BFS,1.0,311,True,169.0000,126.82337646,29732,29.9166,33.26
Moscow_0_256.map,Moscow_0_256.map.scen,4,BFS,1.0,312,True,167.0000,125.4091629,27160,26.8501,33.16
Moscow_0_256.map,Moscow_0_256.map.scen,4,BFS,1.0,313,True,159.0000,125.61017303,30148,29.1290,26.58
Moscow_0_256.map,Moscow_0_256.map.scen,4,BFS,1.0,314,True,146.0000,125.49747467,19178,19.0856,16.34
Moscow_0_256.map,Moscow_0_256.map.scen,4,BFS,1.0,315,True,155.0000,125.12489166,25607,25.4156,23.88
Moscow_0_256.map,Moscow_0_256.map.scen,4,BFS,1.0,316,True,161.0000,124.09545441,22907,22.9459,29.74
Moscow_0_256.map,Moscow_0_256.map.scen,4,BFS,1.0,317,True,161.0000,126.43860016,31526,33.3156,27.33
Moscow_0_256.map,Moscow_0_256.map.scen,4,BFS,1.0,318,True,145.0000,125.81118317,21443,21.9937,15.25
Moscow_0_256.map,Moscow_0_256.map.scen,4,BFS,1.0,319,True,161.0000,124.09545441,19033,20.2800,29.74
Moscow_0_256.map,Moscow_0_256.map.scen,4,BFS,1.0,320,True,155.0000,131.56854248,17147,17.6276,17.81
Moscow_0_256.map,Moscow_0_256.map.scen,4,BFS,1.0,321,True,161.0000,129.36753235,29526,32.1516,24.45
Moscow_0_256.map,Moscow_0_256.map.scen,4,BFS,1.0,322,True,146.0000,130.76955261,26076,27.1296,11.65
Moscow_0_256.map,Moscow_0_256.map.scen,4,BFS,1.0,323,True,161.0000,129.95331879,15476,16.0651,23.89
Moscow_0_256.map,Moscow_0_256.map.scen,4,BFS,1.0,324,True,149.0000,131.42640686,22139,23.1837,13.37
Moscow_0_256.map,Moscow_0_256.map.scen,4,BFS,1.0,325,True,163.0000,129.0243866,28713,30.6112,26.33
Moscow_0_256.map,Moscow_0_256.map.scen,4,BFS,1.0,326,True,156.0000,130.22539673,25840,26.6805,19.79
Moscow_0_256.map,Moscow_0_256.map.scen,4,BFS,1.0,327,True,145.0000,128.59797974,10441,10.8731,12.75
Moscow_0_256.map,Moscow_0_256.map.scen,4,BFS,1.0,328,True,161.0000,130.53910522,22182,22.6481,23.33
Moscow_0_256.map,Moscow_0_256.map.scen,4,BFS,1.0,329,True,150.0000,128.91168823,27657,27.5333,16.36
Moscow_0_256.map,Moscow_0_256.map.scen,4,BFS,1.0,330,True,161.0000,134.88225098,17651,17.6204,19.36
Moscow_0_256.map,Moscow_0_256.map.scen,4,BFS,1.0,331,True,172.0000,135.09545441,29206,28.5274,27.32
Moscow_0_256.map,Moscow_0_256.map.scen,4,BFS,1.0,332,True,167.0000,135.36753235,23877,31.0662,23.37
Moscow_0_256.map,Moscow_0_256.map.scen,4,BFS,1.0,333,True,153.0000,134.84062042,29152,29.5355,13.47
Moscow_0_256.map,Moscow_0_256.map.scen,4,BFS,1.0,334,True,154.0000,132.91168823,10119,10.1913,15.87
Moscow_0_256.map,Moscow_0_256.map.scen,4,BFS,1.0,335,True,173.0000,132.58073578,33482,35.2159,30.49
Moscow_0_256.map,Moscow_0_256.map.scen,4,BFS,1.0,336,True,159.0000,132.05382385,25942,27.8335,20.41
Moscow_0_256.map,Moscow_0_256.map.scen,4,BFS,1.0,337,True,154.0000,134.08326111,22028,32.6480,14.85
Moscow_0_256.map,Moscow_0_256.map.scen,4,BFS,1.0,338,True,166.0000,133.19595947,14810,16.6514,24.63
Moscow_0_256.map,Moscow_0_256.map.scen,4,BFS,1.0,339,True,153.0000,133.66904755,16143,19.8650,14.46
Moscow_0_256.map,Moscow_0_256.map.scen,4,BFS,1.0,340,True,160.0000,136.12489166,12418,14.7982,17.54
Moscow_0_256.map,Moscow_0_256.map.scen,4,BFS,1.0,341,True,163.0000,137.22539673,22617,24.6368,18.78
Moscow_0_256.map,Moscow_0_256.map.scen,4,BFS,1.0,342,True,183.0000,137.30865784,26815,31.2385,33.28
Moscow_0_256.map,Moscow_0_256.map.scen,4,BFS,1.0,343,True,180.0000,139.58073578,16604,17.6356,28.96
Moscow_0_256.map,Moscow_0_256.map.scen,4,BFS,1.0,344,True,187.0000,139.55129852,22303,27.2860,34.00
Moscow_0_256.map,Moscow_0_256.map.scen,4,BFS,1.0,345,True,161.0000,136.3969696,20642,30.3328,18.04
Moscow_0_256.map,Moscow_0_256.map.scen,4,BFS,1.0,346,True,162.0000,136.22539673,17820,22.5380,18.92
Moscow_0_256.map,Moscow_0_256.map.scen,4,BFS,1.0,347,True,162.0000,138.65180359,28898,37.3841,16.84
Moscow_0_256.map,Moscow_0_256.map.scen,4,BFS,1.0,348,True,165.0000,136.29646454,22456,24.1056,21.06
Moscow_0_256.map,Moscow_0_256.map.scen,4,BFS,1.0,349,True,187.0000,139.55129852,27521,27.9663,34.00
Moscow_0_256.map,Moscow_0_256.map.scen,4,BFS,1.0,350,True,182.0000,141.58073578,17204,16.9800,28.55
Moscow_0_256.map,Moscow_0_256.map.scen,4,BFS,1.0,351,True,177.0000,143.0243866,16424,16.4580,23.76
Moscow_0_256.map,Moscow_0_256.map.scen,4,BFS,1.0,352,True,158.0000,141.15432892,29415,29.3902,11.93
Moscow_0_256.map,Moscow_0_256.map.scen,4,BFS,1.0,353,True,164.0000,141.15432892,28224,28.5103,16.18
Moscow_0_256.map,Moscow_0_256.map.scen,4,BFS,1.0,354,True,185.0000,141.65180359,27359,27.4525,30.60
Moscow_0_256.map,Moscow_0_256.map.scen,4,BFS,1.0,355,True,187.0000,141.30865784,24421,24.4252,32.33
Moscow_0_256.map,Moscow_0_256.map.scen,4,BFS,1.0,356,True,174.0000,143.53910522,14757,14.9501,21.22
Moscow_0_256.map,Moscow_0_256.map.scen,4,BFS,1.0,357,True,184.0000,141.82337646,36590,38.5362,29.74
Moscow_0_256.map,Moscow_0_256.map.scen,4,BFS,1.0,358,True,180.0000,140.75230865,24358,25.6135,27.88
Moscow_0_256.map,Moscow_0_256.map.scen,4,BFS,1.0,359,True,183.0000,140.23759003,22084,22.8163,30.49
Moscow_0_256.map,Moscow_0_256.map.scen,4,BFS,1.0,360,True,163.0000,146.0121933,25167,26.6479,11.63
Moscow_0_256.map,Moscow_0_256.map.scen,4,BFS,1.0,361,True,164.0000,147.0121933,29319,31.9298,11.56
Moscow_0_256.map,Moscow_0_256.map.scen,4,BFS,1.0,362,True,178.0000,146.95331879,24333,25.9725,21.13
Moscow_0_256.map,Moscow_0_256.map.scen,4,BFS,1.0,363,True,178.0000,146.95331879,36715,41.4050,21.13
Moscow_0_256.map,Moscow_0_256.map.scen,4,BFS,1.0,364,True,193.0000,144.96551208,35809,36.9994,33.14
Moscow_0_256.map,Moscow_0_256.map.scen,4,BFS,1.0,365,True,195.0000,145.79393921,35397,36.4828,33.75
Moscow_0_256.map,Moscow_0_256.map.scen,4,BFS,1.0,366,True,178.0000,144.0243866,13278,13.5712,23.59
Moscow_0_256.map,Moscow_0_256.map.scen,4,BFS,1.0,367,True,187.0000,145.4091629,38277,38.8834,28.60
Moscow_0_256.map,Moscow_0_256.map.scen,4,BFS,1.0,368,True,165.0000,145.08326111,27726,29.2870,13.73
Moscow_0_256.map,Moscow_0_256.map.scen,4,BFS,1.0,369,True,188.0000,144.65180359,32003,35.0122,29.97
Moscow_0_256.map,Moscow_0_256.map.scen,4,BFS,1.0,370,True,166.0000,148.42640686,21828,23.6482,11.84
Moscow_0_256.map,Moscow_0_256.map.scen,4,BFS,1.0,371,True,199.0000,150.37972565,37997,40.6226,32.33
Moscow_0_256.map,Moscow_0_256.map.scen,4,BFS,1.0,372,True,175.0000,148.05382385,34936,35.0244,18.20
Moscow_0_256.map,Moscow_0_256.map.scen,4,BFS,1.0,373,True,180.0000,151.43860016,33821,33.8211,18.86
Moscow_0_256.map,Moscow_0_256.map.scen,4,BFS,1.0,374,True,181.0000,151.12489166,23516,24.8564,19.77
Moscow_0_256.map,Moscow_0_256.map.scen,4,BFS,1.0,375,True,183.0000,150.78174591,25129,25.9122,21.37
Moscow_0_256.map,Moscow_0_256.map.scen,4,BFS,1.0,376,True,194.0000,148.30865784,20738,21.9697,30.81
Moscow_0_256.map,Moscow_0_256.map.scen,4,BFS,1.0,377,True,173.0000,148.3969696,22928,23.4438,16.58
Moscow_0_256.map,Moscow_0_256.map.scen,4,BFS,1.0,378,True,192.0000,150.99494934,22786,25.1961,27.16
Moscow_0_256.map,Moscow_0_256.map.scen,4,BFS,1.0,379,True,183.0000,149.0243866,36095,36.0783,22.80
Moscow_0_256.map,Moscow_0_256.map.scen,4,BFS,1.0,380,True,206.0000,154.45079346,41883,43.5060,33.38
Moscow_0_256.map,Moscow_0_256.map.scen,4,BFS,1.0,381,True,180.0000,153.05382385,34839,35.1968,17.61
Moscow_0_256.map,Moscow_0_256.map.scen,4,BFS,1.0,382,True,189.0000,154.43860016,21474,21.9502,22.38
Moscow_0_256.map,Moscow_0_256.map.scen,4,BFS,1.0,383,True,191.0000,154.68124084,30518,30.0278,23.48
Moscow_0_256.map,Moscow_0_256.map.scen,4,BFS,1.0,384,True,185.0000,152.78174591,32225,33.1773,21.09
Moscow_0_256.map,Moscow_0_256.map.scen,4,BFS,1.0,385,True,190.0000,152.50966797,25509,25.6332,24.58
Moscow_0_256.map,Moscow_0_256.map.scen,4,BFS,1.0,386,True,187.0000,155.36753235,25611,27.5234,20.36
Moscow_0_256.map,Moscow_0_256.map.scen,4,BFS,1.0,387,True,185.0000,152.78174591,34190,35.5920,21.09
Moscow_0_256.map,Moscow_0_256.map.scen,4,BFS,1.0,388,True,172.0000,152.08326111,14000,13.7580,13.10
Moscow_0_256.map,Moscow_0_256.map.scen,4,BFS,1.0,389,True,191.0000,155.50966797,29927,30.0973,22.82
Moscow_0_256.map,Moscow_0_256.map.scen,4,BFS,1.0,390,True,201.0000,157.06601715,38013,38.1107,27.97
Moscow_0_256.map,Moscow_0_256.map.scen,4,BFS,1.0,391,True,180.0000,157.74011536,32220,32.0262,14.11
Moscow_0_256.map,Moscow_0_256.map.scen,4,BFS,1.0,392,True,172.0000,157.94112549,16114,16.4518,8.90
Moscow_0_256.map,Moscow_0_256.map.scen,4,BFS,1.0,393,True,186.0000,157.29646454,35886,50.8100,18.25
Moscow_0_256.map,Moscow_0_256.map.scen,4,BFS,1.0,394,True,192.0000,156.89444427,32030,37.6375,22.38
Moscow_0_256.map,Moscow_0_256.map.scen,4,BFS,1.0,395,True,201.0000,158.82337646,25631,31.2138,26.56
Moscow_0_256.map,Moscow_0_256.map.scen,4,BFS,1.0,396,True,206.0000,157.96551208,38954,42.3246,30.41
Moscow_0_256.map,Moscow_0_256.map.scen,4,BFS,1.0,397,True,184.0000,157.05382385,37076,39.2620,17.16
Moscow_0_256.map,Moscow_0_256.map.scen,4,BFS,1.0,398,True,182.0000,159.15432892,33165,35.2448,14.35
Moscow_0_256.map,Moscow_0_256.map.scen,4,BFS,1.0,399,True,182.0000,156.81118317,12539,13.1463,16.06
Moscow_0_256.map,Moscow_0_256.map.scen,4,BFS,1.0,400,True,207.0000,162.48023071,34119,35.3454,27.40
Moscow_0_256.map,Moscow_0_256.map.scen,4,BFS,1.0,401,True,206.0000,163.37972565,43612,48.3202,26.09
Moscow_0_256.map,Moscow_0_256.map.scen,4,BFS,1.0,402,True,178.0000,161.0121933,31331,33.0922,10.55
Moscow_0_256.map,Moscow_0_256.map.scen,4,BFS,1.0,403,True,195.0000,162.27922058,37797,37.8654,20.16
Moscow_0_256.map,Moscow_0_256.map.scen,4,BFS,1.0,404,True,212.0000,161.62236633,30646,32.3144,31.17
Moscow_0_256.map,Moscow_0_256.map.scen,4,BFS,1.0,405,True,201.0000,163.50966797,38516,38.4928,22.93
Moscow_0_256.map,Moscow_0_256.map.scen,4,BFS,1.0,406,True,197.0000,160.68124084,27664,28.3075,22.60
Moscow_0_256.map,Moscow_0_256.map.scen,4,BFS,1.0,407,True,191.0000,162.88225098,39565,41.5498,17.26
Moscow_0_256.map,Moscow_0_256.map.scen,4,BFS,1.0,408,True,209.0000,163.89444427,21702,23.3458,27.52
Moscow_0_256.map,Moscow_0_256.map.scen,4,BFS,1.0,409,True,178.0000,161.59797974,19212,19.6070,10.15
Moscow_0_256.map,Moscow_0_256.map.scen,4,BFS,1.0,410,True,195.0000,166.29646454,38672,39.7996,17.26
Moscow_0_256.map,Moscow_0_256.map.scen,4,BFS,1.0,411,True,193.0000,166.05382385,28312,29.5141,16.23
Moscow_0_256.map,Moscow_0_256.map.scen,4,BFS,1.0,412,True,196.0000,165.43860016,21762,23.9751,18.47
Moscow_0_256.map,Moscow_0_256.map.scen,4,BFS,1.0,413,True,198.0000,164.0243866,26926,28.8137,20.71
Moscow_0_256.map,Moscow_0_256.map.scen,4,BFS,1.0,414,True,196.0000,167.29646454,18266,18.8845,17.16
Moscow_0_256.map,Moscow_0_256.map.scen,4,BFS,1.0,415,True,190.0000,167.74011536,17903,18.5787,13.27
Moscow_0_256.map,Moscow_0_256.map.scen,4,BFS,1.0,416,True,207.0000,167.75230865,42609,48.5186,23.40
Moscow_0_256.map,Moscow_0_256.map.scen,4,BFS,1.0,417,True,191.0000,165.22539673,17721,18.5183,15.60
Moscow_0_256.map,Moscow_0_256.map.scen,4,BFS,1.0,418,True,213.0000,164.86500702,30898,33.4986,29.20
Moscow_0_256.map,Moscow_0_256.map.scen,4,BFS,1.0,419,True,208.0000,166.99494934,31507,32.7357,24.55
Moscow_0_256.map,Moscow_0_256.map.scen,4,BFS,1.0,420,True,209.0000,169.55129852,25693,27.2307,23.27
Moscow_0_256.map,Moscow_0_256.map.scen,4,BFS,1.0,421,True,204.0000,171.19595947,27625,29.6784,19.16
Moscow_0_256.map,Moscow_0_256.map.scen,4,BFS,1.0,422,True,200.0000,168.36753235,21671,23.7025,18.79
Moscow_0_256.map,Moscow_0_256.map.scen,4,BFS,1.0,423,True,209.0000,169.16652222,31615,33.5154,23.55
Moscow_0_256.map,Moscow_0_256.map.scen,4,BFS,1.0,424,True,228.0000,170.00714264,41249,43.3224,34.11
Moscow_0_256.map,Moscow_0_256.map.scen,4,BFS,1.0,425,True,217.0000,169.49242401,18464,18.7519,28.03
Moscow_0_256.map,Moscow_0_256.map.scen,4,BFS,1.0,426,True,191.0000,171.66904755,13812,14.7427,11.26
Moscow_0_256.map,Moscow_0_256.map.scen,4,BFS,1.0,427,True,203.0000,171.95331879,34753,37.1385,18.06
Moscow_0_256.map,Moscow_0_256.map.scen,4,BFS,1.0,428,True,203.0000,171.36753235,31387,32.3027,18.46
Moscow_0_256.map,Moscow_0_256.map.scen,4,BFS,1.0,429,True,192.0000,171.49747467,30181,31.0376,11.96
Moscow_0_256.map,Moscow_0_256.map.scen,4,BFS,1.0,430,True,235.0000,174.66399689,24318,24.7566,34.54
Moscow_0_256.map,Moscow_0_256.map.scen,4,BFS,1.0,431,True,207.0000,173.0243866,34209,34.7528,19.64
Moscow_0_256.map,Moscow_0_256.map.scen,4,BFS,1.0,432,True,205.0000,175.26702728,30359,32.6439,16.96
Moscow_0_256.map,Moscow_0_256.map.scen,4,BFS,1.0,433,True,233.0000,175.59292908,20806,21.8817,32.69
Moscow_0_256.map,Moscow_0_256.map.scen,4,BFS,1.0,434,True,202.0000,172.12489166,41928,44.9575,17.36
Moscow_0_256.map,Moscow_0_256.map.scen,4,BFS,1.0,435,True,198.0000,173.3969696,32141,32.3886,14.19
Moscow_0_256.map,Moscow_0_256.map.scen,4,BFS,1.0,436,True,214.0000,174.30865784,14428,14.6563,22.77
Moscow_0_256.map,Moscow_0_256.map.scen,4,BFS,1.0,437,True,220.0000,174.30865784,35908,35.6072,26.21
Moscow_0_256.map,Moscow_0_256.map.scen,4,BFS,1.0,438,True,202.0000,175.63961029,29797,29.9094,15.01
Moscow_0_256.map,Moscow_0_256.map.scen,4,BFS,1.0,439,True,193.0000,174.25483398,21791,22.4257,10.76
Moscow_0_256.map,Moscow_0_256.map.scen,4,BFS,1.0,440,True,219.0000,179.30865784,21653,23.0413,22.14
Moscow_0_256.map,Moscow_0_256.map.scen,4,BFS,1.0,441,True,205.0000,177.7106781,27300,28.1583,15.36
Moscow_0_256.map,Moscow_0_256.map.scen,4,BFS,1.0,442,True,205.0000,179.46803741,34868,35.2919,14.23
Moscow_0_256.map,Moscow_0_256.map.scen,4,BFS,1.0,443,True,215.0000,178.58073578,16262,16.8189,20.39
Moscow_0_256.map,Moscow_0_256.map.scen,4,BFS,1.0,444,True,213.0000,179.0243866,22177,23.0829,18.98
Moscow_0_256.map,Moscow_0_256.map.scen,4,BFS,1.0,445,True,240.0000,176.14927826,37499,38.1048,36.25
Moscow_0_256.map,Moscow_0_256.map.scen,4,BFS,1.0,446,True,212.0000,178.61017303,32887,33.7528,18.69
Moscow_0_256.map,Moscow_0_256.map.scen,4,BFS,1.0,447,True,219.0000,178.4213562,36571,38.0387,22.74
Moscow_0_256.map,Moscow_0_256.map.scen,4,BFS,1.0,448,True,219.0000,177.65180359,39424,42.4160,23.27
Moscow_0_256.map,Moscow_0_256.map.scen,4,BFS,1.0,449,True,208.0000,177.53910522,38849,40.3789,17.16
Moscow_0_256.map,Moscow_0_256.map.scen,4,BFS,1.0,450,True,208.0000,182.22539673,32083,32.7935,14.14
Moscow_0_256.map,Moscow_0_256.map.scen,4,BFS,1.0,451,True,231.0000,182.37972565,37419,37.4211,26.66
Moscow_0_256.map,Moscow_0_256.map.scen,4,BFS,1.0,452,True,225.0000,183.4091629,36489,36.0444,22.68
Moscow_0_256.map,Moscow_0_256.map.scen,4,BFS,1.0,453,True,226.0000,180.89444427,27241,27.6795,24.93
Moscow_0_256.map,Moscow_0_256.map.scen,4,BFS,1.0,454,True,226.0000,182.89444427,29521,29.6667,23.57
Moscow_0_256.map,Moscow_0_256.map.scen,4,BFS,1.0,455,True,222.0000,180.4091629,39870,39.4951,23.05
Moscow_0_256.map,Moscow_0_256.map.scen,4,BFS,1.0,456,True,225.0000,180.48023071,35860,36.0170,24.67
Moscow_0_256.map,Moscow_0_256.map.scen,4,BFS,1.0,457,True,216.0000,182.0243866,27770,27.9901,18.67
Moscow_0_256.map,Moscow_0_256.map.scen,4,BFS,1.0,458,True,211.0000,181.12489166,43448,45.2659,16.49
Moscow_0_256.map,Moscow_0_256.map.scen,4,BFS,1.0,459,True,246.0000,180.39191894,23860,25.2626,36.37
Moscow_0_256.map,Moscow_0_256.map.scen,4,BFS,1.0,460,True,224.0000,184.75230865,26543,27.3438,21.24
Moscow_0_256.map,Moscow_0_256.map.scen,4,BFS,1.0,461,True,241.0000,185.93607483,42481,46.0216,29.61
Moscow_0_256.map,Moscow_0_256.map.scen,4,BFS,1.0,462,True,216.0000,187.29646454,24423,24.9045,15.33
Moscow_0_256.map,Moscow_0_256.map.scen,4,BFS,1.0,463,True,227.0000,187.4091629,45000,48.2244,21.13
Moscow_0_256.map,Moscow_0_256.map.scen,4,BFS,1.0,464,True,219.0000,185.0243866,41601,47.0042,18.36
Moscow_0_256.map,Moscow_0_256.map.scen,4,BFS,1.0,465,True,217.0000,185.36753235,22329,32.6564,17.06
Moscow_0_256.map,Moscow_0_256.map.scen,4,BFS,1.0,466,True,232.0000,187.48023071,30664,34.8249,23.75
Moscow_0_256.map,Moscow_0_256.map.scen,4,BFS,1.0,467,True,255.0000,184.119841,43554,51.0235,38.50
Moscow_0_256.map,Moscow_0_256.map.scen,4,BFS,1.0,468,True,250.0000,187.90663757,46435,52.5911,33.04
Moscow_0_256.map,Moscow_0_256.map.scen,4,BFS,1.0,469,True,213.0000,186.05382385,32817,36.3632,14.48
Moscow_0_256.map,Moscow_0_256.map.scen,4,BFS,1.0,470,True,235.0000,191.65180359,31810,34.9381,22.62
Moscow_0_256.map,Moscow_0_256.map.scen,4,BFS,1.0,471,True,216.0000,189.05382385,32279,36.5194,14.25
Moscow_0_256.map,Moscow_0_256.map.scen,4,BFS,1.0,472,True,214.0000,190.56854248,25866,29.4868,12.30
Moscow_0_256.map,Moscow_0_256.map.scen,4,BFS,1.0,473,True,224.0000,188.85281372,40809,42.7378,18.61
Moscow_0_256.map,Moscow_0_256.map.scen,4,BFS,1.0,474,True,258.0000,190.63455963,46043,47.4061,35.34
Moscow_0_256.map,Moscow_0_256.map.scen,4,BFS,1.0,475,True,258.0000,188.29141388,21381,21.7590,37.02
Moscow_0_256.map,Moscow_0_256.map.scen,4,BFS,1.0,476,True,216.0000,188.46803741,31925,32.7472,14.61
Moscow_0_256.map,Moscow_0_256.map.scen,4,BFS,1.0,477,True,230.0000,189.58073578,42686,45.1106,21.32
Moscow_0_256.map,Moscow_0_256.map.scen,4,BFS,1.0,478,True,217.0000,188.29646454,22393,22.8360,15.24
Moscow_0_256.map,Moscow_0_256.map.scen,4,BFS,1.0,479,True,213.0000,189.56854248,37284,38.4073,12.36
Moscow_0_256.map,Moscow_0_256.map.scen,4,BFS,1.0,480,True,227.0000,193.55129852,31667,31.1500,17.28
Moscow_0_256.map,Moscow_0_256.map.scen,4,BFS,1.0,481,True,256.0000,193.32085113,40871,40.7926,32.42
Moscow_0_256.map,Moscow_0_256.map.scen,4,BFS,1.0,482,True,245.0000,194.62236633,37371,49.2374,25.88
Moscow_0_256.map,Moscow_0_256.map.scen,4,BFS,1.0,483,True,253.0000,195.00714264,40926,64.8887,29.74
Moscow_0_256.map,Moscow_0_256.map.scen,4,BFS,1.0,484,True,238.0000,194.65180359,23932,25.3451,22.27
Moscow_0_256.map,Moscow_0_256.map.scen,4,BFS,1.0,485,True,213.0000,192.49747467,28043,28.8537,10.65
Moscow_0_256.map,Moscow_0_256.map.scen,4,BFS,1.0,486,True,232.0000,195.68124084,32788,34.2128,18.56
Moscow_0_256.map,Moscow_0_256.map.scen,4,BFS,1.0,487,True,234.0000,192.20815277,34479,34.3454,21.74
Moscow_0_256.map,Moscow_0_256.map.scen,4,BFS,1.0,488,True,226.0000,195.53910522,36227,36.3242,15.58
Moscow_0_256.map,Moscow_0_256.map.scen,4,BFS,1.0,489,True,232.0000,193.13708496,33423,33.7057,20.12
Moscow_0_256.map,Moscow_0_256.map.scen,4,BFS,1.0,490,True,259.0000,198.90663757,36339,36.7530,30.21
Moscow_0_256.map,Moscow_0_256.map.scen,4,BFS,1.0,491,True,214.0000,197.0121933,23620,24.8089,8.62
Moscow_0_256.map,Moscow_0_256.map.scen,4,BFS,1.0,492,True,231.0000,197.0243866,31831,32.0829,17.24
Moscow_0_256.map,Moscow_0_256.map.scen,4,BFS,1.0,493,True,260.0000,197.32085113,46612,48.2492,31.77
Moscow_0_256.map,Moscow_0_256.map.scen,4,BFS,1.0,494,True,272.0000,197.01933594,45081,47.6054,38.06
Moscow_0_256.map,Moscow_0_256.map.scen,4,BFS,1.0,495,True,247.0000,197.7350647,45463,46.9571,24.91
Moscow_0_256.map,Moscow_0_256.map.scen,4,BFS,1.0,496,True,260.0000,196.7350647,23104,23.8870,32.16
Moscow_0_256.map,Moscow_0_256.map.scen,4,BFS,1.0,497,True,253.0000,196.17871551,45278,47.7899,28.96
Moscow_0_256.map,Moscow_0_256.map.scen,4,BFS,1.0,498,True,221.0000,197.56854248,29530,30.4527,11.86
Moscow_0_256.map,Moscow_0_256.map.scen,4,BFS,1.0,499,True,244.0000,196.55129852,38668,38.6467,24.14
Moscow_0_256.map,Moscow_0_256.map.scen,4,BFS,1.0,500,True,268.0000,201.80613251,36933,37.0068,32.80
Moscow_0_256.map,Moscow_0_256.map.scen,4,BFS,1.0,501,True,253.0000,202.17871551,45540,47.0492,25.14
Moscow_0_256.map,Moscow_0_256.map.scen,4,BFS,1.0,502,True,255.0000,203.45079346,45186,46.6859,25.34
Moscow_0_256.map,Moscow_0_256.map.scen,4,BFS,1.0,503,True,264.0000,203.66399689,21840,23.2759,29.63
Moscow_0_256.map,Moscow_0_256.map.scen,4,BFS,1.0,504,True,250.0000,200.14927826,38723,38.9374,24.91
Moscow_0_256.map,Moscow_0_256.map.scen,4,BFS,1.0,505,True,228.0000,203.98275604,28332,28.2672,11.77
Moscow_0_256.map,Moscow_0_256.map.scen,4,BFS,1.0,506,True,235.0000,200.43860016,29730,29.5755,17.24
Moscow_0_256.map,Moscow_0_256.map.scen,4,BFS,1.0,507,True,228.0000,202.81118317,29497,29.2044,12.42
Moscow_0_256.map,Moscow_0_256.map.scen,4,BFS,1.0,508,True,239.0000,203.85281372,39591,38.8744,17.24
Moscow_0_256.map,Moscow_0_256.map.scen,4,BFS,1.0,509,True,251.0000,203.20815277,40257,39.5341,23.52
Moscow_0_256.map,Moscow_0_256.map.scen,4,BFS,1.0,510,True,262.0000,207.90663757,25038,25.3927,26.02
Moscow_0_256.map,Moscow_0_256.map.scen,4,BFS,1.0,511,True,273.0000,207.63455963,46343,47.5453,31.48
Moscow_0_256.map,Moscow_0_256.map.scen,4,BFS,1.0,512,True,252.0000,206.89444427,40172,39.8473,21.80
Moscow_0_256.map,Moscow_0_256.map.scen,4,BFS,1.0,513,True,261.0000,206.52186127,31304,30.7366,26.38
Moscow_0_256.map,Moscow_0_256.map.scen,4,BFS,1.0,514,True,244.0000,207.09545441,44657,45.9552,17.82
Moscow_0_256.map,Moscow_0_256.map.scen,4,BFS,1.0,515,True,231.0000,207.0243866,31714,31.2956,11.58
Moscow_0_256.map,Moscow_0_256.map.scen,4,BFS,1.0,516,True,242.0000,206.85281372,32821,32.2489,16.99
Moscow_0_256.map,Moscow_0_256.map.scen,4,BFS,1.0,517,True,270.0000,207.90663757,29837,30.3924,29.87
Moscow_0_256.map,Moscow_0_256.map.scen,4,BFS,1.0,518,True,268.0000,207.07821045,45085,46.1754,29.42
Moscow_0_256.map,Moscow_0_256.map.scen,4,BFS,1.0,519,True,244.0000,205.33809509,27052,27.4405,18.83
Moscow_0_256.map,Moscow_0_256.map.scen,4,BFS,1.0,520,True,267.0000,210.76450195,40621,40.2752,26.68
Moscow_0_256.map,Moscow_0_256.map.scen,4,BFS,1.0,521,True,283.0000,209.77669525,46629,48.2002,34.91
Moscow_0_256.map,Moscow_0_256.map.scen,4,BFS,1.0,522,True,267.0000,211.35028839,42062,43.1621,26.33
Moscow_0_256.map,Moscow_0_256.map.scen,4,BFS,1.0,523,True,247.0000,210.09545441,38627,38.3467,17.57
Moscow_0_256.map,Moscow_0_256.map.scen,4,BFS,1.0,524,True,292.0000,211.74725799,25349,26.3430,37.90
Moscow_0_256.map,Moscow_0_256.map.scen,4,BFS,1.0,525,True,258.0000,210.55129852,31979,32.0236,22.54
Moscow_0_256.map,Moscow_0_256.map.scen,4,BFS,1.0,526,True,272.0000,208.7350647,45363,45.9121,30.31
Moscow_0_256.map,Moscow_0_256.map.scen,4,BFS,1.0,527,True,257.0000,210.7228714,23917,24.8541,21.96
Moscow_0_256.map,Moscow_0_256.map.scen,4,BFS,1.0,528,True,253.0000,210.23759003,41884,41.4979,20.34
Moscow_0_256.map,Moscow_0_256.map.scen,4,BFS,1.0,529,True,229.0000,209.4091629,28600,29.3929,9.36
Moscow_0_256.map,Moscow_0_256.map.scen,4,BFS,1.0,530,True,288.0000,214.19090881,43072,48.3868,34.46
Moscow_0_256.map,Moscow_0_256.map.scen,4,BFS,1.0,531,True,267.0000,214.86500702,45346,52.1350,24.26
Moscow_0_256.map,Moscow_0_256.map.scen,4,BFS,1.0,532,True,278.0000,215.32085113,37938,41.9895,29.11
Moscow_0_256.map,Moscow_0_256.map.scen,4,BFS,1.0,533,True,248.0000,214.0243866,30644,33.1290,15.87
Moscow_0_256.map,Moscow_0_256.map.scen,4,BFS,1.0,534,True,258.0000,214.65180359,23103,25.6611,20.19
Moscow_0_256.map,Moscow_0_256.map.scen,4,BFS,1.0,535,True,254.0000,215.92388153,31580,33.2501,17.63
Moscow_0_256.map,Moscow_0_256.map.scen,4,BFS,1.0,536,True,239.0000,212.63961029,38370,39.9708,12.40
Moscow_0_256.map,Moscow_0_256.map.scen,4,BFS,1.0,537,True,258.0000,215.23759003,26324,27.2994,19.87
Moscow_0_256.map,Moscow_0_256.map.scen,4,BFS,1.0,538,True,283.0000,215.04877319,26200,28.5433,31.60
Moscow_0_256.map,Moscow_0_256.map.scen,4,BFS,1.0,539,True,278.0000,215.22034607,42748,48.9298,29.17
Moscow_0_256.map,Moscow_0_256.map.scen,4,BFS,1.0,540,True,271.0000,216.4213562,40808,43.6925,25.22
Moscow_0_256.map,Moscow_0_256.map.scen,4,BFS,1.0,541,True,268.0000,218.24978332,26162,28.7874,22.80
Moscow_0_256.map,Moscow_0_256.map.scen,4,BFS,1.0,542,True,264.0000,217.13708496,40192,42.7701,21.58
Moscow_0_256.map,Moscow_0_256.map.scen,4,BFS,1.0,543,True,272.0000,217.52186127,44451,48.8299,25.04
Moscow_0_256.map,Moscow_0_256.map.scen,4,BFS,1.0,544,True,255.0000,216.92388153,25551,27.0441,17.55
Moscow_0_256.map,Moscow_0_256.map.scen,4,BFS,1.0,545,True,274.0000,217.17871551,33630,34.2115,26.16
Moscow_0_256.map,Moscow_0_256.map.scen,4,BFS,1.0,546,True,274.0000,218.93607483,28484,28.9911,25.15
Moscow_0_256.map,Moscow_0_256.map.scen,4,BFS,1.0,547,True,287.0000,216.119841,37388,38.9292,32.80
Moscow_0_256.map,Moscow_0_256.map.scen,4,BFS,1.0,548,True,270.0000,216.69343414,42260,44.5978,24.60
Moscow_0_256.map,Moscow_0_256.map.scen,4,BFS,1.0,549,True,285.0000,218.22034607,33430,34.1524,30.60
Moscow_0_256.map,Moscow_0_256.map.scen,4,BFS,1.0,550,True,260.0000,220.75230865,30272,30.4500,17.78
Moscow_0_256.map,Moscow_0_256.map.scen,4,BFS,1.0,551,True,250.0000,222.46803741,32552,32.8376,12.38
Moscow_0_256.map,Moscow_0_256.map.scen,4,BFS,1.0,552,True,262.0000,223.90663757,32860,32.9556,17.01
Moscow_0_256.map,Moscow_0_256.map.scen,4,BFS,1.0,553,True,258.0000,222.26702728,39319,38.9682,16.08
Moscow_0_256.map,Moscow_0_256.map.scen,4,BFS,1.0,554,True,287.0000,221.39191894,42464,44.3794,29.63
Moscow_0_256.map,Moscow_0_256.map.scen,4,BFS,1.0,555,True,253.0000,220.78174591,34730,37.5115,14.59
Moscow_0_256.map,Moscow_0_256.map.scen,4,BFS,1.0,556,True,303.0000,222.16147156,45749,50.4951,36.39
Moscow_0_256.map,Moscow_0_256.map.scen,4,BFS,1.0,557,True,277.0000,223.69343414,42694,49.1987,23.83
Moscow_0_256.map,Moscow_0_256.map.scen,4,BFS,1.0,558,True,261.0000,223.4091629,36387,38.8986,16.83
Moscow_0_256.map,Moscow_0_256.map.scen,4,BFS,1.0,559,True,275.0000,221.00714264,38588,41.4888,24.43
Moscow_0_256.map,Moscow_0_256.map.scen,4,BFS,1.0,560,True,279.0000,227.1076477,44230,47.8157,22.85
Moscow_0_256.map,Moscow_0_256.map.scen,4,BFS,1.0,561,True,295.0000,224.119841,45640,48.3400,31.63
Moscow_0_256.map,Moscow_0_256.map.scen,4,BFS,1.0,562,True,269.0000,226.82337646,39471,40.1839,18.59
Moscow_0_256.map,Moscow_0_256.map.scen,4,BFS,1.0,563,True,276.0000,224.45079346,37616,37.9031,22.97
Moscow_0_256.map,Moscow_0_256.map.scen,4,BFS,1.0,564,True,273.0000,227.30865784,42051,43.9263,20.10
Moscow_0_256.map,Moscow_0_256.map.scen,4,BFS,1.0,565,True,300.0000,227.36248169,40363,41.6787,31.95
Moscow_0_256.map,Moscow_0_256.map.scen,4,BFS,1.0,566,True,265.0000,226.92388153,32232,32.9962,16.78
Moscow_0_256.map,Moscow_0_256.map.scen,4,BFS,1.0,567,True,269.0000,225.65180359,34726,34.2199,19.21
Moscow_0_256.map,Moscow_0_256.map.scen,4,BFS,1.0,568,True,269.0000,225.30865784,41793,41.6326,19.39
Moscow_0_256.map,Moscow_0_256.map.scen,4,BFS,1.0,569,True,274.0000,224.20815277,30175,30.0822,22.21
Moscow_0_256.map,Moscow_0_256.map.scen,4,BFS,1.0,570,True,303.0000,230.94826813,38271,38.3227,31.20
Moscow_0_256.map,Moscow_0_256.map.scen,4,BFS,1.0,571,True,271.0000,230.58073578,42265,46.4043,17.53
Moscow_0_256.map,Moscow_0_256.map.scen,4,BFS,1.0,572,True,268.0000,228.75230865,34326,35.2794,17.16
Moscow_0_256.map,Moscow_0_256.map.scen,4,BFS,1.0,573,True,309.0000,228.16147156,45371,47.5155,35.43
Moscow_0_256.map,Moscow_0_256.map.scen,4,BFS,1.0,574,True,268.0000,230.50966797,40078,39.4969,16.26
Moscow_0_256.map,Moscow_0_256.map.scen,4,BFS,1.0,575,True,288.0000,229.46298675,37159,38.2419,25.51
Moscow_0_256.map,Moscow_0_256.map.scen,4,BFS,1.0,576,True,295.0000,231.19090881,45494,47.6871,27.60
Moscow_0_256.map,Moscow_0_256.map.scen,4,BFS,1.0,577,True,268.0000,231.09545441,40935,42.0328,15.97
Moscow_0_256.map,Moscow_0_256.map.scen,4,BFS,1.0,578,True,272.0000,231.58073578,44443,46.5572,17.45
Moscow_0_256.map,Moscow_0_256.map.scen,4,BFS,1.0,579,True,283.0000,228.52186127,40159,39.8871,23.84
Moscow_0_256.map,Moscow_0_256.map.scen,4,BFS,1.0,580,True,300.0000,232.04877319,39685,39.3597,29.28
Moscow_0_256.map,Moscow_0_256.map.scen,4,BFS,1.0,581,True,302.0000,232.09040375,41924,44.4532,30.12
Moscow_0_256.map,Moscow_0_256.map.scen,4,BFS,1.0,582,True,265.0000,232.96551208,32987,33.8125,13.75
Moscow_0_256.map,Moscow_0_256.map.scen,4,BFS,1.0,583,True,275.0000,235.75230865,42106,48.0308,16.65
Moscow_0_256.map,Moscow_0_256.map.scen,4,BFS,1.0,584,True,301.0000,235.97770538,43596,48.1467,27.55
Moscow_0_256.map,Moscow_0_256.map.scen,4,BFS,1.0,585,True,276.0000,233.23759003,34451,35.0694,18.33
Moscow_0_256.map,Moscow_0_256.map.scen,4,BFS,1.0,586,True,279.0000,234.48023071,39587,41.7651,18.99
Moscow_0_256.map,Moscow_0_256.map.scen,4,BFS,1.0,587,True,287.0000,235.67619018,37398,38.4162,21.78
Moscow_0_256.map,Moscow_0_256.map.scen,4,BFS,1.0,588,True,285.0000,235.20815277,42759,46.2663,21.17
Moscow_0_256.map,Moscow_0_256.map.scen,4,BFS,1.0,589,True,307.0000,233.19090881,46531,50.2711,31.65
Moscow_0_256.map,Moscow_0_256.map.scen,4,BFS,1.0,590,True,283.0000,239.65180359,41100,42.8559,18.09
Moscow_0_256.map,Moscow_0_256.map.scen,4,BFS,1.0,591,True,318.0000,237.16147156,46048,50.5129,34.09
Moscow_0_256.map,Moscow_0_256.map.scen,4,BFS,1.0,592,True,276.0000,239.09545441,43494,48.1389,15.44
Moscow_0_256.map,Moscow_0_256.map.scen,4,BFS,1.0,593,True,280.0000,236.06601715,31242,33.6077,18.61
Moscow_0_256.map,Moscow_0_256.map.scen,4,BFS,1.0,594,True,275.0000,238.09545441,32415,36.3122,15.50
Moscow_0_256.map,Moscow_0_256.map.scen,4,BFS,1.0,595,True,275.0000,236.92388153,39736,42.4800,16.07
Moscow_0_256.map,Moscow_0_256.map.scen,4,BFS,1.0,596,True,295.0000,237.00714264,42830,47.3979,24.47
Moscow_0_256.map,Moscow_0_256.map.scen,4,BFS,1.0,597,True,291.0000,236.52186127,39558,41.8366,23.03
Moscow_0_256.map,Moscow_0_256.map.scen,4,BFS,1.0,598,True,316.0000,239.26197662,43883,48.5922,32.07
Moscow_0_256.map,Moscow_0_256.map.scen,4,BFS,1.0,599,True,277.0000,238.92388153,41237,43.2154,15.94
Moscow_0_256.map,Moscow_0_256.map.scen,4,BFS,1.0,600,True,315.0000,243.77669525,41572,43.3758,29.22
Moscow_0_256.map,Moscow_0_256.map.scen,4,BFS,1.0,601,True,285.0000,240.7228714,31104,32.6511,18.39
Moscow_0_256.map,Moscow_0_256.map.scen,4,BFS,1.0,602,True,292.0000,240.45079346,42933,45.0598,21.44
Moscow_0_256.map,Moscow_0_256.map.scen,4,BFS,1.0,603,True,291.0000,242.96551208,41622,68.1860,19.77
Moscow_0_256.map,Moscow_0_256.map.scen,4,BFS,1.0,604,True,294.0000,243.46298675,42342,51.2478,20.76
