MapName,Scenario,Connectivity,Algorithm,Weight,TaskID,Success,PathLength,OptimalLength,ExpandedNodes,TimeMS,Suboptimality
Moscow_0_1024.map,Moscow_0_1024.map.scen,4,BFS,1.0,0,True,5.0000,3.82842712,47,0.0763,30.60
Moscow_0_1024.map,Moscow_0_1024.map.scen,4,BFS,1.0,1,True,4.0000,3.41421356,27,0.0374,17.16
Moscow_0_1024.map,Moscow_0_1024.map.scen,4,BFS,1.0,2,True,3.0000,3.0,25,0.0336,0.00
Moscow_0_1024.map,Moscow_0_1024.map.scen,4,BFS,1.0,3,True,4.0000,2.82842712,29,0.0386,41.42
Moscow_0_1024.map,Moscow_0_1024.map.scen,4,BFS,1.0,4,True,0.0000,0.0,1,0.0012,0.00
Moscow_0_1024.map,Moscow_0_1024.map.scen,4,BFS,1.0,5,True,3.0000,2.41421356,24,0.0324,24.26
Moscow_0_1024.map,Moscow_0_1024.map.scen,4,BFS,1.0,6,True,1.0000,1.0,4,0.0076,0.00
Moscow_0_1024.map,Moscow_0_1024.map.scen,4,BFS,1.0,7,True,4.0000,2.82842712,35,0.0434,41.42
Moscow_0_1024.map,Moscow_0_1024.map.scen,4,BFS,1.0,8,True,2.0000,1.41421356,10,0.0157,41.42
Moscow_0_1024.map,Moscow_0_1024.map.scen,4,BFS,1.0,9,True,3.0000,2.41421356,23,0.0313,24.26
Moscow_0_1024.map,Moscow_0_1024.map.scen,4,BFS,1.0,10,True,7.0000,7.0,113,0.1451,0.00
Moscow_0_1024.map,Moscow_0_1024.map.scen,4,BFS,1.0,11,True,7.0000,6.41421356,100,0.1163,9.13
Moscow_0_1024.map,Moscow_0_1024.map.scen,4,BFS,1.0,12,True,7.0000,6.41421356,54,0.0673,9.13
Moscow_0_1024.map,Moscow_0_1024.map.scen,4,BFS,1.0,13,True,5.0000,5.0,42,0.0543,0.00
Moscow_0_1024.map,Moscow_0_1024.map.scen,4,BFS,1.0,14,True,9.0000,7.82842712,165,0.2012,14.97
Moscow_0_1024.map,Moscow_0_1024.map.scen,4,BFS,1.0,15,True,8.0000,7.41421356,128,0.1522,7.90
Moscow_0_1024.map,Moscow_0_1024.map.scen,4,BFS,1.0,16,True,9.0000,7.82842712,179,0.2180,14.97
Moscow_0_1024.map,Moscow_0_1024.map.scen,4,BFS,1.0,17,True,9.0000,6.65685425,148,0.1732,35.20
Moscow_0_1024.map,Moscow_0_1024.map.scen,4,BFS,1.0,18,True,7.0000,5.24264069,110,0.1384,33.52
Moscow_0_1024.map,Moscow_0_1024.map.scen,4,BFS,1.0,19,True,8.0000,6.82842712,125,0.1531,17.16
Moscow_0_1024.map,Moscow_0_1024.map.scen,4,BFS,1.0,20,True,14.0000,11.65685425,374,0.4211,20.10
Moscow_0_1024.map,Moscow_0_1024.map.scen,4,BFS,1.0,21,True,11.0000,8.65685425,166,0.1926,27.07
Moscow_0_1024.map,Moscow_0_1024.map.scen,4,BFS,1.0,22,True,12.0000,9.07106781,241,0.2964,32.29
Moscow_0_1024.map,Moscow_0_1024.map.scen,4,BFS,1.0,23,True,12.0000,9.07106781,280,0.3252,32.29
Moscow_0_1024.map,Moscow_0_1024.map.scen,4,BFS,1.0,24,True,11.0000,9.24264069,251,0.3162,19.01
Moscow_0_1024.map,Moscow_0_1024.map.scen,4,BFS,1.0,25,True,11.0000,8.07106781,259,0.3094,36.29
Moscow_0_1024.map,Moscow_0_1024.map.scen,4,BFS,1.0,26,True,10.0000,8.82842712,203,0.2520,13.27
Moscow_0_1024.map,Moscow_0_1024.map.scen,4,BFS,1.0,27,True,9.0000,9.0,181,0.2363,0.00
Moscow_0_1024.map,Moscow_0_1024.map.scen,4,BFS,1.0,28,True,11.0000,8.07106781,248,0.2959,36.29
Moscow_0_1024.map,Moscow_0_1024.map.scen,4,BFS,1.0,29,True,12.0000,10.82842712,303,0.3499,10.82
Moscow_0_1024.map,Moscow_0_1024.map.scen,4,BFS,1.0,30,True,18.0000,13.3137085,630,0.7441,35.20
Moscow_0_1024.map,Moscow_0_1024.map.scen,4,BFS,1.0,31,True,15.0000,14.41421356,452,0.5263,4.06
Moscow_0_1024.map,Moscow_0_1024.map.scen,4,BFS,1.0,32,True,20.0000,15.3137085,786,0.8957,30.60
Moscow_0_1024.map,Moscow_0_1024.map.scen,4,BFS,1.0,33,True,17.0000,12.89949493,606,0.6939,31.79
Moscow_0_1024.map,Moscow_0_1024.map.scen,4,BFS,1.0,34,True,20.0000,14.72792206,779,0.8881,35.80
Moscow_0_1024.map,Moscow_0_1024.map.scen,4,BFS,1.0,35,True,17.0000,15.24264069,593,0.9289,11.53
Moscow_0_1024.map,Moscow_0_1024.map.scen,4,BFS,1.0,36,True,20.0000,14.14213562,782,0.9141,41.42
Moscow_0_1024.map,Moscow_0_1024.map.scen,4,BFS,1.0,37,True,19.0000,14.3137085,753,0.8824,32.74
Moscow_0_1024.map,Moscow_0_1024.map.scen,4,BFS,1.0,38,True,14.0000,12.82842712,405,0.4892,9.13
Moscow_0_1024.map,Moscow_0_1024.map.scen,4,BFS,1.0,39,True,19.0000,15.48528137,698,0.8671,22.70
Moscow_0_1024.map,Moscow_0_1024.map.scen,4,BFS,1.0,40,True,22.0000,19.07106781,935,1.0661,15.36
Moscow_0_1024.map,Moscow_0_1024.map.scen,4,BFS,1.0,41,True,22.0000,19.65685425,933,1.0780,11.92
Moscow_0_1024.map,Moscow_0_1024.map.scen,4,BFS,1.0,42,True,19.0000,17.24264069,707,0.8014,10.19
Moscow_0_1024.map,Moscow_0_1024.map.scen,4,BFS,1.0,43,True,19.0000,18.41421356,423,0.4946,3.18
Moscow_0_1024.map,Moscow_0_1024.map.scen,4,BFS,1.0,44,True,25.0000,19.72792206,1292,1.5087,26.72
Moscow_0_1024.map,Moscow_0_1024.map.scen,4,BFS,1.0,45,True,24.0000,19.3137085,1121,1.2662,24.26
Moscow_0_1024.map,Moscow_0_1024.map.scen,4,BFS,1.0,46,True,24.0000,16.97056274,1189,1.3925,41.42
Moscow_0_1024.map,Moscow_0_1024.map.scen,4,BFS,1.0,47,True,18.0000,17.41421356,616,0.9129,3.36
Moscow_0_1024.map,Moscow_0_1024.map.scen,4,BFS,1.0,48,True,26.0000,18.97056274,1287,1.7630,37.05
Moscow_0_1024.map,Moscow_0_1024.map.scen,4,BFS,1.0,49,True,23.0000,18.3137085,1097,1.2510,25.59
Moscow_0_1024.map,Moscow_0_1024.map.scen,4,BFS,1.0,50,True,27.0000,23.48528137,1507,1.7071,14.97
Moscow_0_1024.map,Moscow_0_1024.map.scen,4,BFS,1.0,51,True,21.0000,21.0,580,0.6752,0.00
Moscow_0_1024.map,Moscow_0_1024.map.scen,4,BFS,1.0,52,True,22.0000,21.41421356,820,0.9415,2.74
Moscow_0_1024.map,Moscow_0_1024.map.scen,4,BFS,1.0,53,True,31.0000,23.97056274,1935,2.1815,29.33
Moscow_0_1024.map,Moscow_0_1024.map.scen,4,BFS,1.0,54,True,24.0000,22.82842712,1149,1.3854,5.13
Moscow_0_1024.map,Moscow_0_1024.map.scen,4,BFS,1.0,55,True,28.0000,22.72792206,1532,1.7442,23.20
Moscow_0_1024.map,Moscow_0_1024.map.scen,4,BFS,1.0,56,True,28.0000,21.55634918,1548,1.7553,29.89
Moscow_0_1024.map,Moscow_0_1024.map.scen,4,BFS,1.0,57,True,27.0000,22.3137085,1152,1.3495,21.00
Moscow_0_1024.map,Moscow_0_1024.map.scen,4,BFS,1.0,58,True,26.0000,21.89949493,1315,1.6125,18.72
Moscow_0_1024.map,Moscow_0_1024.map.scen,4,BFS,1.0,59,True,25.0000,20.89949493,481,0.5886,19.62
Moscow_0_1024.map,Moscow_0_1024.map.scen,4,BFS,1.0,60,True,33.0000,25.97056274,2094,2.3226,27.07
Moscow_0_1024.map,Moscow_0_1024.map.scen,4,BFS,1.0,61,True,32.0000,24.38477631,2023,2.2775,31.23
Moscow_0_1024.map,Moscow_0_1024.map.scen,4,BFS,1.0,62,True,34.0000,27.55634918,2193,2.4668,23.38
Moscow_0_1024.map,Moscow_0_1024.map.scen,4,BFS,1.0,63,True,28.0000,25.65685425,1154,1.3754,9.13
Moscow_0_1024.map,Moscow_0_1024.map.scen,4,BFS,1.0,64,True,32.0000,27.89949493,2036,2.1778,14.70
Moscow_0_1024.map,Moscow_0_1024.map.scen,4,BFS,1.0,65,True,28.0000,27.41421356,1328,1.4945,2.14
Moscow_0_1024.map,Moscow_0_1024.map.scen,4,BFS,1.0,66,True,35.0000,27.38477631,1698,1.9147,27.81
Moscow_0_1024.map,Moscow_0_1024.map.scen,4,BFS,1.0,67,True,31.0000,25.14213562,1882,2.0727,23.30
Moscow_0_1024.map,Moscow_0_1024.map.scen,4,BFS,1.0,68,True,32.0000,24.38477631,1969,2.1360,31.23
Moscow_0_1024.map,Moscow_0_1024.map.scen,4,BFS,1.0,69,True,31.0000,26.89949493,1662,1.7988,15.24
Moscow_0_1024.map,Moscow_0_1024.map.scen,4,BFS,1.0,70,True,34.0000,28.14213562,2294,2.6142,20.82
Moscow_0_1024.map,Moscow_0_1024.map.scen,4,BFS,1.0,71,True,34.0000,30.48528137,1688,1.8713,11.53
Moscow_0_1024.map,Moscow_0_1024.map.scen,4,BFS,1.0,72,True,36.0000,30.72792206,2289,2.5092,17.16
Moscow_0_1024.map,Moscow_0_1024.map.scen,4,BFS,1.0,73,True,43.0000,30.6984848,3497,3.7655,40.07
Moscow_0_1024.map,Moscow_0_1024.map.scen,4,BFS,1.0,74,True,43.0000,30.6984848,3614,3.9311,40.07
Moscow_0_1024.map,Moscow_0_1024.map.scen,4,BFS,1.0,75,True,30.0000,28.82842712,1798,1.9918,4.06
Moscow_0_1024.map,Moscow_0_1024.map.scen,4,BFS,1.0,76,True,34.0000,28.14213562,2119,2.2699,20.82
Moscow_0_1024.map,Moscow_0_1024.map.scen,4,BFS,1.0,77,True,31.0000,28.07106781,1631,1.7647,10.43
Moscow_0_1024.map,Moscow_0_1024.map.scen,4,BFS,1.0,78,True,37.0000,29.97056274,2248,2.4313,23.45
Moscow_0_1024.map,Moscow_0_1024.map.scen,4,BFS,1.0,79,True,33.0000,30.65685425,1931,2.1356,7.64
Moscow_0_1024.map,Moscow_0_1024.map.scen,4,BFS,1.0,80,True,41.0000,32.21320343,1806,1.9333,27.28
Moscow_0_1024.map,Moscow_0_1024.map.scen,4,BFS,1.0,81,True,44.0000,32.87005768,3835,4.0766,33.86
Moscow_0_1024.map,Moscow_0_1024.map.scen,4,BFS,1.0,82,True,36.0000,34.82842712,701,0.7574,3.36
Moscow_0_1024.map,Moscow_0_1024.map.scen,4,BFS,1.0,83,True,32.0000,32.0,717,0.8205,0.00
Moscow_0_1024.map,Moscow_0_1024.map.scen,4,BFS,1.0,84,True,43.0000,33.04163055,3581,3.9537,30.14
Moscow_0_1024.map,Moscow_0_1024.map.scen,4,BFS,1.0,85,True,37.0000,34.65685425,2294,2.6419,6.76
Moscow_0_1024.map,Moscow_0_1024.map.scen,4,BFS,1.0,86,True,36.0000,33.65685425,2597,2.9400,6.96
Moscow_0_1024.map,Moscow_0_1024.map.scen,4,BFS,1.0,87,True,43.0000,32.45584412,3355,3.5695,32.49
Moscow_0_1024.map,Moscow_0_1024.map.scen,4,BFS,1.0,88,True,37.0000,34.07106781,2380,2.5985,8.60
Moscow_0_1024.map,Moscow_0_1024.map.scen,4,BFS,1.0,89,True,41.0000,33.38477631,1856,2.0148,22.81
Moscow_0_1024.map,Moscow_0_1024.map.scen,4,BFS,1.0,90,True,41.0000,37.48528137,1892,2.0131,9.38
Moscow_0_1024.map,Moscow_0_1024.map.scen,4,BFS,1.0,91,True,50.0000,38.87005768,2616,2.9081,28.63
Moscow_0_1024.map,Moscow_0_1024.map.scen,4,BFS,1.0,92,True,48.0000,36.87005768,4571,4.8632,30.19
Moscow_0_1024.map,Moscow_0_1024.map.scen,4,BFS,1.0,93,True,51.0000,38.11269836,5145,5.7010,33.81
Moscow_0_1024.map,Moscow_0_1024.map.scen,4,BFS,1.0,94,True,50.0000,37.6984848,4324,4.4906,32.63
Moscow_0_1024.map,Moscow_0_1024.map.scen,4,BFS,1.0,95,True,39.0000,36.07106781,2976,3.2761,8.12
Moscow_0_1024.map,Moscow_0_1024.map.scen,4,BFS,1.0,96,True,55.0000,39.76955261,4562,4.6822,38.30
Moscow_0_1024.map,Moscow_0_1024.map.scen,4,BFS,1.0,97,True,50.0000,38.28427124,2522,2.7684,30.60
Moscow_0_1024.map,Moscow_0_1024.map.scen,4,BFS,1.0,98,True,38.0000,36.82842712,2723,2.9380,3.18
Moscow_0_1024.map,Moscow_0_1024.map.scen,4,BFS,1.0,99,True,46.0000,37.21320343,3614,3.8671,23.61
Moscow_0_1024.map,Moscow_0_1024.map.scen,4,BFS,1.0,100,True,45.0000,42.65685425,4036,4.3258,5.49
Moscow_0_1024.map,Moscow_0_1024.map.scen,4,BFS,1.0,101,True,48.0000,40.97056274,3901,4.1244,17.16
Moscow_0_1024.map,Moscow_0_1024.map.scen,4,BFS,1.0,102,True,48.0000,42.14213562,2952,3.1374,13.90
Moscow_0_1024.map,Moscow_0_1024.map.scen,4,BFS,1.0,103,True,61.0000,43.42640686,6960,7.5321,40.47
Moscow_0_1024.map,Moscow_0_1024.map.scen,4,BFS,1.0,104,True,47.0000,42.3137085,2515,2.7373,11.08
Moscow_0_1024.map,Moscow_0_1024.map.scen,4,BFS,1.0,105,True,48.0000,41.55634918,4294,4.6134,15.51
Moscow_0_1024.map,Moscow_0_1024.map.scen,4,BFS,1.0,106,True,52.0000,42.04163055,4337,4.5373,23.69
Moscow_0_1024.map,Moscow_0_1024.map.scen,4,BFS,1.0,107,True,43.0000,43.0,3108,3.3600,0.00
Moscow_0_1024.map,Moscow_0_1024.map.scen,4,BFS,1.0,108,True,47.0000,40.55634918,3983,4.1779,15.89
Moscow_0_1024.map,Moscow_0_1024.map.scen,4,BFS,1.0,109,True,53.0000,41.28427124,3707,3.9831,28.38
Moscow_0_1024.map,Moscow_0_1024.map.scen,4,BFS,1.0,110,True,46.0000,44.24264069,4227,4.3659,3.97
Moscow_0_1024.map,Moscow_0_1024.map.scen,4,BFS,1.0,111,True,62.0000,45.0121933,5454,5.8783,37.74
Moscow_0_1024.map,Moscow_0_1024.map.scen,4,BFS,1.0,112,True,64.0000,46.42640686,6188,6.6580,37.85
Moscow_0_1024.map,Moscow_0_1024.map.scen,4,BFS,1.0,113,True,51.0000,47.48528137,4914,5.1663,7.40
Moscow_0_1024.map,Moscow_0_1024.map.scen,4,BFS,1.0,114,True,54.0000,44.04163055,5240,5.8139,22.61
Moscow_0_1024.map,Moscow_0_1024.map.scen,4,BFS,1.0,115,True,51.0000,47.48528137,3582,3.8422,7.40
Moscow_0_1024.map,Moscow_0_1024.map.scen,4,BFS,1.0,116,True,53.0000,46.55634918,5353,5.7883,13.84
Moscow_0_1024.map,Moscow_0_1024.map.scen,4,BFS,1.0,117,True,57.0000,47.04163055,6205,6.6624,21.17
Moscow_0_1024.map,Moscow_0_1024.map.scen,4,BFS,1.0,118,True,64.0000,47.0121933,7145,7.7278,36.13
Moscow_0_1024.map,Moscow_0_1024.map.scen,4,BFS,1.0,119,True,63.0000,47.18376617,7975,8.6800,33.52
Moscow_0_1024.map,Moscow_0_1024.map.scen,4,BFS,1.0,120,True,59.0000,48.45584412,5395,5.8370,21.76
Moscow_0_1024.map,Moscow_0_1024.map.scen,4,BFS,1.0,121,True,52.0000,49.07106781,4997,5.4809,5.97
Moscow_0_1024.map,Moscow_0_1024.map.scen,4,BFS,1.0,122,True,54.0000,51.07106781,5180,5.6206,5.74
Moscow_0_1024.map,Moscow_0_1024.map.scen,4,BFS,1.0,123,True,53.0000,50.07106781,5507,6.0084,5.85
Moscow_0_1024.map,Moscow_0_1024.map.scen,4,BFS,1.0,124,True,67.0000,50.0121933,6041,6.4552,33.97
Moscow_0_1024.map,Moscow_0_1024.map.scen,4,BFS,1.0,125,True,57.0000,49.97056274,4429,4.6857,14.07
Moscow_0_1024.map,Moscow_0_1024.map.scen,4,BFS,1.0,126,True,67.0000,51.18376617,5548,6.0137,30.90
Moscow_0_1024.map,Moscow_0_1024.map.scen,4,BFS,1.0,127,True,57.0000,51.14213562,4092,4.3031,11.45
Moscow_0_1024.map,Moscow_0_1024.map.scen,4,BFS,1.0,128,True,67.0000,50.0121933,7702,8.1199,33.97
Moscow_0_1024.map,Moscow_0_1024.map.scen,4,BFS,1.0,129,True,52.0000,50.24264069,4417,4.6048,3.50
Moscow_0_1024.map,Moscow_0_1024.map.scen,4,BFS,1.0,130,True,67.0000,54.6984848,9092,9.7324,22.49
Moscow_0_1024.map,Moscow_0_1024.map.scen,4,BFS,1.0,131,True,60.0000,53.55634918,7152,7.6288,12.03
Moscow_0_1024.map,Moscow_0_1024.map.scen,4,BFS,1.0,132,True,56.0000,55.41421356,6384,6.8986,1.06
Moscow_0_1024.map,Moscow_0_1024.map.scen,4,BFS,1.0,133,True,61.0000,54.55634918,5488,5.8684,11.81
Moscow_0_1024.map,Moscow_0_1024.map.scen,4,BFS,1.0,134,True,78.0000,55.74011536,10250,11.2393,39.94
Moscow_0_1024.map,Moscow_0_1024.map.scen,4,BFS,1.0,135,True,63.0000,53.62741699,6358,6.9177,17.48
Moscow_0_1024.map,Moscow_0_1024.map.scen,4,BFS,1.0,136,True,70.0000,54.18376617,9313,9.8073,29.19
Moscow_0_1024.map,Moscow_0_1024.map.scen,4,BFS,1.0,137,True,64.0000,54.04163055,7309,8.2092,18.43
Moscow_0_1024.map,Moscow_0_1024.map.scen,4,BFS,1.0,138,True,65.0000,55.62741699,8079,8.5692,16.85
Moscow_0_1024.map,Moscow_0_1024.map.scen,4,BFS,1.0,139,True,58.0000,55.65685425,3220,3.4279,4.21
Moscow_0_1024.map,Moscow_0_1024.map.scen,4,BFS,1.0,140,True,79.0000,59.66904755,7606,8.2301,32.40
Moscow_0_1024.map,Moscow_0_1024.map.scen,4,BFS,1.0,141,True,82.0000,59.15432892,8510,9.1249,38.62
Moscow_0_1024.map,Moscow_0_1024.map.scen,4,BFS,1.0,142,True,78.0000,56.32590179,5613,5.8934,38.48
Moscow_0_1024.map,Moscow_0_1024.map.scen,4,BFS,1.0,143,True,77.0000,59.42640686,8618,9.1152,29.57
Moscow_0_1024.map,Moscow_0_1024.map.scen,4,BFS,1.0,144,True,71.0000,56.94112549,7930,8.6001,24.69
Moscow_0_1024.map,Moscow_0_1024.map.scen,4,BFS,1.0,145,True,57.0000,56.41421356,6498,7.2653,1.04
Moscow_0_1024.map,Moscow_0_1024.map.scen,4,BFS,1.0,146,True,63.0000,59.48528137,6480,7.0393,5.91
Moscow_0_1024.map,Moscow_0_1024.map.scen,4,BFS,1.0,147,True,59.0000,58.41421356,3518,3.7680,1.00
Moscow_0_1024.map,Moscow_0_1024.map.scen,4,BFS,1.0,148,True,66.0000,58.38477631,6462,7.0392,13.04
Moscow_0_1024.map,Moscow_0_1024.map.scen,4,BFS,1.0,149,True,80.0000,59.49747467,9488,10.0341,34.46
Moscow_0_1024.map,Moscow_0_1024.map.scen,4,BFS,1.0,150,True,72.0000,60.28427124,7327,7.7347,19.43
Moscow_0_1024.map,Moscow_0_1024.map.scen,4,BFS,1.0,151,True,71.0000,63.38477631,10096,11.5292,12.01
Moscow_0_1024.map,Moscow_0_1024.map.scen,4,BFS,1.0,152,True,66.0000,62.48528137,7949,8.5769,5.62
Moscow_0_1024.map,Moscow_0_1024.map.scen,4,BFS,1.0,153,True,87.0000,62.3969696,14715,15.6346,39.43
Moscow_0_1024.map,Moscow_0_1024.map.scen,4,BFS,1.0,154,True,80.0000,63.59797974,8992,9.9345,25.79
Moscow_0_1024.map,Moscow_0_1024.map.scen,4,BFS,1.0,155,True,65.0000,63.82842712,5441,5.8654,1.84
Moscow_0_1024.map,Moscow_0_1024.map.scen,4,BFS,1.0,156,True,75.0000,62.11269836,8462,9.0612,20.75
Moscow_0_1024.map,Moscow_0_1024.map.scen,4,BFS,1.0,157,True,69.0000,63.72792206,9031,9.7510,8.27
Moscow_0_1024.map,Moscow_0_1024.map.scen,4,BFS,1.0,158,True,72.0000,61.45584412,7564,8.0721,17.16
Moscow_0_1024.map,Moscow_0_1024.map.scen,4,BFS,1.0,159,True,74.0000,63.45584412,2998,3.1173,16.62
Moscow_0_1024.map,Moscow_0_1024.map.scen,4,BFS,1.0,160,True,80.0000,64.76955261,8170,8.8788,23.51
Moscow_0_1024.map,Moscow_0_1024.map.scen,4,BFS,1.0,161,True,76.0000,64.28427124,7356,7.9720,18.22
Moscow_0_1024.map,Moscow_0_1024.map.scen,4,BFS,1.0,162,True,80.0000,67.6984848,10898,12.5123,18.17
Moscow_0_1024.map,Moscow_0_1024.map.scen,4,BFS,1.0,163,True,81.0000,64.59797974,8333,8.7940,25.39
Moscow_0_1024.map,Moscow_0_1024.map.scen,4,BFS,1.0,164,True,65.0000,64.41421356,8058,8.7745,0.91
Moscow_0_1024.map,Moscow_0_1024.map.scen,4,BFS,1.0,165,True,84.0000,64.66904755,6090,6.7073,29.89
Moscow_0_1024.map,Moscow_0_1024.map.scen,4,BFS,1.0,166,True,83.0000,67.76955261,2966,3.2347,22.47
Moscow_0_1024.map,Moscow_0_1024.map.scen,4,BFS,1.0,167,True,77.0000,67.62741699,8267,8.7440,13.86
Moscow_0_1024.map,Moscow_0_1024.map.scen,4,BFS,1.0,168,True,83.0000,66.59797974,11771,12.7401,24.63
Moscow_0_1024.map,Moscow_0_1024.map.scen,4,BFS,1.0,169,True,78.0000,66.28427124,8175,8.9155,17.67
Moscow_0_1024.map,Moscow_0_1024.map.scen,4,BFS,1.0,170,True,89.0000,71.42640686,13844,15.0616,24.60
Moscow_0_1024.map,Moscow_0_1024.map.scen,4,BFS,1.0,171,True,91.0000,71.08326111,11995,13.2638,28.02
Moscow_0_1024.map,Moscow_0_1024.map.scen,4,BFS,1.0,172,True,92.0000,69.74011536,9387,10.2398,31.92
Moscow_0_1024.map,Moscow_0_1024.map.scen,4,BFS,1.0,173,True,69.0000,68.41421356,4434,4.7403,0.86
Moscow_0_1024.map,Moscow_0_1024.map.scen,4,BFS,1.0,174,True,78.0000,69.79898987,7737,8.2387,11.75
Moscow_0_1024.map,Moscow_0_1024.map.scen,4,BFS,1.0,175,True,94.0000,71.15432892,8266,8.7000,32.11
Moscow_0_1024.map,Moscow_0_1024.map.scen,4,BFS,1.0,176,True,93.0000,71.32590179,7519,7.9418,30.39
Moscow_0_1024.map,Moscow_0_1024.map.scen,4,BFS,1.0,177,True,94.0000,71.15432892,16261,17.4959,32.11
Moscow_0_1024.map,Moscow_0_1024.map.scen,4,BFS,1.0,178,True,76.0000,71.89949493,8836,9.4667,5.70
Moscow_0_1024.map,Moscow_0_1024.map.scen,4,BFS,1.0,179,True,97.0000,69.46803741,5121,5.5457,39.63
Moscow_0_1024.map,Moscow_0_1024.map.scen,4,BFS,1.0,180,True,100.0000,73.05382385,13901,14.6795,36.89
Moscow_0_1024.map,Moscow_0_1024.map.scen,4,BFS,1.0,181,True,93.0000,73.08326111,13694,14.7081,27.25
Moscow_0_1024.map,Moscow_0_1024.map.scen,4,BFS,1.0,182,True,85.0000,75.62741699,8822,9.4260,12.39
Moscow_0_1024.map,Moscow_0_1024.map.scen,4,BFS,1.0,183,True,102.0000,75.05382385,14506,15.4566,35.90
Moscow_0_1024.map,Moscow_0_1024.map.scen,4,BFS,1.0,184,True,80.0000,72.38477631,12743,13.6963,10.52
Moscow_0_1024.map,Moscow_0_1024.map.scen,4,BFS,1.0,185,True,76.0000,74.82842712,5508,5.9387,1.57
Moscow_0_1024.map,Moscow_0_1024.map.scen,4,BFS,1.0,186,True,80.0000,74.14213562,7351,7.8239,7.90
Moscow_0_1024.map,Moscow_0_1024.map.scen,4,BFS,1.0,187,True,93.0000,74.84062042,16079,16.6902,24.26
Moscow_0_1024.map,Moscow_0_1024.map.scen,4,BFS,1.0,188,True,101.0000,74.63961029,11275,12.0987,35.32
Moscow_0_1024.map,Moscow_0_1024.map.scen,4,BFS,1.0,189,True,101.0000,74.63961029,18487,19.4628,35.32
Moscow_0_1024.map,Moscow_0_1024.map.scen,4,BFS,1.0,190,True,101.0000,76.98275604,18692,19.2245,31.20
Moscow_0_1024.map,Moscow_0_1024.map.scen,4,BFS,1.0,191,True,94.0000,79.35533905,12567,13.3685,18.45
Moscow_0_1024.map,Moscow_0_1024.map.scen,4,BFS,1.0,192,True,94.0000,78.18376617,8309,8.8028,20.23
Moscow_0_1024.map,Moscow_0_1024.map.scen,4,BFS,1.0,193,True,98.0000,76.32590179,13755,14.8122,28.40
Moscow_0_1024.map,Moscow_0_1024.map.scen,4,BFS,1.0,194,True,107.0000,78.29646454,22937,25.6945,36.66
Moscow_0_1024.map,Moscow_0_1024.map.scen,4,BFS,1.0,195,True,96.0000,76.66904755,8096,9.1305,25.21
Moscow_0_1024.map,Moscow_0_1024.map.scen,4,BFS,1.0,196,True,78.0000,76.82842712,9492,11.7577,1.52
Moscow_0_1024.map,Moscow_0_1024.map.scen,4,BFS,1.0,197,True,101.0000,77.56854248,8280,9.2816,30.21
Moscow_0_1024.map,Moscow_0_1024.map.scen,4,BFS,1.0,198,True,103.0000,78.98275604,16783,20.8302,30.41
Moscow_0_1024.map,Moscow_0_1024.map.scen,4,BFS,1.0,199,True,104.0000,78.22539673,16702,19.3011,32.95
Moscow_0_1024.map,Moscow_0_1024.map.scen,4,BFS,1.0,200,True,90.0000,81.21320343,13411,16.2584,10.82
Moscow_0_1024.map,Moscow_0_1024.map.scen,4,BFS,1.0,201,True,87.0000,82.3137085,14909,18.3011,5.69
Moscow_0_1024.map,Moscow_0_1024.map.scen,4,BFS,1.0,202,True,92.0000,83.21320343,15855,18.1999,10.56
Moscow_0_1024.map,Moscow_0_1024.map.scen,4,BFS,1.0,203,True,97.0000,81.18376617,17161,20.5434,19.48
Moscow_0_1024.map,Moscow_0_1024.map.scen,4,BFS,1.0,204,True,87.0000,82.3137085,13590,16.4244,5.69
Moscow_0_1024.map,Moscow_0_1024.map.scen,4,BFS,1.0,205,True,92.0000,82.62741699,10167,12.8474,11.34
Moscow_0_1024.map,Moscow_0_1024.map.scen,4,BFS,1.0,206,True,110.0000,83.05382385,20968,25.9073,32.44
Moscow_0_1024.map,Moscow_0_1024.map.scen,4,BFS,1.0,207,True,114.0000,80.61017303,11222,13.5589,41.42
Moscow_0_1024.map,Moscow_0_1024.map.scen,4,BFS,1.0,208,True,86.0000,80.72792206,11200,14.0176,6.53
Moscow_0_1024.map,Moscow_0_1024.map.scen,4,BFS,1.0,209,True,104.0000,82.91168823,18376,21.7352,25.43
Moscow_0_1024.map,Moscow_0_1024.map.scen,4,BFS,1.0,210,True,111.0000,86.3969696,12720,15.6220,28.48
Moscow_0_1024.map,Moscow_0_1024.map.scen,4,BFS,1.0,211,True,112.0000,87.3969696,8880,10.3561,28.15
Moscow_0_1024.map,Moscow_0_1024.map.scen,4,BFS,1.0,212,True,96.0000,86.62741699,15453,19.1170,10.82
Moscow_0_1024.map,Moscow_0_1024.map.scen,4,BFS,1.0,213,True,115.0000,85.7106781,23659,29.1027,34.17
Moscow_0_1024.map,Moscow_0_1024.map.scen,4,BFS,1.0,214,True,118.0000,86.36753235,12550,15.0179,36.63
Moscow_0_1024.map,Moscow_0_1024.map.scen,4,BFS,1.0,215,True,111.0000,85.81118317,19160,22.4119,29.35
Moscow_0_1024.map,Moscow_0_1024.map.scen,4,BFS,1.0,216,True,103.0000,87.18376617,17493,20.5596,18.14
Moscow_0_1024.map,Moscow_0_1024.map.scen,4,BFS,1.0,217,True,114.0000,86.46803741,22826,27.8430,31.84
Moscow_0_1024.map,Moscow_0_1024.map.scen,4,BFS,1.0,218,True,108.0000,85.74011536,20398,23.6741,25.96
Moscow_0_1024.map,Moscow_0_1024.map.scen,4,BFS,1.0,219,True,87.0000,85.24264069,7354,8.6189,2.06
Moscow_0_1024.map,Moscow_0_1024.map.scen,4,BFS,1.0,220,True,97.0000,91.72792206,15263,17.8354,5.75
Moscow_0_1024.map,Moscow_0_1024.map.scen,4,BFS,1.0,221,True,105.0000,91.52691193,11815,14.3217,14.72
Moscow_0_1024.map,Moscow_0_1024.map.scen,4,BFS,1.0,222,True,105.0000,90.35533905,14569,18.0932,16.21
Moscow_0_1024.map,Moscow_0_1024.map.scen,4,BFS,1.0,223,True,107.0000,90.59797974,17401,19.7432,18.10
Moscow_0_1024.map,Moscow_0_1024.map.scen,4,BFS,1.0,224,True,110.0000,91.25483398,16731,17.8700,20.54
Moscow_0_1024.map,Moscow_0_1024.map.scen,4,BFS,1.0,225,True,113.0000,91.32590179,14212,15.0168,23.73
Moscow_0_1024.map,Moscow_0_1024.map.scen,4,BFS,1.0,226,True,104.0000,91.6984848,20185,21.0556,13.42
Moscow_0_1024.map,Moscow_0_1024.map.scen,4,BFS,1.0,227,True,121.0000,90.53910522,24297,26.4546,33.64
Moscow_0_1024.map,Moscow_0_1024.map.scen,4,BFS,1.0,228,True,116.0000,90.22539673,9848,10.2591,28.57
Moscow_0_1024.map,Moscow_0_1024.map.scen,4,BFS,1.0,229,True,116.0000,91.98275604,21583,23.2973,26.11
Moscow_0_1024.map,Moscow_0_1024.map.scen,4,BFS,1.0,230,True,103.0000,93.62741699,17501,18.4632,10.01
Moscow_0_1024.map,Moscow_0_1024.map.scen,4,BFS,1.0,231,True,125.0000,94.53910522,16818,17.5131,32.22
Moscow_0_1024.map,Moscow_0_1024.map.scen,4,BFS,1.0,232,True,95.0000,92.65685425,13234,14.2454,2.53
Moscow_0_1024.map,Moscow_0_1024.map.scen,4,BFS,1.0,233,True,122.0000,93.29646454,24901,26.6989,30.77
Moscow_0_1024.map,Moscow_0_1024.map.scen,4,BFS,1.0,234,True,103.0000,94.21320343,19358,20.1366,9.33
Moscow_0_1024.map,Moscow_0_1024.map.scen,4,BFS,1.0,235,True,110.0000,94.76955261,10286,11.3627,16.07
Moscow_0_1024.map,Moscow_0_1024.map.scen,4,BFS,1.0,236,True,132.0000,94.50966797,9610,10.2594,39.67
Moscow_0_1024.map,Moscow_0_1024.map.scen,4,BFS,1.0,237,True,101.0000,94.55634918,11282,12.3284,6.81
Moscow_0_1024.map,Moscow_0_1024.map.scen,4,BFS,1.0,238,True,105.0000,93.87005768,15087,16.1431,11.86
Moscow_0_1024.map,Moscow_0_1024.map.scen,4,BFS,1.0,239,True,111.0000,93.42640686,15022,16.1836,18.81
Moscow_0_1024.map,Moscow_0_1024.map.scen,4,BFS,1.0,240,True,137.0000,99.50966797,26980,28.5647,37.68
Moscow_0_1024.map,Moscow_0_1024.map.scen,4,BFS,1.0,241,True,108.0000,99.21320343,20932,22.6943,8.86
Moscow_0_1024.map,Moscow_0_1024.map.scen,4,BFS,1.0,242,True,124.0000,99.3969696,11914,12.7001,24.75
Moscow_0_1024.map,Moscow_0_1024.map.scen,4,BFS,1.0,243,True,132.0000,96.26702728,25896,27.4875,37.12
Moscow_0_1024.map,Moscow_0_1024.map.scen,4,BFS,1.0,244,True,120.0000,97.74011536,25558,27.0105,22.77
Moscow_0_1024.map,Moscow_0_1024.map.scen,4,BFS,1.0,245,True,117.0000,99.42640686,13511,14.1664,17.67
Moscow_0_1024.map,Moscow_0_1024.map.scen,4,BFS,1.0,246,True,105.0000,96.79898987,11871,12.8318,8.47
Moscow_0_1024.map,Moscow_0_1024.map.scen,4,BFS,1.0,247,True,119.0000,99.08326111,21141,22.8277,20.10
Moscow_0_1024.map,Moscow_0_1024.map.scen,4,BFS,1.0,248,True,137.0000,98.92388153,33474,35.6278,38.49
Moscow_0_1024.map,Moscow_0_1024.map.scen,4,BFS,1.0,249,True,131.0000,98.78174591,19113,19.7427,32.62
Moscow_0_1024.map,Moscow_0_1024.map.scen,4,BFS,1.0,250,True,140.0000,101.92388153,26192,28.0227,37.36
Moscow_0_1024.map,Moscow_0_1024.map.scen,4,BFS,1.0,251,True,128.0000,101.05382385,25402,27.2890,26.67
Moscow_0_1024.map,Moscow_0_1024.map.scen,4,BFS,1.0,252,True,132.0000,102.12489166,25979,29.5109,29.25
Moscow_0_1024.map,Moscow_0_1024.map.scen,4,BFS,1.0,253,True,118.0000,102.18376617,21505,23.5449,15.48
Moscow_0_1024.map,Moscow_0_1024.map.scen,4,BFS,1.0,254,True,140.0000,103.09545441,15691,17.2319,35.80
Moscow_0_1024.map,Moscow_0_1024.map.scen,4,BFS,1.0,255,True,139.0000,100.92388153,15497,16.5311,37.73
Moscow_0_1024.map,Moscow_0_1024.map.scen,4,BFS,1.0,256,True,134.0000,101.19595947,23109,24.8024,32.42
Moscow_0_1024.map,Moscow_0_1024.map.scen,4,BFS,1.0,257,True,140.0000,101.33809509,27896,29.6249,38.15
Moscow_0_1024.map,Moscow_0_1024.map.scen,4,BFS,1.0,258,True,113.0000,102.45584412,13714,14.7423,10.29
Moscow_0_1024.map,Moscow_0_1024.map.scen,4,BFS,1.0,259,True,143.0000,101.99494934,35532,38.6622,40.20
Moscow_0_1024.map,Moscow_0_1024.map.scen,4,BFS,1.0,260,True,136.0000,104.95331879,29771,31.9835,29.58
Moscow_0_1024.map,Moscow_0_1024.map.scen,4,BFS,1.0,261,True,123.0000,107.18376617,19088,19.6804,14.76
Moscow_0_1024.map,Moscow_0_1024.map.scen,4,BFS,1.0,262,True,143.0000,106.09545441,31841,33.9773,34.78
Moscow_0_1024.map,Moscow_0_1024.map.scen,4,BFS,1.0,263,True,131.0000,104.05382385,25124,27.2431,25.90
Moscow_0_1024.map,Moscow_0_1024.map.scen,4,BFS,1.0,264,True,141.0000,105.85281372,24901,27.0795,33.20
Moscow_0_1024.map,Moscow_0_1024.map.scen,4,BFS,1.0,265,True,142.0000,106.85281372,27259,28.9490,32.89
Moscow_0_1024.map,Moscow_0_1024.map.scen,4,BFS,1.0,266,True,138.0000,106.95331879,7850,8.2470,29.03
Moscow_0_1024.map,Moscow_0_1024.map.scen,4,BFS,1.0,267,True,142.0000,105.09545441,26405,28.4471,35.12
Moscow_0_1024.map,Moscow_0_1024.map.scen,4,BFS,1.0,268,True,137.0000,104.19595947,25018,26.4523,31.48
Moscow_0_1024.map,Moscow_0_1024.map.scen,4,BFS,1.0,269,True,122.0000,105.0121933,22056,24.0997,16.18
Moscow_0_1024.map,Moscow_0_1024.map.scen,4,BFS,1.0,270,True,113.0000,108.3137085,19241,20.1623,4.33
Moscow_0_1024.map,Moscow_0_1024.map.scen,4,BFS,1.0,271,True,138.0000,111.05382385,21919,23.3544,24.26
Moscow_0_1024.map,Moscow_0_1024.map.scen,4,BFS,1.0,272,True,138.0000,110.46803741,27017,29.2315,24.92
Moscow_0_1024.map,Moscow_0_1024.map.scen,4,BFS,1.0,273,True,149.0000,110.33809509,12886,13.5977,35.04
Moscow_0_1024.map,Moscow_0_1024.map.scen,4,BFS,1.0,274,True,130.0000,108.91168823,24431,29.4521,19.36
Moscow_0_1024.map,Moscow_0_1024.map.scen,4,BFS,1.0,275,True,143.0000,111.95331879,22361,23.9807,27.73
Moscow_0_1024.map,Moscow_0_1024.map.scen,4,BFS,1.0,276,True,156.0000,110.89444427,38774,42.6108,40.67
Moscow_0_1024.map,Moscow_0_1024.map.scen,4,BFS,1.0,277,True,126.0000,111.94112549,20283,21.3414,12.56
Moscow_0_1024.map,Moscow_0_1024.map.scen,4,BFS,1.0,278,True,109.0000,108.41421356,12150,13.0551,0.54
Moscow_0_1024.map,Moscow_0_1024.map.scen,4,BFS,1.0,279,True,146.0000,108.50966797,28734,30.4591,34.55
Moscow_0_1024.map,Moscow_0_1024.map.scen,4,BFS,1.0,280,True,123.0000,112.45584412,6232,6.4572,9.38
Moscow_0_1024.map,Moscow_0_1024.map.scen,4,BFS,1.0,281,True,130.0000,114.18376617,31353,33.9475,13.85
Moscow_0_1024.map,Moscow_0_1024.map.scen,4,BFS,1.0,282,True,161.0000,114.13708496,40769,43.6009,41.06
Moscow_0_1024.map,Moscow_0_1024.map.scen,4,BFS,1.0,283,True,140.0000,114.22539673,30956,32.8837,22.56
Moscow_0_1024.map,Moscow_0_1024.map.scen,4,BFS,1.0,284,True,159.0000,115.06601715,41655,46.3492,38.18
Moscow_0_1024.map,Moscow_0_1024.map.scen,4,BFS,1.0,285,True,149.0000,115.0243866,30237,32.0267,29.54
Moscow_0_1024.map,Moscow_0_1024.map.scen,4,BFS,1.0,286,True,141.0000,115.81118317,32922,35.5099,21.75
Moscow_0_1024.map,Moscow_0_1024.map.scen,4,BFS,1.0,287,True,149.0000,114.43860016,20539,21.0180,30.20
Moscow_0_1024.map,Moscow_0_1024.map.scen,4,BFS,1.0,288,True,154.0000,112.4091629,36534,38.3962,37.00
Moscow_0_1024.map,Moscow_0_1024.map.scen,4,BFS,1.0,289,True,136.0000,114.91168823,13212,13.8020,18.35
Moscow_0_1024.map,Moscow_0_1024.map.scen,4,BFS,1.0,290,True,149.0000,118.53910522,35102,37.4180,25.70
Moscow_0_1024.map,Moscow_0_1024.map.scen,4,BFS,1.0,291,True,157.0000,117.16652222,36918,39.0284,34.00
Moscow_0_1024.map,Moscow_0_1024.map.scen,4,BFS,1.0,292,True,139.0000,116.15432892,28044,30.0088,19.67
Moscow_0_1024.map,Moscow_0_1024.map.scen,4,BFS,1.0,293,True,134.0000,119.94112549,12482,15.6042,11.72
Moscow_0_1024.map,Moscow_0_1024.map.scen,4,BFS,1.0,294,True,132.0000,117.35533905,17801,21.5105,12.48
Moscow_0_1024.map,Moscow_0_1024.map.scen,4,BFS,1.0,295,True,162.0000,117.48023071,25711,35.6277,37.90
Moscow_0_1024.map,Moscow_0_1024.map.scen,4,BFS,1.0,296,True,162.0000,118.06601715,46373,70.9792,37.21
Moscow_0_1024.map,Moscow_0_1024.map.scen,4,BFS,1.0,297,True,150.0000,116.61017303,25700,30.8795,28.63
Moscow_0_1024.map,Moscow_0_1024.map.scen,4,BFS,1.0,298,True,134.0000,117.59797974,15166,18.1045,13.95
Moscow_0_1024.map,Moscow_0_1024.map.scen,4,BFS,1.0,299,True,141.0000,116.3969696,18297,20.5568,21.14
Moscow_0_1024.map,Moscow_0_1024.map.scen,4,BFS,1.0,300,True,153.0000,122.53910522,25552,32.3920,24.86
Moscow_0_1024.map,Moscow_0_1024.map.scen,4,BFS,1.0,301,True,148.0000,122.22539673,26428,30.6283,21.09
Moscow_0_1024.map,Moscow_0_1024.map.scen,4,BFS,1.0,302,True,138.0000,121.59797974,30077,33.5279,13.49
Moscow_0_1024.map,Moscow_0_1024.map.scen,4,BFS,1.0,303,True,141.0000,122.25483398,22796,25.5682,15.33
Moscow_0_1024.map,Moscow_0_1024.map.scen,4,BFS,1.0,304,True,156.0000,123.19595947,16904,18.7815,26.63
Moscow_0_1024.map,Moscow_0_1024.map.scen,4,BFS,1.0,305,True,167.0000,120.13708496,42154,49.6349,39.01
Moscow_0_1024.map,Moscow_0_1024.map.scen,4,BFS,1.0,306,True,141.0000,122.84062042,27383,30.4843,14.78
Moscow_0_1024.map,Moscow_0_1024.map.scen,4,BFS,1.0,307,True,142.0000,122.66904755,21700,25.6287,15.76
Moscow_0_1024.map,Moscow_0_1024.map.scen,4,BFS,1.0,308,True,161.0000,122.92388153,43102,53.4186,30.98
Moscow_0_1024.map,Moscow_0_1024.map.scen,4,BFS,1.0,309,True,157.0000,121.85281372,32491,37.6748,28.84
Moscow_0_1024.map,Moscow_0_1024.map.scen,4,BFS,1.0,310,True,174.0000,127.7228714,42099,51.1182,36.23
Moscow_0_1024.map,Moscow_0_1024.map.scen,4,BFS,1.0,311,True,164.0000,125.92388153,37311,39.8473,30.24
Moscow_0_1024.map,Moscow_0_1024.map.scen,4,BFS,1.0,312,True,147.0000,124.15432892,30750,33.3015,18.40
Moscow_0_1024.map,Moscow_0_1024.map.scen,4,BFS,1.0,313,True,162.0000,126.26702728,38002,41.4825,28.30
Moscow_0_1024.map,Moscow_0_1024.map.scen,4,BFS,1.0,314,True,175.0000,126.37972565,28323,30.2176,38.47
Moscow_0_1024.map,Moscow_0_1024.map.scen,4,BFS,1.0,315,True,127.0000,124.07106781,29225,31.7122,2.36
Moscow_0_1024.map,Moscow_0_1024.map.scen,4,BFS,1.0,316,True,137.0000,126.45584412,24042,26.0267,8.34
Moscow_0_1024.map,Moscow_0_1024.map.scen,4,BFS,1.0,317,True,153.0000,124.88225098,22139,24.7859,22.52
Moscow_0_1024.map,Moscow_0_1024.map.scen,4,BFS,1.0,318,True,152.0000,124.46803741,21499,23.9708,22.12
Moscow_0_1024.map,Moscow_0_1024.map.scen,4,BFS,1.0,319,True,153.0000,126.05382385,38429,42.8895,21.38
Moscow_0_1024.map,Moscow_0_1024.map.scen,4,BFS,1.0,320,True,152.0000,130.32590179,21948,24.6033,16.63
Moscow_0_1024.map,Moscow_0_1024.map.scen,4,BFS,1.0,321,True,147.0000,130.0121933,30253,35.0611,13.07
Moscow_0_1024.map,Moscow_0_1024.map.scen,4,BFS,1.0,322,True,139.0000,130.79898987,12897,15.1244,6.27
Moscow_0_1024.map,Moscow_0_1024.map.scen,4,BFS,1.0,323,True,163.0000,130.19595947,26970,30.8736,25.20
Moscow_0_1024.map,Moscow_0_1024.map.scen,4,BFS,1.0,324,True,162.0000,131.53910522,35514,41.8932,23.16
Moscow_0_1024.map,Moscow_0_1024.map.scen,4,BFS,1.0,325,True,134.0000,129.3137085,30223,35.0776,3.62
Moscow_0_1024.map,Moscow_0_1024.map.scen,4,BFS,1.0,326,True,180.0000,131.37972565,31684,36.4851,37.01
Moscow_0_1024.map,Moscow_0_1024.map.scen,4,BFS,1.0,327,True,149.0000,131.42640686,15987,18.8676,13.37
Moscow_0_1024.map,Moscow_0_1024.map.scen,4,BFS,1.0,328,True,155.0000,130.3969696,30165,37.7973,18.87
Moscow_0_1024.map,Moscow_0_1024.map.scen,4,BFS,1.0,329,True,168.0000,128.75230865,39753,46.3891,30.48
Moscow_0_1024.map,Moscow_0_1024.map.scen,4,BFS,1.0,330,True,147.0000,135.28427124,28597,33.5849,8.66
Moscow_0_1024.map,Moscow_0_1024.map.scen,4,BFS,1.0,331,True,169.0000,132.68124084,41196,48.7568,27.37
Moscow_0_1024.map,Moscow_0_1024.map.scen,4,BFS,1.0,332,True,150.0000,133.59797974,30474,35.0596,12.28
Moscow_0_1024.map,Moscow_0_1024.map.scen,4,BFS,1.0,333,True,166.0000,135.53910522,41007,47.6063,22.47
Moscow_0_1024.map,Moscow_0_1024.map.scen,4,BFS,1.0,334,True,178.0000,132.30865784,47290,56.2419,34.53
Moscow_0_1024.map,Moscow_0_1024.map.scen,4,BFS,1.0,335,True,180.0000,134.89444427,46326,57.8461,33.44
Moscow_0_1024.map,Moscow_0_1024.map.scen,4,BFS,1.0,336,True,150.0000,135.94112549,29861,34.0356,10.34
Moscow_0_1024.map,Moscow_0_1024.map.scen,4,BFS,1.0,337,True,155.0000,134.49747467,24497,28.7215,15.24
Moscow_0_1024.map,Moscow_0_1024.map.scen,4,BFS,1.0,338,True,141.0000,133.38477631,21187,24.4633,5.71
Moscow_0_1024.map,Moscow_0_1024.map.scen,4,BFS,1.0,339,True,169.0000,132.68124084,7869,8.6235,27.37
Moscow_0_1024.map,Moscow_0_1024.map.scen,4,BFS,1.0,340,True,185.0000,138.7228714,46710,54.4306,33.36
Moscow_0_1024.map,Moscow_0_1024.map.scen,4,BFS,1.0,341,True,152.0000,136.76955261,28474,33.0762,11.14
Moscow_0_1024.map,Moscow_0_1024.map.scen,4,BFS,1.0,342,True,160.0000,139.49747467,26005,30.6442,14.70
Moscow_0_1024.map,Moscow_0_1024.map.scen,4,BFS,1.0,343,True,192.0000,138.69343414,40439,45.5729,38.43
Moscow_0_1024.map,Moscow_0_1024.map.scen,4,BFS,1.0,344,True,191.0000,138.27922058,50173,57.1733,38.13
Moscow_0_1024.map,Moscow_0_1024.map.scen,4,BFS,1.0,345,True,155.0000,137.42640686,26941,29.7542,12.79
Moscow_0_1024.map,Moscow_0_1024.map.scen,4,BFS,1.0,346,True,171.0000,139.95331879,44894,52.0239,22.18
Moscow_0_1024.map,Moscow_0_1024.map.scen,4,BFS,1.0,347,True,156.0000,136.66904755,25664,33.3309,14.14
Moscow_0_1024.map,Moscow_0_1024.map.scen,4,BFS,1.0,348,True,165.0000,136.88225098,32170,31.3861,20.54
Moscow_0_1024.map,Moscow_0_1024.map.scen,4,BFS,1.0,349,True,164.0000,138.81118317,37097,35.8789,18.15
Moscow_0_1024.map,Moscow_0_1024.map.scen,4,BFS,1.0,350,True,169.0000,142.05382385,20811,20.7769,18.97
Moscow_0_1024.map,Moscow_0_1024.map.scen,4,BFS,1.0,351,True,190.0000,141.37972565,38479,38.6514,34.39
Moscow_0_1024.map,Moscow_0_1024.map.scen,4,BFS,1.0,352,True,173.0000,143.36753235,22392,22.3769,20.67
Moscow_0_1024.map,Moscow_0_1024.map.scen,4,BFS,1.0,353,True,193.0000,142.03657989,45626,46.9728,35.88
Moscow_0_1024.map,Moscow_0_1024.map.scen,4,BFS,1.0,354,True,183.0000,141.4091629,47916,50.7952,29.41
Moscow_0_1024.map,Moscow_0_1024.map.scen,4,BFS,1.0,355,True,184.0000,140.55129852,43289,45.9873,30.91
Moscow_0_1024.map,Moscow_0_1024.map.scen,4,BFS,1.0,356,True,173.0000,142.53910522,32308,32.7579,21.37
Moscow_0_1024.map,Moscow_0_1024.map.scen,4,BFS,1.0,357,True,185.0000,142.82337646,51073,52.1918,29.53
Moscow_0_1024.map,Moscow_0_1024.map.scen,4,BFS,1.0,358,True,199.0000,142.17871551,58945,60.3497,39.96
Moscow_0_1024.map,Moscow_0_1024.map.scen,4,BFS,1.0,359,True,166.0000,140.22539673,19079,19.3892,18.38
Moscow_0_1024.map,Moscow_0_1024.map.scen,4,BFS,1.0,360,True,200.0000,147.27922058,58011,59.2313,35.80
Moscow_0_1024.map,Moscow_0_1024.map.scen,4,BFS,1.0,361,True,160.0000,144.18376617,37542,38.5402,10.97
Moscow_0_1024.map,Moscow_0_1024.map.scen,4,BFS,1.0,362,True,177.0000,145.95331879,46139,49.6075,21.27
Moscow_0_1024.map,Moscow_0_1024.map.scen,4,BFS,1.0,363,True,165.0000,147.42640686,34871,36.5872,11.92
Moscow_0_1024.map,Moscow_0_1024.map.scen,4,BFS,1.0,364,True,172.0000,144.46803741,16369,19.5500,19.06
Moscow_0_1024.map,Moscow_0_1024.map.scen,4,BFS,1.0,365,True,192.0000,147.48023071,42314,49.8057,30.19
Moscow_0_1024.map,Moscow_0_1024.map.scen,4,BFS,1.0,366,True,196.0000,146.79393921,39104,41.2681,33.52
Moscow_0_1024.map,Moscow_0_1024.map.scen,4,BFS,1.0,367,True,157.0000,145.28427124,41542,43.9959,8.06
Moscow_0_1024.map,Moscow_0_1024.map.scen,4,BFS,1.0,368,True,154.0000,147.55634918,28651,30.3861,4.37
Moscow_0_1024.map,Moscow_0_1024.map.scen,4,BFS,1.0,369,True,162.0000,147.35533905,39344,43.7538,9.94
Moscow_0_1024.map,Moscow_0_1024.map.scen,4,BFS,1.0,370,True,182.0000,150.36753235,27371,28.8817,21.04
Moscow_0_1024.map,Moscow_0_1024.map.scen,4,BFS,1.0,371,True,183.0000,149.61017303,42129,46.0496,22.32
Moscow_0_1024.map,Moscow_0_1024.map.scen,4,BFS,1.0,372,True,185.0000,149.26702728,51355,54.3711,23.94
Moscow_0_1024.map,Moscow_0_1024.map.scen,4,BFS,1.0,373,True,161.0000,151.62741699,26545,27.0250,6.18
Moscow_0_1024.map,Moscow_0_1024.map.scen,4,BFS,1.0,374,True,207.0000,150.17871551,63098,65.7959,37.84
Moscow_0_1024.map,Moscow_0_1024.map.scen,4,BFS,1.0,375,True,174.0000,148.22539673,46341,49.0208,17.39
Moscow_0_1024.map,Moscow_0_1024.map.scen,4,BFS,1.0,376,True,181.0000,148.19595947,45803,53.3448,22.14
Moscow_0_1024.map,Moscow_0_1024.map.scen,4,BFS,1.0,377,True,204.0000,148.93607483,60059,68.0625,36.97
Moscow_0_1024.map,Moscow_0_1024.map.scen,4,BFS,1.0,378,True,203.0000,151.45079346,50696,62.1474,34.04
Moscow_0_1024.map,Moscow_0_1024.map.scen,4,BFS,1.0,379,True,161.0000,149.28427124,41899,44.9021,7.85
Moscow_0_1024.map,Moscow_0_1024.map.scen,4,BFS,1.0,380,True,217.0000,154.32085113,47633,50.1002,40.62
Moscow_0_1024.map,Moscow_0_1024.map.scen,4,BFS,1.0,381,True,170.0000,153.0121933,45446,51.3867,11.10
Moscow_0_1024.map,Moscow_0_1024.map.scen,4,BFS,1.0,382,True,179.0000,153.81118317,36167,38.9589,16.38
Moscow_0_1024.map,Moscow_0_1024.map.scen,4,BFS,1.0,383,True,182.0000,153.88225098,45493,50.4392,18.27
Moscow_0_1024.map,Moscow_0_1024.map.scen,4,BFS,1.0,384,True,214.0000,154.24978332,48799,51.8043,38.74
Moscow_0_1024.map,Moscow_0_1024.map.scen,4,BFS,1.0,385,True,184.0000,155.29646454,29252,31.0032,18.48
Moscow_0_1024.map,Moscow_0_1024.map.scen,4,BFS,1.0,386,True,193.0000,152.58073578,41862,45.5089,26.49
Moscow_0_1024.map,Moscow_0_1024.map.scen,4,BFS,1.0,387,True,171.0000,153.42640686,20165,20.4993,11.45
Moscow_0_1024.map,Moscow_0_1024.map.scen,4,BFS,1.0,388,True,166.0000,154.87005768,42769,46.8121,7.19
Moscow_0_1024.map,Moscow_0_1024.map.scen,4,BFS,1.0,389,True,194.0000,155.92388153,48942,52.6074,24.42
Moscow_0_1024.map,Moscow_0_1024.map.scen,4,BFS,1.0,390,True,206.0000,156.79393921,39739,40.3562,31.38
Moscow_0_1024.map,Moscow_0_1024.map.scen,4,BFS,1.0,391,True,214.0000,156.59292908,32158,33.2559,36.66
Moscow_0_1024.map,Moscow_0_1024.map.scen,4,BFS,1.0,392,True,184.0000,158.81118317,51215,54.1898,15.86
Moscow_0_1024.map,Moscow_0_1024.map.scen,4,BFS,1.0,393,True,175.0000,159.76955261,45667,50.7308,9.53
Moscow_0_1024.map,Moscow_0_1024.map.scen,4,BFS,1.0,394,True,169.0000,156.11269836,20970,23.2800,8.26
Moscow_0_1024.map,Moscow_0_1024.map.scen,4,BFS,1.0,395,True,171.0000,157.52691193,43322,49.9166,8.55
Moscow_0_1024.map,Moscow_0_1024.map.scen,4,BFS,1.0,396,True,219.0000,158.66399689,70822,76.6736,38.03
Moscow_0_1024.map,Moscow_0_1024.map.scen,4,BFS,1.0,397,True,161.0000,158.65685425,41947,46.4815,1.48
Moscow_0_1024.map,Moscow_0_1024.map.scen,4,BFS,1.0,398,True,212.0000,159.86500702,50847,56.1969,32.61
Moscow_0_1024.map,Moscow_0_1024.map.scen,4,BFS,1.0,399,True,169.0000,157.28427124,29566,31.6295,7.45
Moscow_0_1024.map,Moscow_0_1024.map.scen,4,BFS,1.0,400,True,185.0000,162.15432892,39557,42.0184,14.09
Moscow_0_1024.map,Moscow_0_1024.map.scen,4,BFS,1.0,401,True,219.0000,160.4213562,70783,76.2000,36.52
Moscow_0_1024.map,Moscow_0_1024.map.scen,4,BFS,1.0,402,True,197.0000,161.26702728,26523,28.2708,22.16
Moscow_0_1024.map,Moscow_0_1024.map.scen,4,BFS,1.0,403,True,191.0000,160.53910522,42487,48.6306,18.97
Moscow_0_1024.map,Moscow_0_1024.map.scen,4,BFS,1.0,404,True,200.0000,162.50966797,57326,62.3647,23.07
Moscow_0_1024.map,Moscow_0_1024.map.scen,4,BFS,1.0,405,True,191.0000,160.53910522,24469,28.6863,18.97
Moscow_0_1024.map,Moscow_0_1024.map.scen,4,BFS,1.0,406,True,222.0000,161.07821045,69731,73.8324,37.82
Moscow_0_1024.map,Moscow_0_1024.map.scen,4,BFS,1.0,407,True,209.0000,161.55129852,54830,57.8410,29.37
Moscow_0_1024.map,Moscow_0_1024.map.scen,4,BFS,1.0,408,True,207.0000,160.7228714,67531,71.4677,28.79
Moscow_0_1024.map,Moscow_0_1024.map.scen,4,BFS,1.0,409,True,225.0000,160.56349182,73573,75.7899,40.13
Moscow_0_1024.map,Moscow_0_1024.map.scen,4,BFS,1.0,410,True,188.0000,165.15432892,38180,38.6200,13.83
Moscow_0_1024.map,Moscow_0_1024.map.scen,4,BFS,1.0,411,True,174.0000,165.21320343,37353,38.5883,5.32
Moscow_0_1024.map,Moscow_0_1024.map.scen,4,BFS,1.0,412,True,191.0000,165.22539673,45016,48.5019,15.60
Moscow_0_1024.map,Moscow_0_1024.map.scen,4,BFS,1.0,413,True,193.0000,167.81118317,40316,41.5648,15.01
Moscow_0_1024.map,Moscow_0_1024.map.scen,4,BFS,1.0,414,True,225.0000,165.24978332,63481,68.2856,36.16
Moscow_0_1024.map,Moscow_0_1024.map.scen,4,BFS,1.0,415,True,204.0000,167.68124084,40895,41.6472,21.66
Moscow_0_1024.map,Moscow_0_1024.map.scen,4,BFS,1.0,416,True,225.0000,164.66399689,72544,74.2390,36.64
Moscow_0_1024.map,Moscow_0_1024.map.scen,4,BFS,1.0,417,True,212.0000,167.48023071,65996,69.4918,26.58
Moscow_0_1024.map,Moscow_0_1024.map.scen,4,BFS,1.0,418,True,216.0000,166.20815277,54239,57.0198,29.96
Moscow_0_1024.map,Moscow_0_1024.map.scen,4,BFS,1.0,419,True,230.0000,164.39191894,66743,70.1905,39.91
Moscow_0_1024.map,Moscow_0_1024.map.scen,4,BFS,1.0,420,True,234.0000,169.56349182,64819,69.3219,38.00
Moscow_0_1024.map,Moscow_0_1024.map.scen,4,BFS,1.0,421,True,182.0000,171.45584412,52884,56.0764,6.15
Moscow_0_1024.map,Moscow_0_1024.map.scen,4,BFS,1.0,422,True,184.0000,171.11269836,24089,24.8209,7.53
Moscow_0_1024.map,Moscow_0_1024.map.scen,4,BFS,1.0,423,True,236.0000,170.39191894,83512,85.3209,38.50
Moscow_0_1024.map,Moscow_0_1024.map.scen,4,BFS,1.0,424,True,225.0000,169.93607483,62506,63.4707,32.40
Moscow_0_1024.map,Moscow_0_1024.map.scen,4,BFS,1.0,425,True,228.0000,169.4213562,79983,81.7989,34.58
Moscow_0_1024.map,Moscow_0_1024.map.scen,4,BFS,1.0,426,True,176.0000,170.72792206,49933,52.6397,3.09
Moscow_0_1024.map,Moscow_0_1024.map.scen,4,BFS,1.0,427,True,199.0000,169.7106781,34972,35.6206,17.26
Moscow_0_1024.map,Moscow_0_1024.map.scen,4,BFS,1.0,428,True,176.0000,171.3137085,37443,38.3912,2.74
Moscow_0_1024.map,Moscow_0_1024.map.scen,4,BFS,1.0,429,True,193.0000,168.3969696,58176,60.7978,14.61
Moscow_0_1024.map,Moscow_0_1024.map.scen,4,BFS,1.0,430,True,189.0000,172.0121933,53405,55.2142,9.88
Moscow_0_1024.map,Moscow_0_1024.map.scen,4,BFS,1.0,431,True,239.0000,175.7350647,77359,79.4912,36.00
Moscow_0_1024.map,Moscow_0_1024.map.scen,4,BFS,1.0,432,True,208.0000,172.26702728,52635,55.3604,20.74
Moscow_0_1024.map,Moscow_0_1024.map.scen,4,BFS,1.0,433,True,232.0000,172.83556976,24755,25.5240,34.23
Moscow_0_1024.map,Moscow_0_1024.map.scen,4,BFS,1.0,434,True,220.0000,174.89444427,48448,51.2023,25.79
Moscow_0_1024.map,Moscow_0_1024.map.scen,4,BFS,1.0,435,True,245.0000,175.87720032,87575,93.8545,39.30
Moscow_0_1024.map,Moscow_0_1024.map.scen,4,BFS,1.0,436,True,210.0000,174.26702728,31209,31.8494,20.50
Moscow_0_1024.map,Moscow_0_1024.map.scen,4,BFS,1.0,437,True,196.0000,174.91168823,42718,45.8389,12.06
Moscow_0_1024.map,Moscow_0_1024.map.scen,4,BFS,1.0,438,True,203.0000,173.12489166,44675,47.5544,17.26
Moscow_0_1024.map,Moscow_0_1024.map.scen,4,BFS,1.0,439,True,229.0000,172.17871551,76160,76.9689,33.00
Moscow_0_1024.map,Moscow_0_1024.map.scen,4,BFS,1.0,440,True,204.0000,177.05382385,66803,68.1813,15.22
Moscow_0_1024.map,Moscow_0_1024.map.scen,4,BFS,1.0,441,True,225.0000,178.7228714,50484,52.1428,25.89
Moscow_0_1024.map,Moscow_0_1024.map.scen,4,BFS,1.0,442,True,208.0000,177.53910522,47714,50.0586,17.16
Moscow_0_1024.map,Moscow_0_1024.map.scen,4,BFS,1.0,443,True,229.0000,179.79393921,80626,82.2462,27.37
Moscow_0_1024.map,Moscow_0_1024.map.scen,4,BFS,1.0,444,True,195.0000,176.25483398,44663,47.2925,10.64
Moscow_0_1024.map,Moscow_0_1024.map.scen,4,BFS,1.0,445,True,182.0000,178.48528137,52195,55.3334,1.97
Moscow_0_1024.map,Moscow_0_1024.map.scen,4,BFS,1.0,446,True,216.0000,178.50966797,35039,36.9142,21.00
Moscow_0_1024.map,Moscow_0_1024.map.scen,4,BFS,1.0,447,True,242.0000,179.32085113,59609,63.4226,34.95
Moscow_0_1024.map,Moscow_0_1024.map.scen,4,BFS,1.0,448,True,231.0000,177.1076477,73563,78.0019,30.43
Moscow_0_1024.map,Moscow_0_1024.map.scen,4,BFS,1.0,449,True,202.0000,179.15432892,40316,42.5056,12.75
Moscow_0_1024.map,Moscow_0_1024.map.scen,4,BFS,1.0,450,True,243.0000,182.07821045,47818,51.2553,33.46
Moscow_0_1024.map,Moscow_0_1024.map.scen,4,BFS,1.0,451,True,208.0000,182.22539673,54138,58.9179,14.14
Moscow_0_1024.map,Moscow_0_1024.map.scen,4,BFS,1.0,452,True,249.0000,183.39191894,93950,102.4156,35.77
Moscow_0_1024.map,Moscow_0_1024.map.scen,4,BFS,1.0,453,True,238.0000,182.93607483,42868,46.3947,30.10
Moscow_0_1024.map,Moscow_0_1024.map.scen,4,BFS,1.0,454,True,249.0000,181.63455963,88240,97.3648,37.09
Moscow_0_1024.map,Moscow_0_1024.map.scen,4,BFS,1.0,455,True,185.0000,183.24264069,53756,58.0856,0.96
Moscow_0_1024.map,Moscow_0_1024.map.scen,4,BFS,1.0,456,True,202.0000,182.08326111,56186,61.5318,10.94
Moscow_0_1024.map,Moscow_0_1024.map.scen,4,BFS,1.0,457,True,231.0000,180.62236633,75604,79.7393,27.89
Moscow_0_1024.map,Moscow_0_1024.map.scen,4,BFS,1.0,458,True,238.0000,180.00714264,78935,84.6127,32.22
Moscow_0_1024.map,Moscow_0_1024.map.scen,4,BFS,1.0,459,True,236.0000,181.52186127,46830,51.5202,30.01
Moscow_0_1024.map,Moscow_0_1024.map.scen,4,BFS,1.0,460,True,228.0000,187.58073578,30498,31.9315,21.55
Moscow_0_1024.map,Moscow_0_1024.map.scen,4,BFS,1.0,461,True,211.0000,186.3969696,53078,58.3694,13.20
Moscow_0_1024.map,Moscow_0_1024.map.scen,4,BFS,1.0,462,True,218.0000,186.36753235,60767,65.5162,16.97
Moscow_0_1024.map,Moscow_0_1024.map.scen,4,BFS,1.0,463,True,221.0000,184.68124084,66901,72.2965,19.67
Moscow_0_1024.map,Moscow_0_1024.map.scen,4,BFS,1.0,464,True,223.0000,186.09545441,59161,61.8019,19.83
Moscow_0_1024.map,Moscow_0_1024.map.scen,4,BFS,1.0,465,True,233.0000,186.13708496,72726,73.9588,25.18
Moscow_0_1024.map,Moscow_0_1024.map.scen,4,BFS,1.0,466,True,255.0000,187.04877319,81789,82.7766,36.33
Moscow_0_1024.map,Moscow_0_1024.map.scen,4,BFS,1.0,467,True,260.0000,185.60512237,90011,94.6829,40.08
Moscow_0_1024.map,Moscow_0_1024.map.scen,4,BFS,1.0,468,True,221.0000,186.43860016,73682,73.6807,18.54
Moscow_0_1024.map,Moscow_0_1024.map.scen,4,BFS,1.0,469,True,246.0000,187.4213562,64255,66.7838,31.26
Moscow_0_1024.map,Moscow_0_1024.map.scen,4,BFS,1.0,470,True,224.0000,188.26702728,62504,67.1979,18.98
Moscow_0_1024.map,Moscow_0_1024.map.scen,4,BFS,1.0,471,True,229.0000,190.92388153,42794,48.2029,19.94
Moscow_0_1024.map,Moscow_0_1024.map.scen,4,BFS,1.0,472,True,207.0000,188.25483398,60171,63.4425,9.96
Moscow_0_1024.map,Moscow_0_1024.map.scen,4,BFS,1.0,473,True,252.0000,189.90663757,60389,62.9024,32.70
Moscow_0_1024.map,Moscow_0_1024.map.scen,4,BFS,1.0,474,True,236.0000,190.30865784,64459,71.5182,24.01
Moscow_0_1024.map,Moscow_0_1024.map.scen,4,BFS,1.0,475,True,235.0000,189.30865784,65016,68.7598,24.14
Moscow_0_1024.map,Moscow_0_1024.map.scen,4,BFS,1.0,476,True,244.0000,191.27922058,67548,71.1180,27.56
Moscow_0_1024.map,Moscow_0_1024.map.scen,4,BFS,1.0,477,True,215.0000,188.63961029,39944,40.8898,13.97
Moscow_0_1024.map,Moscow_0_1024.map.scen,4,BFS,1.0,478,True,245.0000,190.52186127,51449,53.8991,28.59
Moscow_0_1024.map,Moscow_0_1024.map.scen,4,BFS,1.0,479,True,242.0000,190.45079346,67311,69.1423,27.07
Moscow_0_1024.map,Moscow_0_1024.map.scen,4,BFS,1.0,480,True,204.0000,193.45584412,44516,46.8959,5.45
Moscow_0_1024.map,Moscow_0_1024.map.scen,4,BFS,1.0,481,True,238.0000,193.48023071,83371,84.3787,23.01
Moscow_0_1024.map,Moscow_0_1024.map.scen,4,BFS,1.0,482,True,201.0000,192.79898987,61494,64.4818,4.25
Moscow_0_1024.map,Moscow_0_1024.map.scen,4,BFS,1.0,483,True,272.0000,194.67619018,94303,98.8617,39.72
Moscow_0_1024.map,Moscow_0_1024.map.scen,4,BFS,1.0,484,True,250.0000,193.76450195,97836,101.9231,29.02
Moscow_0_1024.map,Moscow_0_1024.map.scen,4,BFS,1.0,485,True,265.0000,194.119841,91965,96.7543,36.51
Moscow_0_1024.map,Moscow_0_1024.map.scen,4,BFS,1.0,486,True,255.0000,193.49242401,84598,84.8586,31.79
Moscow_0_1024.map,Moscow_0_1024.map.scen,4,BFS,1.0,487,True,260.0000,192.63455963,64504,65.2387,34.97
Moscow_0_1024.map,Moscow_0_1024.map.scen,4,BFS,1.0,488,True,269.0000,193.4335495,99790,103.2851,39.07
Moscow_0_1024.map,Moscow_0_1024.map.scen,4,BFS,1.0,489,True,223.0000,193.7106781,58613,59.3185,15.12
Moscow_0_1024.map,Moscow_0_1024.map.scen,4,BFS,1.0,490,True,225.0000,197.46803741,73295,75.9571,13.94
Moscow_0_1024.map,Moscow_0_1024.map.scen,4,BFS,1.0,491,True,232.0000,199.78174591,65330,67.5409,16.13
Moscow_0_1024.map,Moscow_0_1024.map.scen,4,BFS,1.0,492,True,248.0000,196.45079346,90451,96.1719,26.24
Moscow_0_1024.map,Moscow_0_1024.map.scen,4,BFS,1.0,493,True,209.0000,196.6984848,30197,30.8115,6.25
Moscow_0_1024.map,Moscow_0_1024.map.scen,4,BFS,1.0,494,True,245.0000,196.96551208,76215,79.6201,24.39
Moscow_0_1024.map,Moscow_0_1024.map.scen,4,BFS,1.0,495,True,264.0000,198.97770538,61063,67.4292,32.68
Moscow_0_1024.map,Moscow_0_1024.map.scen,4,BFS,1.0,496,True,229.0000,199.12489166,73066,114.4130,15.00
Moscow_0_1024.map,Moscow_0_1024.map.scen,4,BFS,1.0,497,True,249.0000,198.03657989,80687,93.6063,25.73
Moscow_0_1024.map,Moscow_0_1024.map.scen,4,BFS,1.0,498,True,211.0000,197.52691193,55132,62.0941,6.82
Moscow_0_1024.map,Moscow_0_1024.map.scen,4,BFS,1.0,499,True,227.0000,199.46803741,62142,72.5763,13.80
Moscow_0_1024.map,Moscow_0_1024.map.scen,4,BFS,1.0,500,True,264.0000,200.7350647,95772,113.5939,31.52
Moscow_0_1024.map,Moscow_0_1024.map.scen,4,BFS,1.0,501,True,276.0000,203.94826813,109432,121.2838,35.33
Moscow_0_1024.map,Moscow_0_1024.map.scen,4,BFS,1.0,502,True,251.0000,203.55129852,79598,86.2930,23.31
Moscow_0_1024.map,Moscow_0_1024.map.scen,4,BFS,1.0,503,True,280.0000,203.26197662,107809,118.3431,37.75
Moscow_0_1024.map,Moscow_0_1024.map.scen,4,BFS,1.0,504,True,239.0000,202.68124084,72111,75.9800,17.92
Moscow_0_1024.map,Moscow_0_1024.map.scen,4,BFS,1.0,505,True,207.0000,201.72792206,59619,65.9652,2.61
Moscow_0_1024.map,Moscow_0_1024.map.scen,4,BFS,1.0,506,True,234.0000,200.0243866,79637,84.0789,16.99
Moscow_0_1024.map,Moscow_0_1024.map.scen,4,BFS,1.0,507,True,241.0000,201.16652222,68086,69.7815,19.80
Moscow_0_1024.map,Moscow_0_1024.map.scen,4,BFS,1.0,508,True,273.0000,202.70562744,80325,84.1466,34.68
Moscow_0_1024.map,Moscow_0_1024.map.scen,4,BFS,1.0,509,True,241.0000,203.50966797,52695,55.1719,18.42
Moscow_0_1024.map,Moscow_0_1024.map.scen,4,BFS,1.0,510,True,230.0000,204.81118317,83310,85.1491,12.30
Moscow_0_1024.map,Moscow_0_1024.map.scen,4,BFS,1.0,511,True,244.0000,204.75230865,76212,77.8425,19.17
Moscow_0_1024.map,Moscow_0_1024.map.scen,4,BFS,1.0,512,True,263.0000,204.4213562,65105,65.4295,28.66
Moscow_0_1024.map,Moscow_0_1024.map.scen,4,BFS,1.0,513,True,237.0000,204.78174591,81835,81.8808,15.73
Moscow_0_1024.map,Moscow_0_1024.map.scen,4,BFS,1.0,514,True,247.0000,204.82337646,68070,68.7354,20.59
Moscow_0_1024.map,Moscow_0_1024.map.scen,4,BFS,1.0,515,True,231.0000,206.98275604,84202,84.7297,11.60
Moscow_0_1024.map,Moscow_0_1024.map.scen,4,BFS,1.0,516,True,227.0000,204.74011536,62998,65.5678,10.87
Moscow_0_1024.map,Moscow_0_1024.map.scen,4,BFS,1.0,517,True,219.0000,204.35533905,45565,48.1435,7.17
Moscow_0_1024.map,Moscow_0_1024.map.scen,4,BFS,1.0,518,True,255.0000,207.55129852,63096,65.8027,22.86
Moscow_0_1024.map,Moscow_0_1024.map.scen,4,BFS,1.0,519,True,262.0000,207.52186127,71460,78.5253,26.25
Moscow_0_1024.map,Moscow_0_1024.map.scen,4,BFS,1.0,520,True,269.0000,209.83556976,104673,111.5884,28.20
Moscow_0_1024.map,Moscow_0_1024.map.scen,4,BFS,1.0,521,True,259.0000,208.62236633,79942,82.3641,24.15
Moscow_0_1024.map,Moscow_0_1024.map.scen,4,BFS,1.0,522,True,282.0000,211.119841,101355,108.4959,33.57
Moscow_0_1024.map,Moscow_0_1024.map.scen,4,BFS,1.0,523,True,287.0000,209.09040375,95763,102.5328,37.26
Moscow_0_1024.map,Moscow_0_1024.map.scen,4,BFS,1.0,524,True,257.0000,208.96551208,53328,54.5870,22.99
Moscow_0_1024.map,Moscow_0_1024.map.scen,4,BFS,1.0,525,True,257.0000,209.55129852,92389,97.1917,22.64
Moscow_0_1024.map,Moscow_0_1024.map.scen,4,BFS,1.0,526,True,256.0000,209.13708496,54769,56.4619,22.41
Moscow_0_1024.map,Moscow_0_1024.map.scen,4,BFS,1.0,527,True,275.0000,209.97770538,82881,84.0378,30.97
Moscow_0_1024.map,Moscow_0_1024.map.scen,4,BFS,1.0,528,True,253.0000,210.23759003,62704,64.4418,20.34
Moscow_0_1024.map,Moscow_0_1024.map.scen,4,BFS,1.0,529,True,261.0000,211.20815277,82334,84.0151,23.57
Moscow_0_1024.map,Moscow_0_1024.map.scen,4,BFS,1.0,530,True,273.0000,215.59292908,99738,103.1663,26.63
Moscow_0_1024.map,Moscow_0_1024.map.scen,4,BFS,1.0,531,True,271.0000,213.00714264,101627,104.9836,27.23
Moscow_0_1024.map,Moscow_0_1024.map.scen,4,BFS,1.0,532,True,246.0000,212.0243866,83001,83.6481,16.02
Moscow_0_1024.map,Moscow_0_1024.map.scen,4,BFS,1.0,533,True,273.0000,212.07821045,55722,58.5111,28.73
Moscow_0_1024.map,Moscow_0_1024.map.scen,4,BFS,1.0,534,True,289.0000,213.4335495,47329,49.2311,35.41
Moscow_0_1024.map,Moscow_0_1024.map.scen,4,BFS,1.0,535,True,239.0000,214.3969696,50122,52.3172,11.48
Moscow_0_1024.map,Moscow_0_1024.map.scen,4,BFS,1.0,536,True,275.0000,212.90663757,74897,74.0430,29.16
Moscow_0_1024.map,Moscow_0_1024.map.scen,4,BFS,1.0,537,True,256.0000,214.99494934,79130,79.4860,19.07
Moscow_0_1024.map,Moscow_0_1024.map.scen,4,BFS,1.0,538,True,292.0000,212.91883087,71859,71.7374,37.14
Moscow_0_1024.map,Moscow_0_1024.map.scen,4,BFS,1.0,539,True,237.0000,214.74011536,82044,81.9422,10.37
Moscow_0_1024.map,Moscow_0_1024.map.scen,4,BFS,1.0,540,True,268.0000,218.79393921,85608,89.9403,22.49
Moscow_0_1024.map,Moscow_0_1024.map.scen,4,BFS,1.0,541,True,267.0000,217.79393921,72803,72.9192,22.59
Moscow_0_1024.map,Moscow_0_1024.map.scen,4,BFS,1.0,542,True,300.0000,219.16147156,127596,130.7993,36.89
Moscow_0_1024.map,Moscow_0_1024.map.scen,4,BFS,1.0,543,True,237.0000,217.08326111,72742,73.2197,9.17
Moscow_0_1024.map,Moscow_0_1024.map.scen,4,BFS,1.0,544,True,272.0000,216.35028839,96262,100.1234,25.72
Moscow_0_1024.map,Moscow_0_1024.map.scen,4,BFS,1.0,545,True,253.0000,219.61017303,68841,70.4463,15.20
Moscow_0_1024.map,Moscow_0_1024.map.scen,4,BFS,1.0,546,True,270.0000,217.86500702,100773,108.8170,23.93
Moscow_0_1024.map,Moscow_0_1024.map.scen,4,BFS,1.0,547,True,266.0000,219.13708496,95970,100.9378,21.39
Moscow_0_1024.map,Moscow_0_1024.map.scen,4,BFS,1.0,548,True,245.0000,216.88225098,54136,56.3206,12.96
Moscow_0_1024.map,Moscow_0_1024.map.scen,4,BFS,1.0,549,True,307.0000,219.71782074,132398,135.2579,39.72
Moscow_0_1024.map,Moscow_0_1024.map.scen,4,BFS,1.0,550,True,280.0000,222.59292908,92904,98.1207,25.79
Moscow_0_1024.map,Moscow_0_1024.map.scen,4,BFS,1.0,551,True,257.0000,220.09545441,83263,84.0946,16.77
Moscow_0_1024.map,Moscow_0_1024.map.scen,4,BFS,1.0,552,True,272.0000,222.20815277,53334,54.7194,22.41
Moscow_0_1024.map,Moscow_0_1024.map.scen,4,BFS,1.0,553,True,295.0000,221.77669525,105724,132.7015,33.02
Moscow_0_1024.map,Moscow_0_1024.map.scen,4,BFS,1.0,554,True,278.0000,221.17871551,50209,58.7344,25.69
Moscow_0_1024.map,Moscow_0_1024.map.scen,4,BFS,1.0,555,True,264.0000,220.06601715,76264,82.3998,19.96
Moscow_0_1024.map,Moscow_0_1024.map.scen,4,BFS,1.0,556,True,295.0000,221.19090881,34428,34.9004,33.37
Moscow_0_1024.map,Moscow_0_1024.map.scen,4,BFS,1.0,557,True,302.0000,221.16147156,117528,123.2312,36.55
Moscow_0_1024.map,Moscow_0_1024.map.scen,4,BFS,1.0,558,True,270.0000,221.96551208,95017,99.6720,21.64
Moscow_0_1024.map,Moscow_0_1024.map.scen,4,BFS,1.0,559,True,297.0000,223.77669525,91041,104.3741,32.72
Moscow_0_1024.map,Moscow_0_1024.map.scen,4,BFS,1.0,560,True,278.0000,224.1076477,78914,84.0622,24.05
Moscow_0_1024.map,Moscow_0_1024.map.scen,4,BFS,1.0,561,True,247.0000,225.32590179,51320,58.6723,9.62
Moscow_0_1024.map,Moscow_0_1024.map.scen,4,BFS,1.0,562,True,237.0000,226.45584412,66493,74.2447,4.66
Moscow_0_1024.map,Moscow_0_1024.map.scen,4,BFS,1.0,563,True,245.0000,224.49747467,67930,75.1811,9.13
Moscow_0_1024.map,Moscow_0_1024.map.scen,4,BFS,1.0,564,True,262.0000,226.26702728,96695,104.0538,15.79
Moscow_0_1024.map,Moscow_0_1024.map.scen,4,BFS,1.0,565,True,291.0000,224.80613251,47827,50.5612,29.44
Moscow_0_1024.map,Moscow_0_1024.map.scen,4,BFS,1.0,566,True,254.0000,225.29646454,82436,83.9048,12.74
Moscow_0_1024.map,Moscow_0_1024.map.scen,4,BFS,1.0,567,True,275.0000,224.62236633,89967,99.4044,22.43
Moscow_0_1024.map,Moscow_0_1024.map.scen,4,BFS,1.0,568,True,286.0000,226.83556976,65255,73.6827,26.08
Moscow_0_1024.map,Moscow_0_1024.map.scen,4,BFS,1.0,569,True,266.0000,226.16652222,85829,97.3851,17.61
Moscow_0_1024.map,Moscow_0_1024.map.scen,4,BFS,1.0,570,True,313.0000,230.40411224,128651,135.2836,35.85
Moscow_0_1024.map,Moscow_0_1024.map.scen,4,BFS,1.0,571,True,301.0000,229.53405456,58470,62.1804,31.14
Moscow_0_1024.map,Moscow_0_1024.map.scen,4,BFS,1.0,572,True,296.0000,229.22034607,130822,138.6766,29.13
Moscow_0_1024.map,Moscow_0_1024.map.scen,4,BFS,1.0,573,True,312.0000,231.16147156,121336,132.6044,34.97
Moscow_0_1024.map,Moscow_0_1024.map.scen,4,BFS,1.0,574,True,254.0000,228.81118317,63710,70.9673,11.01
Moscow_0_1024.map,Moscow_0_1024.map.scen,4,BFS,1.0,575,True,323.0000,231.03152923,142134,153.5587,39.81
Moscow_0_1024.map,Moscow_0_1024.map.scen,4,BFS,1.0,576,True,275.0000,229.30865784,67234,69.2374,19.93
Moscow_0_1024.map,Moscow_0_1024.map.scen,4,BFS,1.0,577,True,271.0000,228.82337646,57045,58.9511,18.43
Moscow_0_1024.map,Moscow_0_1024.map.scen,4,BFS,1.0,578,True,286.0000,231.52186127,84055,84.2412,23.53
Moscow_0_1024.map,Moscow_0_1024.map.scen,4,BFS,1.0,579,True,292.0000,231.66399689,99893,103.3669,26.04
Moscow_0_1024.map,Moscow_0_1024.map.scen,4,BFS,1.0,580,True,312.0000,233.50461731,124604,128.8364,33.62
Moscow_0_1024.map,Moscow_0_1024.map.scen,4,BFS,1.0,581,True,324.0000,234.37467499,141720,144.7538,38.24
Moscow_0_1024.map,Moscow_0_1024.map.scen,4,BFS,1.0,582,True,289.0000,232.76450195,94155,97.4445,24.16
Moscow_0_1024.map,Moscow_0_1024.map.scen,4,BFS,1.0,583,True,284.0000,232.45079346,131287,134.3818,22.18
Moscow_0_1024.map,Moscow_0_1024.map.scen,4,BFS,1.0,584,True,309.0000,232.26197662,136181,139.5788,33.04
Moscow_0_1024.map,Moscow_0_1024.map.scen,4,BFS,1.0,585,True,309.0000,235.77669525,86613,92.4768,31.06
Moscow_0_1024.map,Moscow_0_1024.map.scen,4,BFS,1.0,586,True,275.0000,232.82337646,92945,111.2957,18.12
Moscow_0_1024.map,Moscow_0_1024.map.scen,4,BFS,1.0,587,True,285.0000,234.03657989,122996,128.4455,21.78
Moscow_0_1024.map,Moscow_0_1024.map.scen,4,BFS,1.0,588,True,262.0000,232.12489166,99296,105.1085,12.87
Moscow_0_1024.map,Moscow_0_1024.map.scen,4,BFS,1.0,589,True,272.0000,232.16652222,105554,141.3853,17.16
Moscow_0_1024.map,Moscow_0_1024.map.scen,4,BFS,1.0,590,True,269.0000,239.7106781,98290,107.8320,12.22
Moscow_0_1024.map,Moscow_0_1024.map.scen,4,BFS,1.0,591,True,257.0000,237.08326111,97480,105.3556,8.40
Moscow_0_1024.map,Moscow_0_1024.map.scen,4,BFS,1.0,592,True,313.0000,236.84776306,130935,185.8768,32.15
