MapName,Scenario,Connectivity,Algorithm,Weight,TaskID,Success,PathLength,OptimalLength,ExpandedNodes,TimeMS,Suboptimality
Moscow_0_512.map,Moscow_0_512.map.scen,8,BFS,1.0,0,True,3.0000,3.41421356,37,0.1338,-12.13
Moscow_0_512.map,Moscow_0_512.map.scen,8,BFS,1.0,1,True,2.0000,2.41421356,12,0.0322,-17.16
Moscow_0_512.map,Moscow_0_512.map.scen,8,BFS,1.0,2,True,2.0000,2.41421356,18,0.0481,-17.16
Moscow_0_512.map,Moscow_0_512.map.scen,8,BFS,1.0,3,True,2.0000,2.82842712,23,0.0722,-29.29
Moscow_0_512.map,Moscow_0_512.map.scen,8,BFS,1.0,4,True,3.0000,3.41421356,32,0.0715,-12.13
Moscow_0_512.map,Moscow_0_512.map.scen,8,BFS,1.0,5,True,1.0000,1.41421356,7,0.0206,-29.29
Moscow_0_512.map,Moscow_0_512.map.scen,8,BFS,1.0,6,True,1.0000,1.0,4,0.0139,0.00
Moscow_0_512.map,Moscow_0_512.map.scen,8,BFS,1.0,7,True,2.0000,2.0,12,0.0277,0.00
Moscow_0_512.map,Moscow_0_512.map.scen,8,BFS,1.0,8,True,1.0000,1.0,4,0.0071,0.00
Moscow_0_512.map,Moscow_0_512.map.scen,8,BFS,1.0,9,True,3.0000,3.0,41,0.0976,0.00
Moscow_0_512.map,Moscow_0_512.map.scen,8,BFS,1.0,10,True,6.0000,6.41421356,157,0.4161,-6.46
Moscow_0_512.map,Moscow_0_512.map.scen,8,BFS,1.0,11,True,4.0000,4.0,50,0.1376,0.00
Moscow_0_512.map,Moscow_0_512.map.scen,8,BFS,1.0,12,True,4.0000,4.0,64,0.1451,0.00
Moscow_0_512.map,Moscow_0_512.map.scen,8,BFS,1.0,13,True,6.0000,6.41421356,124,0.3060,-6.46
Moscow_0_512.map,Moscow_0_512.map.scen,8,BFS,1.0,14,True,5.0000,6.65685425,87,0.1873,-24.89
Moscow_0_512.map,Moscow_0_512.map.scen,8,BFS,1.0,15,True,7.0000,7.0,196,0.5544,0.00
Moscow_0_512.map,Moscow_0_512.map.scen,8,BFS,1.0,16,True,7.0000,7.41421356,159,0.3962,-5.59
Moscow_0_512.map,Moscow_0_512.map.scen,8,BFS,1.0,17,True,5.0000,5.41421356,101,0.2530,-7.65
Moscow_0_512.map,Moscow_0_512.map.scen,8,BFS,1.0,18,True,5.0000,5.41421356,48,0.1071,-7.65
Moscow_0_512.map,Moscow_0_512.map.scen,8,BFS,1.0,19,True,5.0000,6.24264069,56,0.1203,-19.91
Moscow_0_512.map,Moscow_0_512.map.scen,8,BFS,1.0,20,True,6.0000,8.07106781,121,0.2852,-25.66
Moscow_0_512.map,Moscow_0_512.map.scen,8,BFS,1.0,21,True,10.0000,10.41421356,401,0.8809,-3.98
Moscow_0_512.map,Moscow_0_512.map.scen,8,BFS,1.0,22,True,8.0000,10.89949493,240,0.6539,-26.60
Moscow_0_512.map,Moscow_0_512.map.scen,8,BFS,1.0,23,True,11.0000,11.41421356,381,0.9130,-3.63
Moscow_0_512.map,Moscow_0_512.map.scen,8,BFS,1.0,24,True,10.0000,10.0,419,0.9307,0.00
Moscow_0_512.map,Moscow_0_512.map.scen,8,BFS,1.0,25,True,10.0000,10.41421356,382,0.8397,-3.98
Moscow_0_512.map,Moscow_0_512.map.scen,8,BFS,1.0,26,True,8.0000,10.89949493,270,0.6587,-26.60
Moscow_0_512.map,Moscow_0_512.map.scen,8,BFS,1.0,27,True,8.0000,11.3137085,287,0.6782,-29.29
Moscow_0_512.map,Moscow_0_512.map.scen,8,BFS,1.0,28,True,8.0000,9.65685425,145,0.3455,-17.16
Moscow_0_512.map,Moscow_0_512.map.scen,8,BFS,1.0,29,True,9.0000,11.89949493,338,0.8236,-24.37
Moscow_0_512.map,Moscow_0_512.map.scen,8,BFS,1.0,30,True,11.0000,14.72792206,455,0.9995,-25.31
Moscow_0_512.map,Moscow_0_512.map.scen,8,BFS,1.0,31,True,15.0000,15.82842712,904,1.8370,-5.23
Moscow_0_512.map,Moscow_0_512.map.scen,8,BFS,1.0,32,True,12.0000,15.3137085,567,1.1778,-21.64
Moscow_0_512.map,Moscow_0_512.map.scen,8,BFS,1.0,33,True,12.0000,13.24264069,535,1.1378,-9.38
Moscow_0_512.map,Moscow_0_512.map.scen,8,BFS,1.0,34,True,13.0000,15.89949493,639,1.3171,-18.24
Moscow_0_512.map,Moscow_0_512.map.scen,8,BFS,1.0,35,True,12.0000,14.89949493,514,1.1252,-19.46
Moscow_0_512.map,Moscow_0_512.map.scen,8,BFS,1.0,36,True,12.0000,14.89949493,566,1.2884,-19.46
Moscow_0_512.map,Moscow_0_512.map.scen,8,BFS,1.0,37,True,11.0000,15.14213562,292,0.6525,-27.36
Moscow_0_512.map,Moscow_0_512.map.scen,8,BFS,1.0,38,True,12.0000,15.3137085,569,1.2605,-21.64
Moscow_0_512.map,Moscow_0_512.map.scen,8,BFS,1.0,39,True,13.0000,13.82842712,541,1.1183,-5.99
Moscow_0_512.map,Moscow_0_512.map.scen,8,BFS,1.0,40,True,15.0000,19.55634918,682,2.0072,-23.30
Moscow_0_512.map,Moscow_0_512.map.scen,8,BFS,1.0,41,True,15.0000,16.65685425,906,1.9161,-9.95
Moscow_0_512.map,Moscow_0_512.map.scen,8,BFS,1.0,42,True,18.0000,19.65685425,811,1.6674,-8.43
Moscow_0_512.map,Moscow_0_512.map.scen,8,BFS,1.0,43,True,15.0000,17.07106781,897,1.9495,-12.13
Moscow_0_512.map,Moscow_0_512.map.scen,8,BFS,1.0,44,True,17.0000,19.48528137,1077,2.2948,-12.75
Moscow_0_512.map,Moscow_0_512.map.scen,8,BFS,1.0,45,True,14.0000,17.3137085,764,1.6071,-19.14
Moscow_0_512.map,Moscow_0_512.map.scen,8,BFS,1.0,46,True,16.0000,19.72792206,1027,2.0915,-18.90
Moscow_0_512.map,Moscow_0_512.map.scen,8,BFS,1.0,47,True,14.0000,18.55634918,822,1.6424,-24.55
Moscow_0_512.map,Moscow_0_512.map.scen,8,BFS,1.0,48,True,18.0000,18.0,1331,3.2037,0.00
Moscow_0_512.map,Moscow_0_512.map.scen,8,BFS,1.0,49,True,14.0000,17.72792206,404,0.8661,-21.03
Moscow_0_512.map,Moscow_0_512.map.scen,8,BFS,1.0,50,True,16.0000,21.38477631,917,1.8716,-25.18
Moscow_0_512.map,Moscow_0_512.map.scen,8,BFS,1.0,51,True,18.0000,20.89949493,727,1.4139,-13.87
Moscow_0_512.map,Moscow_0_512.map.scen,8,BFS,1.0,52,True,22.0000,23.24264069,1444,2.8110,-5.35
Moscow_0_512.map,Moscow_0_512.map.scen,8,BFS,1.0,53,True,18.0000,22.97056274,1075,2.1731,-21.64
Moscow_0_512.map,Moscow_0_512.map.scen,8,BFS,1.0,54,True,19.0000,23.97056274,693,1.3209,-20.74
Moscow_0_512.map,Moscow_0_512.map.scen,8,BFS,1.0,55,True,18.0000,20.48528137,1297,2.5321,-12.13
Moscow_0_512.map,Moscow_0_512.map.scen,8,BFS,1.0,56,True,17.0000,22.38477631,1116,2.1774,-24.06
Moscow_0_512.map,Moscow_0_512.map.scen,8,BFS,1.0,57,True,21.0000,23.89949493,1734,3.2423,-12.13
Moscow_0_512.map,Moscow_0_512.map.scen,8,BFS,1.0,58,True,22.0000,23.65685425,1654,3.0994,-7.00
Moscow_0_512.map,Moscow_0_512.map.scen,8,BFS,1.0,59,True,19.0000,22.3137085,1379,2.6153,-14.85
Moscow_0_512.map,Moscow_0_512.map.scen,8,BFS,1.0,60,True,26.0000,26.41421356,2512,4.7261,-1.57
Moscow_0_512.map,Moscow_0_512.map.scen,8,BFS,1.0,61,True,21.0000,25.55634918,1683,3.2223,-17.83
Moscow_0_512.map,Moscow_0_512.map.scen,8,BFS,1.0,62,True,26.0000,27.65685425,889,1.7351,-5.99
Moscow_0_512.map,Moscow_0_512.map.scen,8,BFS,1.0,63,True,20.0000,25.38477631,1466,2.7758,-21.21
Moscow_0_512.map,Moscow_0_512.map.scen,8,BFS,1.0,64,True,18.0000,24.21320343,1026,2.0355,-25.66
Moscow_0_512.map,Moscow_0_512.map.scen,8,BFS,1.0,65,True,19.0000,25.21320343,1177,2.2696,-24.64
Moscow_0_512.map,Moscow_0_512.map.scen,8,BFS,1.0,66,True,24.0000,26.48528137,2207,4.1062,-9.38
Moscow_0_512.map,Moscow_0_512.map.scen,8,BFS,1.0,67,True,26.0000,26.41421356,1632,3.0049,-1.57
Moscow_0_512.map,Moscow_0_512.map.scen,8,BFS,1.0,68,True,22.0000,26.14213562,934,1.7320,-15.84
Moscow_0_512.map,Moscow_0_512.map.scen,8,BFS,1.0,69,True,20.0000,25.38477631,571,1.0837,-21.21
Moscow_0_512.map,Moscow_0_512.map.scen,8,BFS,1.0,70,True,28.0000,28.41421356,1763,3.3053,-1.46
Moscow_0_512.map,Moscow_0_512.map.scen,8,BFS,1.0,71,True,21.0000,29.28427124,1844,3.7427,-28.29
Moscow_0_512.map,Moscow_0_512.map.scen,8,BFS,1.0,72,True,24.0000,28.14213562,1367,2.6198,-14.72
Moscow_0_512.map,Moscow_0_512.map.scen,8,BFS,1.0,73,True,23.0000,28.38477631,2129,3.9979,-18.97
Moscow_0_512.map,Moscow_0_512.map.scen,8,BFS,1.0,74,True,29.0000,31.48528137,2666,4.8178,-7.89
Moscow_0_512.map,Moscow_0_512.map.scen,8,BFS,1.0,75,True,21.0000,28.45584412,1832,3.3750,-26.20
Moscow_0_512.map,Moscow_0_512.map.scen,8,BFS,1.0,76,True,27.0000,30.3137085,2585,4.7730,-10.93
Moscow_0_512.map,Moscow_0_512.map.scen,8,BFS,1.0,77,True,22.0000,30.28427124,1089,1.9920,-27.36
Moscow_0_512.map,Moscow_0_512.map.scen,8,BFS,1.0,78,True,31.0000,31.82842712,3725,6.6223,-2.60
Moscow_0_512.map,Moscow_0_512.map.scen,8,BFS,1.0,79,True,26.0000,31.79898987,1585,2.9155,-18.24
Moscow_0_512.map,Moscow_0_512.map.scen,8,BFS,1.0,80,True,33.0000,33.41421356,3448,6.1209,-1.24
Moscow_0_512.map,Moscow_0_512.map.scen,8,BFS,1.0,81,True,25.0000,32.04163055,1394,2.7100,-21.98
Moscow_0_512.map,Moscow_0_512.map.scen,8,BFS,1.0,82,True,27.0000,32.38477631,2122,3.8374,-16.63
Moscow_0_512.map,Moscow_0_512.map.scen,8,BFS,1.0,83,True,35.0000,35.82842712,2352,4.3732,-2.31
Moscow_0_512.map,Moscow_0_512.map.scen,8,BFS,1.0,84,True,35.0000,35.41421356,3701,6.4976,-1.17
Moscow_0_512.map,Moscow_0_512.map.scen,8,BFS,1.0,85,True,30.0000,32.07106781,2754,4.9759,-6.46
Moscow_0_512.map,Moscow_0_512.map.scen,8,BFS,1.0,86,True,32.0000,35.72792206,3247,5.8441,-10.43
Moscow_0_512.map,Moscow_0_512.map.scen,8,BFS,1.0,87,True,27.0000,32.38477631,2330,4.2393,-16.63
Moscow_0_512.map,Moscow_0_512.map.scen,8,BFS,1.0,88,True,24.0000,32.6984848,1878,3.4700,-26.60
Moscow_0_512.map,Moscow_0_512.map.scen,8,BFS,1.0,89,True,29.0000,33.97056274,3274,5.8865,-14.63
Moscow_0_512.map,Moscow_0_512.map.scen,8,BFS,1.0,90,True,27.0000,36.52691193,2920,5.2414,-26.08
Moscow_0_512.map,Moscow_0_512.map.scen,8,BFS,1.0,91,True,28.0000,39.59797974,2543,4.6007,-29.29
Moscow_0_512.map,Moscow_0_512.map.scen,8,BFS,1.0,92,True,33.0000,36.3137085,2611,4.7936,-9.13
Moscow_0_512.map,Moscow_0_512.map.scen,8,BFS,1.0,93,True,29.0000,39.35533905,2715,4.9637,-26.31
Moscow_0_512.map,Moscow_0_512.map.scen,8,BFS,1.0,94,True,32.0000,37.79898987,2265,4.1292,-15.34
Moscow_0_512.map,Moscow_0_512.map.scen,8,BFS,1.0,95,True,29.0000,38.11269836,2591,4.7364,-23.91
Moscow_0_512.map,Moscow_0_512.map.scen,8,BFS,1.0,96,True,30.0000,39.94112549,3362,6.0436,-24.89
Moscow_0_512.map,Moscow_0_512.map.scen,8,BFS,1.0,97,True,38.0000,38.82842712,4060,7.2258,-2.13
Moscow_0_512.map,Moscow_0_512.map.scen,8,BFS,1.0,98,True,34.0000,39.79898987,1769,3.3373,-14.57
Moscow_0_512.map,Moscow_0_512.map.scen,8,BFS,1.0,99,True,32.0000,36.55634918,1276,2.3436,-12.46
Moscow_0_512.map,Moscow_0_512.map.scen,8,BFS,1.0,100,True,34.0000,43.11269836,2953,5.2550,-21.14
Moscow_0_512.map,Moscow_0_512.map.scen,8,BFS,1.0,101,True,31.0000,40.94112549,3399,6.1868,-24.28
Moscow_0_512.map,Moscow_0_512.map.scen,8,BFS,1.0,102,True,41.0000,43.89949493,4103,7.0529,-6.60
Moscow_0_512.map,Moscow_0_512.map.scen,8,BFS,1.0,103,True,30.0000,42.0121933,2731,4.9145,-28.59
Moscow_0_512.map,Moscow_0_512.map.scen,8,BFS,1.0,104,True,40.0000,43.3137085,4572,7.9662,-7.65
Moscow_0_512.map,Moscow_0_512.map.scen,8,BFS,1.0,105,True,32.0000,42.35533905,3565,6.5240,-24.45
Moscow_0_512.map,Moscow_0_512.map.scen,8,BFS,1.0,106,True,32.0000,42.76955261,2265,4.4578,-25.18
Moscow_0_512.map,Moscow_0_512.map.scen,8,BFS,1.0,107,True,31.0000,43.0121933,3548,6.4902,-27.93
Moscow_0_512.map,Moscow_0_512.map.scen,8,BFS,1.0,108,True,31.0000,43.0121933,3522,6.3007,-27.93
Moscow_0_512.map,Moscow_0_512.map.scen,8,BFS,1.0,109,True,35.0000,41.62741699,3857,6.9444,-15.92
Moscow_0_512.map,Moscow_0_512.map.scen,8,BFS,1.0,110,True,36.0000,46.76955261,3430,6.3837,-23.03
Moscow_0_512.map,Moscow_0_512.map.scen,8,BFS,1.0,111,True,36.0000,45.11269836,3137,5.6968,-20.20
Moscow_0_512.map,Moscow_0_512.map.scen,8,BFS,1.0,112,True,40.0000,44.97056274,5174,9.5912,-11.05
Moscow_0_512.map,Moscow_0_512.map.scen,8,BFS,1.0,113,True,41.0000,46.38477631,4743,8.3533,-11.61
Moscow_0_512.map,Moscow_0_512.map.scen,8,BFS,1.0,114,True,37.0000,47.76955261,4426,7.8762,-22.54
Moscow_0_512.map,Moscow_0_512.map.scen,8,BFS,1.0,115,True,41.0000,46.38477631,1818,3.1872,-11.61
Moscow_0_512.map,Moscow_0_512.map.scen,8,BFS,1.0,116,True,46.0000,46.0,6750,12.2010,0.00
Moscow_0_512.map,Moscow_0_512.map.scen,8,BFS,1.0,117,True,39.0000,47.28427124,3033,5.3726,-17.52
Moscow_0_512.map,Moscow_0_512.map.scen,8,BFS,1.0,118,True,37.0000,46.52691193,3380,5.8726,-20.48
Moscow_0_512.map,Moscow_0_512.map.scen,8,BFS,1.0,119,True,45.0000,45.82842712,7603,13.3040,-1.81
Moscow_0_512.map,Moscow_0_512.map.scen,8,BFS,1.0,120,True,48.0000,50.48528137,4075,7.0432,-4.92
Moscow_0_512.map,Moscow_0_512.map.scen,8,BFS,1.0,121,True,48.0000,49.65685425,8537,15.3086,-3.34
Moscow_0_512.map,Moscow_0_512.map.scen,8,BFS,1.0,122,True,43.0000,49.21320343,6383,11.4281,-12.63
Moscow_0_512.map,Moscow_0_512.map.scen,8,BFS,1.0,123,True,47.0000,50.3137085,7593,13.6230,-6.59
Moscow_0_512.map,Moscow_0_512.map.scen,8,BFS,1.0,124,True,38.0000,48.76955261,4405,7.7919,-22.08
Moscow_0_512.map,Moscow_0_512.map.scen,8,BFS,1.0,125,True,42.0000,51.52691193,3025,5.3562,-18.49
Moscow_0_512.map,Moscow_0_512.map.scen,8,BFS,1.0,126,True,41.0000,51.76955261,4991,8.7819,-20.80
Moscow_0_512.map,Moscow_0_512.map.scen,8,BFS,1.0,127,True,47.0000,51.97056274,7125,12.4474,-9.56
Moscow_0_512.map,Moscow_0_512.map.scen,8,BFS,1.0,128,True,38.0000,50.42640686,2910,5.1485,-24.64
Moscow_0_512.map,Moscow_0_512.map.scen,8,BFS,1.0,129,True,40.0000,48.6984848,3319,5.8650,-17.86
Moscow_0_512.map,Moscow_0_512.map.scen,8,BFS,1.0,130,True,40.0000,55.74011536,6054,10.7664,-28.24
Moscow_0_512.map,Moscow_0_512.map.scen,8,BFS,1.0,131,True,47.0000,54.45584412,7332,13.1111,-13.69
Moscow_0_512.map,Moscow_0_512.map.scen,8,BFS,1.0,132,True,41.0000,54.66904755,5852,10.5995,-25.00
Moscow_0_512.map,Moscow_0_512.map.scen,8,BFS,1.0,133,True,41.0000,52.18376617,3557,6.1747,-21.43
Moscow_0_512.map,Moscow_0_512.map.scen,8,BFS,1.0,134,True,41.0000,54.25483398,5152,9.3117,-24.43
Moscow_0_512.map,Moscow_0_512.map.scen,8,BFS,1.0,135,True,49.0000,53.55634918,6165,10.8678,-8.51
Moscow_0_512.map,Moscow_0_512.map.scen,8,BFS,1.0,136,True,51.0000,55.97056274,6085,10.7574,-8.88
Moscow_0_512.map,Moscow_0_512.map.scen,8,BFS,1.0,137,True,51.0000,53.48528137,8265,15.1376,-4.65
Moscow_0_512.map,Moscow_0_512.map.scen,8,BFS,1.0,138,True,38.0000,52.08326111,4361,8.4442,-27.04
Moscow_0_512.map,Moscow_0_512.map.scen,8,BFS,1.0,139,True,47.0000,53.62741699,6785,12.2039,-12.36
Moscow_0_512.map,Moscow_0_512.map.scen,8,BFS,1.0,140,True,55.0000,56.24264069,7394,13.2551,-2.21
Moscow_0_512.map,Moscow_0_512.map.scen,8,BFS,1.0,141,True,45.0000,57.42640686,5457,9.9168,-21.64
Moscow_0_512.map,Moscow_0_512.map.scen,8,BFS,1.0,142,True,42.0000,56.08326111,4436,7.8624,-25.11
Moscow_0_512.map,Moscow_0_512.map.scen,8,BFS,1.0,143,True,50.0000,58.28427124,8787,15.4921,-14.21
Moscow_0_512.map,Moscow_0_512.map.scen,8,BFS,1.0,144,True,54.0000,59.38477631,7709,14.1346,-9.07
Moscow_0_512.map,Moscow_0_512.map.scen,8,BFS,1.0,145,True,48.0000,57.52691193,2994,5.5827,-16.56
Moscow_0_512.map,Moscow_0_512.map.scen,8,BFS,1.0,146,True,48.0000,57.94112549,8178,14.6806,-17.16
Moscow_0_512.map,Moscow_0_512.map.scen,8,BFS,1.0,147,True,52.0000,59.04163055,6468,11.6150,-11.93
Moscow_0_512.map,Moscow_0_512.map.scen,8,BFS,1.0,148,True,54.0000,57.72792206,8780,15.5564,-6.46
Moscow_0_512.map,Moscow_0_512.map.scen,8,BFS,1.0,149,True,54.0000,59.79898987,7070,12.7257,-9.70
Moscow_0_512.map,Moscow_0_512.map.scen,8,BFS,1.0,150,True,54.0000,63.94112549,9471,16.5553,-15.55
Moscow_0_512.map,Moscow_0_512.map.scen,8,BFS,1.0,151,True,45.0000,61.56854248,6737,12.0809,-26.91
Moscow_0_512.map,Moscow_0_512.map.scen,8,BFS,1.0,152,True,48.0000,60.42640686,6444,11.5405,-20.56
Moscow_0_512.map,Moscow_0_512.map.scen,8,BFS,1.0,153,True,56.0000,63.87005768,7901,14.1012,-12.32
Moscow_0_512.map,Moscow_0_512.map.scen,8,BFS,1.0,154,True,54.0000,61.04163055,8724,15.2998,-11.54
Moscow_0_512.map,Moscow_0_512.map.scen,8,BFS,1.0,155,True,48.0000,60.0121933,7500,13.0825,-20.02
Moscow_0_512.map,Moscow_0_512.map.scen,8,BFS,1.0,156,True,54.0000,61.45584412,9720,16.7596,-12.13
Moscow_0_512.map,Moscow_0_512.map.scen,8,BFS,1.0,157,True,60.0000,62.07106781,8626,14.8562,-3.34
Moscow_0_512.map,Moscow_0_512.map.scen,8,BFS,1.0,158,True,56.0000,60.14213562,7440,13.0206,-6.89
Moscow_0_512.map,Moscow_0_512.map.scen,8,BFS,1.0,159,True,50.0000,60.35533905,7673,13.2886,-17.16
Moscow_0_512.map,Moscow_0_512.map.scen,8,BFS,1.0,160,True,63.0000,65.07106781,9127,15.9008,-3.18
Moscow_0_512.map,Moscow_0_512.map.scen,8,BFS,1.0,161,True,52.0000,67.32590179,8555,14.8834,-22.76
Moscow_0_512.map,Moscow_0_512.map.scen,8,BFS,1.0,162,True,47.0000,66.05382385,6641,11.8953,-28.85
Moscow_0_512.map,Moscow_0_512.map.scen,8,BFS,1.0,163,True,63.0000,64.24264069,11118,19.9407,-1.93
Moscow_0_512.map,Moscow_0_512.map.scen,8,BFS,1.0,164,True,51.0000,64.25483398,6700,11.6309,-20.63
Moscow_0_512.map,Moscow_0_512.map.scen,8,BFS,1.0,165,True,47.0000,65.63961029,4191,7.3931,-28.40
Moscow_0_512.map,Moscow_0_512.map.scen,8,BFS,1.0,166,True,62.0000,66.97056274,10442,18.6729,-7.42
Moscow_0_512.map,Moscow_0_512.map.scen,8,BFS,1.0,167,True,64.0000,67.72792206,12181,21.2794,-5.50
Moscow_0_512.map,Moscow_0_512.map.scen,8,BFS,1.0,168,True,58.0000,66.6984848,8586,15.0161,-13.04
Moscow_0_512.map,Moscow_0_512.map.scen,8,BFS,1.0,169,True,63.0000,67.97056274,6322,11.0407,-7.31
Moscow_0_512.map,Moscow_0_512.map.scen,8,BFS,1.0,170,True,54.0000,71.81118317,9317,16.2422,-24.80
Moscow_0_512.map,Moscow_0_512.map.scen,8,BFS,1.0,171,True,63.0000,71.28427124,13210,23.2584,-11.62
Moscow_0_512.map,Moscow_0_512.map.scen,8,BFS,1.0,172,True,69.0000,71.07106781,14198,26.2114,-2.91
Moscow_0_512.map,Moscow_0_512.map.scen,8,BFS,1.0,173,True,59.0000,70.59797974,7380,13.2952,-16.43
Moscow_0_512.map,Moscow_0_512.map.scen,8,BFS,1.0,174,True,59.0000,69.76955261,8713,15.2608,-15.44
Moscow_0_512.map,Moscow_0_512.map.scen,8,BFS,1.0,175,True,65.0000,68.3137085,12331,21.7736,-4.85
Moscow_0_512.map,Moscow_0_512.map.scen,8,BFS,1.0,176,True,62.0000,71.94112549,9361,16.4869,-13.82
Moscow_0_512.map,Moscow_0_512.map.scen,8,BFS,1.0,177,True,56.0000,70.08326111,2255,4.1387,-20.10
Moscow_0_512.map,Moscow_0_512.map.scen,8,BFS,1.0,178,True,64.0000,68.97056274,9030,16.1823,-7.21
Moscow_0_512.map,Moscow_0_512.map.scen,8,BFS,1.0,179,True,54.0000,70.56854248,8134,14.3048,-23.48
Moscow_0_512.map,Moscow_0_512.map.scen,8,BFS,1.0,180,True,68.0000,75.45584412,10736,20.0745,-9.88
Moscow_0_512.map,Moscow_0_512.map.scen,8,BFS,1.0,181,True,66.0000,74.28427124,13520,24.8259,-11.15
Moscow_0_512.map,Moscow_0_512.map.scen,8,BFS,1.0,182,True,64.0000,75.18376617,9008,15.8078,-14.88
Moscow_0_512.map,Moscow_0_512.map.scen,8,BFS,1.0,183,True,60.0000,74.08326111,4983,8.9111,-19.01
Moscow_0_512.map,Moscow_0_512.map.scen,8,BFS,1.0,184,True,61.0000,74.66904755,7365,13.2910,-18.31
Moscow_0_512.map,Moscow_0_512.map.scen,8,BFS,1.0,185,True,65.0000,75.76955261,6512,11.5330,-14.21
Moscow_0_512.map,Moscow_0_512.map.scen,8,BFS,1.0,186,True,65.0000,75.35533905,12680,23.5757,-13.74
Moscow_0_512.map,Moscow_0_512.map.scen,8,BFS,1.0,187,True,70.0000,75.38477631,11000,20.3813,-7.14
Moscow_0_512.map,Moscow_0_512.map.scen,8,BFS,1.0,188,True,67.0000,72.79898987,8812,15.6138,-7.97
Moscow_0_512.map,Moscow_0_512.map.scen,8,BFS,1.0,189,True,67.0000,74.45584412,6357,11.1843,-10.01
Moscow_0_512.map,Moscow_0_512.map.scen,8,BFS,1.0,190,True,62.0000,77.74011536,12940,23.9983,-20.25
Moscow_0_512.map,Moscow_0_512.map.scen,8,BFS,1.0,191,True,57.0000,76.05382385,10145,19.8665,-25.05
Moscow_0_512.map,Moscow_0_512.map.scen,8,BFS,1.0,192,True,75.0000,79.97056274,16294,29.5131,-6.22
Moscow_0_512.map,Moscow_0_512.map.scen,8,BFS,1.0,193,True,69.0000,77.6984848,12957,22.9952,-11.20
Moscow_0_512.map,Moscow_0_512.map.scen,8,BFS,1.0,194,True,78.0000,78.41421356,7207,12.4781,-0.53
Moscow_0_512.map,Moscow_0_512.map.scen,8,BFS,1.0,195,True,67.0000,79.42640686,7800,13.7317,-15.65
Moscow_0_512.map,Moscow_0_512.map.scen,8,BFS,1.0,196,True,75.0000,76.24264069,6818,13.5166,-1.63
Moscow_0_512.map,Moscow_0_512.map.scen,8,BFS,1.0,197,True,68.0000,78.76955261,11808,21.2345,-13.67
Moscow_0_512.map,Moscow_0_512.map.scen,8,BFS,1.0,198,True,70.0000,79.11269836,12939,23.2053,-11.52
Moscow_0_512.map,Moscow_0_512.map.scen,8,BFS,1.0,199,True,60.0000,78.63961029,8668,15.4914,-23.70
Moscow_0_512.map,Moscow_0_512.map.scen,8,BFS,1.0,200,True,79.0000,80.24264069,18305,32.1691,-1.55
Moscow_0_512.map,Moscow_0_512.map.scen,8,BFS,1.0,201,True,66.0000,82.15432892,11408,20.6823,-19.66
Moscow_0_512.map,Moscow_0_512.map.scen,8,BFS,1.0,202,True,77.0000,81.14213562,16924,30.2826,-5.10
Moscow_0_512.map,Moscow_0_512.map.scen,8,BFS,1.0,203,True,61.0000,83.36753235,10528,19.5172,-26.83
Moscow_0_512.map,Moscow_0_512.map.scen,8,BFS,1.0,204,True,80.0000,83.72792206,11559,20.3598,-4.45
Moscow_0_512.map,Moscow_0_512.map.scen,8,BFS,1.0,205,True,69.0000,83.49747467,12391,22.9745,-17.36
Moscow_0_512.map,Moscow_0_512.map.scen,8,BFS,1.0,206,True,83.0000,83.41421356,11604,20.6718,-0.50
Moscow_0_512.map,Moscow_0_512.map.scen,8,BFS,1.0,207,True,73.0000,83.35533905,14498,26.3577,-12.42
Moscow_0_512.map,Moscow_0_512.map.scen,8,BFS,1.0,208,True,81.0000,83.07106781,19436,38.1122,-2.49
Moscow_0_512.map,Moscow_0_512.map.scen,8,BFS,1.0,209,True,74.0000,80.62741699,10216,18.3275,-8.22
Moscow_0_512.map,Moscow_0_512.map.scen,8,BFS,1.0,210,True,72.0000,84.0121933,14295,25.4102,-14.30
Moscow_0_512.map,Moscow_0_512.map.scen,8,BFS,1.0,211,True,67.0000,85.22539673,13332,24.4964,-21.38
Moscow_0_512.map,Moscow_0_512.map.scen,8,BFS,1.0,212,True,69.0000,85.15432892,10511,19.1218,-18.97
Moscow_0_512.map,Moscow_0_512.map.scen,8,BFS,1.0,213,True,64.0000,85.12489166,6905,12.0469,-24.82
Moscow_0_512.map,Moscow_0_512.map.scen,8,BFS,1.0,214,True,68.0000,86.22539673,6687,11.7621,-21.14
Moscow_0_512.map,Moscow_0_512.map.scen,8,BFS,1.0,215,True,69.0000,85.15432892,13006,22.7079,-18.97
Moscow_0_512.map,Moscow_0_512.map.scen,8,BFS,1.0,216,True,70.0000,86.56854248,16534,28.3200,-19.14
Moscow_0_512.map,Moscow_0_512.map.scen,8,BFS,1.0,217,True,65.0000,87.78174591,13496,23.3552,-25.95
Moscow_0_512.map,Moscow_0_512.map.scen,8,BFS,1.0,218,True,67.0000,85.22539673,13476,23.2561,-21.38
Moscow_0_512.map,Moscow_0_512.map.scen,8,BFS,1.0,219,True,72.0000,86.91168823,14268,25.0013,-17.16
Moscow_0_512.map,Moscow_0_512.map.scen,8,BFS,1.0,220,True,65.0000,90.26702728,8938,15.2006,-27.99
Moscow_0_512.map,Moscow_0_512.map.scen,8,BFS,1.0,221,True,79.0000,88.52691193,18137,32.3271,-10.76
Moscow_0_512.map,Moscow_0_512.map.scen,8,BFS,1.0,222,True,74.0000,91.81118317,11287,19.8752,-19.40
Moscow_0_512.map,Moscow_0_512.map.scen,8,BFS,1.0,223,True,74.0000,89.32590179,16573,28.8273,-17.16
Moscow_0_512.map,Moscow_0_512.map.scen,8,BFS,1.0,224,True,87.0000,91.55634918,14662,25.0507,-4.98
Moscow_0_512.map,Moscow_0_512.map.scen,8,BFS,1.0,225,True,67.0000,90.61017303,10913,19.8262,-26.06
Moscow_0_512.map,Moscow_0_512.map.scen,8,BFS,1.0,226,True,84.0000,90.21320343,15608,28.6498,-6.89
Moscow_0_512.map,Moscow_0_512.map.scen,8,BFS,1.0,227,True,83.0000,91.28427124,17736,31.4560,-9.08
Moscow_0_512.map,Moscow_0_512.map.scen,8,BFS,1.0,228,True,73.0000,91.63961029,16606,31.9070,-20.34
Moscow_0_512.map,Moscow_0_512.map.scen,8,BFS,1.0,229,True,72.0000,91.05382385,13492,24.9704,-20.93
Moscow_0_512.map,Moscow_0_512.map.scen,8,BFS,1.0,230,True,82.0000,93.18376617,11422,21.4762,-12.00
Moscow_0_512.map,Moscow_0_512.map.scen,8,BFS,1.0,231,True,75.0000,94.88225098,17823,32.0663,-20.95
Moscow_0_512.map,Moscow_0_512.map.scen,8,BFS,1.0,232,True,71.0000,94.19595947,13554,25.2253,-24.63
Moscow_0_512.map,Moscow_0_512.map.scen,8,BFS,1.0,233,True,79.0000,95.15432892,20670,38.8182,-16.98
Moscow_0_512.map,Moscow_0_512.map.scen,8,BFS,1.0,234,True,72.0000,93.12489166,10688,19.0692,-22.68
Moscow_0_512.map,Moscow_0_512.map.scen,8,BFS,1.0,235,True,82.0000,94.42640686,12957,22.6579,-13.16
Moscow_0_512.map,Moscow_0_512.map.scen,8,BFS,1.0,236,True,73.0000,94.12489166,13930,24.5650,-22.44
Moscow_0_512.map,Moscow_0_512.map.scen,8,BFS,1.0,237,True,68.0000,94.50966797,9881,17.6191,-28.05
Moscow_0_512.map,Moscow_0_512.map.scen,8,BFS,1.0,238,True,80.0000,93.66904755,18674,33.4565,-14.59
Moscow_0_512.map,Moscow_0_512.map.scen,8,BFS,1.0,239,True,84.0000,93.94112549,19648,39.3849,-10.58
Moscow_0_512.map,Moscow_0_512.map.scen,8,BFS,1.0,240,True,83.0000,99.98275604,19438,35.3056,-16.99
Moscow_0_512.map,Moscow_0_512.map.scen,8,BFS,1.0,241,True,81.0000,98.3969696,13753,24.7883,-17.68
Moscow_0_512.map,Moscow_0_512.map.scen,8,BFS,1.0,242,True,81.0000,99.22539673,20173,37.6924,-18.37
Moscow_0_512.map,Moscow_0_512.map.scen,8,BFS,1.0,243,True,79.0000,97.22539673,15424,27.1601,-18.75
Moscow_0_512.map,Moscow_0_512.map.scen,8,BFS,1.0,244,True,85.0000,97.0121933,7970,14.2693,-12.38
Moscow_0_512.map,Moscow_0_512.map.scen,8,BFS,1.0,245,True,84.0000,98.49747467,15622,29.1835,-14.72
Moscow_0_512.map,Moscow_0_512.map.scen,8,BFS,1.0,246,True,77.0000,99.78174591,10711,19.6624,-22.83
Moscow_0_512.map,Moscow_0_512.map.scen,8,BFS,1.0,247,True,89.0000,97.28427124,15812,27.3216,-8.52
Moscow_0_512.map,Moscow_0_512.map.scen,8,BFS,1.0,248,True,73.0000,98.68124084,10934,19.5720,-26.02
Moscow_0_512.map,Moscow_0_512.map.scen,8,BFS,1.0,249,True,85.0000,99.91168823,11535,20.5399,-14.92
Moscow_0_512.map,Moscow_0_512.map.scen,8,BFS,1.0,250,True,73.0000,102.82337646,18181,32.6993,-29.00
Moscow_0_512.map,Moscow_0_512.map.scen,8,BFS,1.0,251,True,85.0000,100.74011536,20130,37.9399,-15.62
Moscow_0_512.map,Moscow_0_512.map.scen,8,BFS,1.0,252,True,97.0000,101.97056274,27427,60.1448,-4.87
Moscow_0_512.map,Moscow_0_512.map.scen,8,BFS,1.0,253,True,95.0000,100.79898987,22049,42.0033,-5.75
Moscow_0_512.map,Moscow_0_512.map.scen,8,BFS,1.0,254,True,77.0000,103.09545441,18697,35.6835,-25.31
Moscow_0_512.map,Moscow_0_512.map.scen,8,BFS,1.0,255,True,85.0000,103.63961029,20498,39.5088,-17.99
Moscow_0_512.map,Moscow_0_512.map.scen,8,BFS,1.0,256,True,81.0000,100.46803741,20062,35.0949,-19.38
Moscow_0_512.map,Moscow_0_512.map.scen,8,BFS,1.0,257,True,101.0000,101.82842712,31904,59.2493,-0.81
Moscow_0_512.map,Moscow_0_512.map.scen,8,BFS,1.0,258,True,88.0000,103.74011536,16183,29.0883,-15.17
Moscow_0_512.map,Moscow_0_512.map.scen,8,BFS,1.0,259,True,87.0000,103.15432892,10371,19.7219,-15.66
Moscow_0_512.map,Moscow_0_512.map.scen,8,BFS,1.0,260,True,95.0000,107.42640686,26969,48.8122,-11.57
Moscow_0_512.map,Moscow_0_512.map.scen,8,BFS,1.0,261,True,87.0000,107.7106781,9142,16.1542,-19.23
Moscow_0_512.map,Moscow_0_512.map.scen,8,BFS,1.0,262,True,76.0000,105.82337646,17903,31.2921,-28.18
Moscow_0_512.map,Moscow_0_512.map.scen,8,BFS,1.0,263,True,101.0000,105.97056274,10345,18.4819,-4.69
Moscow_0_512.map,Moscow_0_512.map.scen,8,BFS,1.0,264,True,81.0000,106.68124084,19044,33.0157,-24.07
Moscow_0_512.map,Moscow_0_512.map.scen,8,BFS,1.0,265,True,90.0000,104.08326111,21074,36.8590,-13.53
Moscow_0_512.map,Moscow_0_512.map.scen,8,BFS,1.0,266,True,90.0000,104.91168823,20175,35.5076,-14.21
Moscow_0_512.map,Moscow_0_512.map.scen,8,BFS,1.0,267,True,83.0000,107.43860016,16499,29.0838,-22.75
Moscow_0_512.map,Moscow_0_512.map.scen,8,BFS,1.0,268,True,95.0000,107.42640686,20960,38.7367,-11.57
Moscow_0_512.map,Moscow_0_512.map.scen,8,BFS,1.0,269,True,87.0000,107.29646454,25155,44.6213,-18.92
Moscow_0_512.map,Moscow_0_512.map.scen,8,BFS,1.0,270,True,94.0000,108.91168823,14696,25.3175,-13.69
Moscow_0_512.map,Moscow_0_512.map.scen,8,BFS,1.0,271,True,99.0000,108.94112549,26546,46.7672,-9.13
Moscow_0_512.map,Moscow_0_512.map.scen,8,BFS,1.0,272,True,86.0000,108.78174591,16509,28.7277,-20.94
Moscow_0_512.map,Moscow_0_512.map.scen,8,BFS,1.0,273,True,85.0000,111.92388153,20987,37.2553,-24.06
Moscow_0_512.map,Moscow_0_512.map.scen,8,BFS,1.0,274,True,86.0000,109.61017303,16108,27.7719,-21.54
Moscow_0_512.map,Moscow_0_512.map.scen,8,BFS,1.0,275,True,102.0000,110.28427124,25290,50.1710,-7.51
Moscow_0_512.map,Moscow_0_512.map.scen,8,BFS,1.0,276,True,94.0000,109.32590179,26948,47.4900,-14.02
Moscow_0_512.map,Moscow_0_512.map.scen,8,BFS,1.0,277,True,85.0000,111.92388153,13949,24.0469,-24.06
Moscow_0_512.map,Moscow_0_512.map.scen,8,BFS,1.0,278,True,100.0000,111.59797974,19628,34.2393,-10.39
Moscow_0_512.map,Moscow_0_512.map.scen,8,BFS,1.0,279,True,98.0000,109.18376617,22809,41.2815,-10.24
Moscow_0_512.map,Moscow_0_512.map.scen,8,BFS,1.0,280,True,106.0000,113.45584412,11599,20.5504,-6.57
Moscow_0_512.map,Moscow_0_512.map.scen,8,BFS,1.0,281,True,87.0000,112.68124084,24538,43.9785,-22.79
Moscow_0_512.map,Moscow_0_512.map.scen,8,BFS,1.0,282,True,101.0000,115.91168823,13905,25.1915,-12.86
Moscow_0_512.map,Moscow_0_512.map.scen,8,BFS,1.0,283,True,96.0000,115.46803741,25047,44.0741,-16.86
Moscow_0_512.map,Moscow_0_512.map.scen,8,BFS,1.0,284,True,93.0000,115.36753235,14024,24.2624,-19.39
Moscow_0_512.map,Moscow_0_512.map.scen,8,BFS,1.0,285,True,93.0000,112.88225098,15751,27.3644,-17.61
Moscow_0_512.map,Moscow_0_512.map.scen,8,BFS,1.0,286,True,99.0000,113.08326111,30775,53.4637,-12.45
Moscow_0_512.map,Moscow_0_512.map.scen,8,BFS,1.0,287,True,107.0000,114.87005768,23789,41.4127,-6.85
Moscow_0_512.map,Moscow_0_512.map.scen,8,BFS,1.0,288,True,89.0000,113.0243866,19513,32.8916,-21.26
Moscow_0_512.map,Moscow_0_512.map.scen,8,BFS,1.0,289,True,91.0000,112.05382385,23344,40.9922,-18.79
Moscow_0_512.map,Moscow_0_512.map.scen,8,BFS,1.0,290,True,93.0000,118.68124084,20788,40.0276,-21.64
Moscow_0_512.map,Moscow_0_512.map.scen,8,BFS,1.0,291,True,95.0000,117.78174591,23608,41.2096,-19.34
Moscow_0_512.map,Moscow_0_512.map.scen,8,BFS,1.0,292,True,112.0000,118.62741699,20187,34.3822,-5.59
Moscow_0_512.map,Moscow_0_512.map.scen,8,BFS,1.0,293,True,107.0000,116.11269836,12096,20.9122,-7.85
Moscow_0_512.map,Moscow_0_512.map.scen,8,BFS,1.0,294,True,91.0000,116.14213562,20067,33.7263,-21.65
Moscow_0_512.map,Moscow_0_512.map.scen,8,BFS,1.0,295,True,92.0000,116.0243866,11359,19.9774,-20.71
Moscow_0_512.map,Moscow_0_512.map.scen,8,BFS,1.0,296,True,91.0000,117.92388153,13626,23.5269,-22.83
Moscow_0_512.map,Moscow_0_512.map.scen,8,BFS,1.0,297,True,110.0000,117.45584412,34931,61.1559,-6.35
Moscow_0_512.map,Moscow_0_512.map.scen,8,BFS,1.0,298,True,108.0000,117.11269836,36068,63.7526,-7.78
Moscow_0_512.map,Moscow_0_512.map.scen,8,BFS,1.0,299,True,88.0000,116.99494934,13910,24.1256,-24.78
Moscow_0_512.map,Moscow_0_512.map.scen,8,BFS,1.0,300,True,109.0000,121.84062042,25919,46.3220,-10.54
Moscow_0_512.map,Moscow_0_512.map.scen,8,BFS,1.0,301,True,101.0000,122.53910522,29736,55.2165,-17.58
Moscow_0_512.map,Moscow_0_512.map.scen,8,BFS,1.0,302,True,89.0000,120.06601715,22731,39.8512,-25.87
Moscow_0_512.map,Moscow_0_512.map.scen,8,BFS,1.0,303,True,95.0000,122.33809509,21105,37.0640,-22.35
Moscow_0_512.map,Moscow_0_512.map.scen,8,BFS,1.0,304,True,101.0000,120.46803741,25134,43.4383,-16.16
Moscow_0_512.map,Moscow_0_512.map.scen,8,BFS,1.0,305,True,115.0000,121.21320343,33796,57.8682,-5.13
Moscow_0_512.map,Moscow_0_512.map.scen,8,BFS,1.0,306,True,102.0000,123.95331879,32887,56.5123,-17.71
Moscow_0_512.map,Moscow_0_512.map.scen,8,BFS,1.0,307,True,100.0000,122.36753235,29942,51.5553,-18.28
Moscow_0_512.map,Moscow_0_512.map.scen,8,BFS,1.0,308,True,116.0000,120.97056274,39974,68.6513,-4.11
Moscow_0_512.map,Moscow_0_512.map.scen,8,BFS,1.0,309,True,118.0000,122.14213562,38457,66.3925,-3.39
Moscow_0_512.map,Moscow_0_512.map.scen,8,BFS,1.0,310,True,100.0000,126.09545441,10579,18.8043,-20.70
Moscow_0_512.map,Moscow_0_512.map.scen,8,BFS,1.0,311,True,111.0000,127.56854248,14483,24.5586,-12.99
Moscow_0_512.map,Moscow_0_512.map.scen,8,BFS,1.0,312,True,96.0000,126.65180359,26520,56.6483,-24.20
Moscow_0_512.map,Moscow_0_512.map.scen,8,BFS,1.0,313,True,109.0000,124.74011536,19064,32.3810,-12.62
Moscow_0_512.map,Moscow_0_512.map.scen,8,BFS,1.0,314,True,94.0000,124.23759003,22354,38.7346,-24.34
Moscow_0_512.map,Moscow_0_512.map.scen,8,BFS,1.0,315,True,120.0000,125.79898987,38509,65.0496,-4.61
Moscow_0_512.map,Moscow_0_512.map.scen,8,BFS,1.0,316,True,109.0000,125.98275604,37934,64.7161,-13.48
Moscow_0_512.map,Moscow_0_512.map.scen,8,BFS,1.0,317,True,118.0000,126.28427124,23320,40.2400,-6.56
Moscow_0_512.map,Moscow_0_512.map.scen,8,BFS,1.0,318,True,115.0000,124.52691193,33191,57.5669,-7.65
Moscow_0_512.map,Moscow_0_512.map.scen,8,BFS,1.0,319,True,117.0000,126.52691193,34124,59.2229,-7.53
Moscow_0_512.map,Moscow_0_512.map.scen,8,BFS,1.0,320,True,110.0000,129.05382385,19623,33.1497,-14.76
Moscow_0_512.map,Moscow_0_512.map.scen,8,BFS,1.0,321,True,101.0000,130.4091629,14657,24.6457,-22.55
Moscow_0_512.map,Moscow_0_512.map.scen,8,BFS,1.0,322,True,100.0000,130.23759003,24925,43.9146,-23.22
Moscow_0_512.map,Moscow_0_512.map.scen,8,BFS,1.0,323,True,107.0000,131.0243866,34790,60.5970,-18.34
Moscow_0_512.map,Moscow_0_512.map.scen,8,BFS,1.0,324,True,94.0000,131.27922058,23182,40.3495,-28.40
Moscow_0_512.map,Moscow_0_512.map.scen,8,BFS,1.0,325,True,106.0000,130.0243866,30597,52.8347,-18.48
Moscow_0_512.map,Moscow_0_512.map.scen,8,BFS,1.0,326,True,104.0000,130.76955261,26267,44.9997,-20.47
Moscow_0_512.map,Moscow_0_512.map.scen,8,BFS,1.0,327,True,131.0000,131.82842712,42305,75.7439,-0.63
Moscow_0_512.map,Moscow_0_512.map.scen,8,BFS,1.0,328,True,115.0000,128.25483398,33030,57.1993,-10.33
Moscow_0_512.map,Moscow_0_512.map.scen,8,BFS,1.0,329,True,107.0000,131.0243866,32603,58.2174,-18.34
Moscow_0_512.map,Moscow_0_512.map.scen,8,BFS,1.0,330,True,97.0000,133.86500702,29872,52.5874,-27.54
Moscow_0_512.map,Moscow_0_512.map.scen,8,BFS,1.0,331,True,128.0000,133.79898987,46383,83.2413,-4.33
Moscow_0_512.map,Moscow_0_512.map.scen,8,BFS,1.0,332,True,98.0000,135.27922058,22983,39.9922,-27.56
Moscow_0_512.map,Moscow_0_512.map.scen,8,BFS,1.0,333,True,117.0000,133.56854248,24466,42.9981,-12.40
Moscow_0_512.map,Moscow_0_512.map.scen,8,BFS,1.0,334,True,107.0000,135.16652222,32427,56.4701,-20.84
Moscow_0_512.map,Moscow_0_512.map.scen,8,BFS,1.0,335,True,116.0000,135.05382385,25285,44.2615,-14.11
Moscow_0_512.map,Moscow_0_512.map.scen,8,BFS,1.0,336,True,112.0000,132.29646454,37718,65.9235,-15.34
Moscow_0_512.map,Moscow_0_512.map.scen,8,BFS,1.0,337,True,106.0000,132.92388153,33942,59.1878,-20.26
Moscow_0_512.map,Moscow_0_512.map.scen,8,BFS,1.0,338,True,100.0000,134.37972565,25683,45.2843,-25.58
Moscow_0_512.map,Moscow_0_512.map.scen,8,BFS,1.0,339,True,120.0000,135.74011536,14875,25.2819,-11.60
Moscow_0_512.map,Moscow_0_512.map.scen,8,BFS,1.0,340,True,97.0000,137.17871551,18996,31.7048,-29.29
Moscow_0_512.map,Moscow_0_512.map.scen,8,BFS,1.0,341,True,124.0000,138.08326111,32473,55.5224,-10.20
Moscow_0_512.map,Moscow_0_512.map.scen,8,BFS,1.0,342,True,111.0000,137.09545441,17925,30.2590,-19.03
Moscow_0_512.map,Moscow_0_512.map.scen,8,BFS,1.0,343,True,120.0000,138.63961029,30380,52.5510,-13.44
Moscow_0_512.map,Moscow_0_512.map.scen,8,BFS,1.0,344,True,101.0000,136.20815277,24846,42.6025,-25.85
Moscow_0_512.map,Moscow_0_512.map.scen,8,BFS,1.0,345,True,125.0000,139.91168823,34928,60.6831,-10.66
Moscow_0_512.map,Moscow_0_512.map.scen,8,BFS,1.0,346,True,110.0000,138.58073578,38693,66.0282,-20.62
Moscow_0_512.map,Moscow_0_512.map.scen,8,BFS,1.0,347,True,126.0000,138.0121933,48455,85.3704,-8.70
Moscow_0_512.map,Moscow_0_512.map.scen,8,BFS,1.0,348,True,126.0000,138.84062042,15742,28.1225,-9.25
Moscow_0_512.map,Moscow_0_512.map.scen,8,BFS,1.0,349,True,107.0000,138.89444427,35239,60.7530,-22.96
Moscow_0_512.map,Moscow_0_512.map.scen,8,BFS,1.0,350,True,127.0000,142.32590179,39013,67.4108,-10.77
Moscow_0_512.map,Moscow_0_512.map.scen,8,BFS,1.0,351,True,120.0000,142.36753235,40874,71.7639,-15.71
Moscow_0_512.map,Moscow_0_512.map.scen,8,BFS,1.0,352,True,118.0000,143.26702728,43208,77.3463,-17.64
Moscow_0_512.map,Moscow_0_512.map.scen,8,BFS,1.0,353,True,112.0000,140.16652222,15051,25.8155,-20.10
Moscow_0_512.map,Moscow_0_512.map.scen,8,BFS,1.0,354,True,108.0000,141.96551208,32217,56.2471,-23.93
Moscow_0_512.map,Moscow_0_512.map.scen,8,BFS,1.0,355,True,120.0000,141.95331879,44498,79.2051,-15.47
Moscow_0_512.map,Moscow_0_512.map.scen,8,BFS,1.0,356,True,119.0000,143.43860016,39992,68.9765,-17.04
Moscow_0_512.map,Moscow_0_512.map.scen,8,BFS,1.0,357,True,112.0000,143.48023071,15840,26.5917,-21.94
Moscow_0_512.map,Moscow_0_512.map.scen,8,BFS,1.0,358,True,122.0000,140.22539673,44101,78.1542,-13.00
Moscow_0_512.map,Moscow_0_512.map.scen,8,BFS,1.0,359,True,137.0000,143.21320343,54802,94.7216,-4.34
Moscow_0_512.map,Moscow_0_512.map.scen,8,BFS,1.0,360,True,109.0000,145.03657989,37418,65.4993,-24.85
Moscow_0_512.map,Moscow_0_512.map.scen,8,BFS,1.0,361,True,112.0000,146.37972565,34944,59.8280,-23.49
Moscow_0_512.map,Moscow_0_512.map.scen,8,BFS,1.0,362,True,117.0000,146.82337646,32161,54.6784,-20.31
Moscow_0_512.map,Moscow_0_512.map.scen,8,BFS,1.0,363,True,128.0000,145.81118317,49514,87.9999,-12.22
Moscow_0_512.map,Moscow_0_512.map.scen,8,BFS,1.0,364,True,128.0000,147.46803741,48263,84.8491,-13.20
Moscow_0_512.map,Moscow_0_512.map.scen,8,BFS,1.0,365,True,124.0000,147.61017303,34888,59.1172,-15.99
Moscow_0_512.map,Moscow_0_512.map.scen,8,BFS,1.0,366,True,125.0000,147.78174591,37289,64.5092,-15.42
Moscow_0_512.map,Moscow_0_512.map.scen,8,BFS,1.0,367,True,127.0000,145.22539673,42673,78.2567,-12.55
Moscow_0_512.map,Moscow_0_512.map.scen,8,BFS,1.0,368,True,114.0000,147.96551208,34757,62.1180,-22.96
Moscow_0_512.map,Moscow_0_512.map.scen,8,BFS,1.0,369,True,111.0000,146.20815277,38298,71.7272,-24.08
Moscow_0_512.map,Moscow_0_512.map.scen,8,BFS,1.0,370,True,120.0000,149.4091629,37705,66.8462,-19.68
Moscow_0_512.map,Moscow_0_512.map.scen,8,BFS,1.0,371,True,113.0000,151.52186127,20225,36.3380,-25.42
Moscow_0_512.map,Moscow_0_512.map.scen,8,BFS,1.0,372,True,118.0000,148.23759003,16484,28.2123,-20.40
Moscow_0_512.map,Moscow_0_512.map.scen,8,BFS,1.0,373,True,136.0000,151.74011536,23273,40.5308,-10.37
Moscow_0_512.map,Moscow_0_512.map.scen,8,BFS,1.0,374,True,125.0000,149.0243866,20267,37.2224,-16.12
Moscow_0_512.map,Moscow_0_512.map.scen,8,BFS,1.0,375,True,128.0000,149.95331879,22009,37.8264,-14.64
Moscow_0_512.map,Moscow_0_512.map.scen,8,BFS,1.0,376,True,145.0000,150.38477631,40630,89.3441,-3.58
Moscow_0_512.map,Moscow_0_512.map.scen,8,BFS,1.0,377,True,141.0000,150.11269836,49990,90.9970,-6.07
Moscow_0_512.map,Moscow_0_512.map.scen,8,BFS,1.0,378,True,120.0000,149.82337646,44258,82.3449,-19.91
Moscow_0_512.map,Moscow_0_512.map.scen,8,BFS,1.0,379,True,114.0000,148.79393921,35942,61.8193,-23.38
Moscow_0_512.map,Moscow_0_512.map.scen,8,BFS,1.0,380,True,124.0000,155.06601715,22262,43.0656,-20.03
Moscow_0_512.map,Moscow_0_512.map.scen,8,BFS,1.0,381,True,120.0000,153.96551208,42837,79.7629,-22.06
Moscow_0_512.map,Moscow_0_512.map.scen,8,BFS,1.0,382,True,131.0000,153.36753235,46086,81.7900,-14.58
Moscow_0_512.map,Moscow_0_512.map.scen,8,BFS,1.0,383,True,124.0000,155.48023071,26825,45.9987,-20.25
Moscow_0_512.map,Moscow_0_512.map.scen,8,BFS,1.0,384,True,132.0000,152.29646454,39868,70.7242,-13.33
Moscow_0_512.map,Moscow_0_512.map.scen,8,BFS,1.0,385,True,126.0000,152.50966797,17848,33.3170,-17.38
Moscow_0_512.map,Moscow_0_512.map.scen,8,BFS,1.0,386,True,139.0000,154.32590179,25427,88.1287,-9.93
Moscow_0_512.map,Moscow_0_512.map.scen,8,BFS,1.0,387,True,120.0000,154.37972565,37026,70.1124,-22.27
Moscow_0_512.map,Moscow_0_512.map.scen,8,BFS,1.0,388,True,123.0000,152.82337646,34068,59.7013,-19.51
Moscow_0_512.map,Moscow_0_512.map.scen,8,BFS,1.0,389,True,127.0000,155.99494934,31437,60.3449,-18.59
Moscow_0_512.map,Moscow_0_512.map.scen,8,BFS,1.0,390,True,124.0000,156.7228714,22298,43.1516,-20.88
Moscow_0_512.map,Moscow_0_512.map.scen,8,BFS,1.0,391,True,146.0000,159.66904755,34031,60.1766,-8.56
Moscow_0_512.map,Moscow_0_512.map.scen,8,BFS,1.0,392,True,135.0000,158.19595947,26171,48.3559,-14.66
Moscow_0_512.map,Moscow_0_512.map.scen,8,BFS,1.0,393,True,147.0000,159.0121933,45276,89.6161,-7.55
Moscow_0_512.map,Moscow_0_512.map.scen,8,BFS,1.0,394,True,120.0000,156.86500702,29039,53.7614,-23.50
Moscow_0_512.map,Moscow_0_512.map.scen,8,BFS,1.0,395,True,127.0000,156.82337646,43437,78.3233,-19.02
Moscow_0_512.map,Moscow_0_512.map.scen,8,BFS,1.0,396,True,128.0000,159.29646454,47448,84.8026,-19.65
Moscow_0_512.map,Moscow_0_512.map.scen,8,BFS,1.0,397,True,141.0000,159.63961029,36906,66.0916,-11.68
Moscow_0_512.map,Moscow_0_512.map.scen,8,BFS,1.0,398,True,128.0000,158.23759003,23176,41.4408,-19.11
Moscow_0_512.map,Moscow_0_512.map.scen,8,BFS,1.0,399,True,143.0000,157.49747467,23843,43.3541,-9.20
Moscow_0_512.map,Moscow_0_512.map.scen,8,BFS,1.0,400,True,130.0000,163.96551208,49007,94.3204,-20.72
Moscow_0_512.map,Moscow_0_512.map.scen,8,BFS,1.0,401,True,137.0000,162.26702728,45898,84.7839,-15.57
Moscow_0_512.map,Moscow_0_512.map.scen,8,BFS,1.0,402,True,139.0000,163.0243866,50541,90.0186,-14.74
Moscow_0_512.map,Moscow_0_512.map.scen,8,BFS,1.0,403,True,138.0000,162.0243866,16829,30.3929,-14.83
Moscow_0_512.map,Moscow_0_512.map.scen,8,BFS,1.0,404,True,125.0000,162.69343414,39437,69.5172,-23.17
Moscow_0_512.map,Moscow_0_512.map.scen,8,BFS,1.0,405,True,119.0000,160.00714264,43886,81.4225,-25.63
Moscow_0_512.map,Moscow_0_512.map.scen,8,BFS,1.0,406,True,146.0000,162.98275604,39619,70.5669,-10.42
Moscow_0_512.map,Moscow_0_512.map.scen,8,BFS,1.0,407,True,145.0000,161.98275604,52984,98.4603,-10.48
Moscow_0_512.map,Moscow_0_512.map.scen,8,BFS,1.0,408,True,139.0000,162.61017303,50689,96.1710,-14.52
Moscow_0_512.map,Moscow_0_512.map.scen,8,BFS,1.0,409,True,140.0000,160.29646454,59801,115.9924,-12.66
Moscow_0_512.map,Moscow_0_512.map.scen,8,BFS,1.0,410,True,152.0000,164.42640686,66034,125.2714,-7.56
Moscow_0_512.map,Moscow_0_512.map.scen,8,BFS,1.0,411,True,138.0000,164.50966797,25817,45.9333,-16.11
Moscow_0_512.map,Moscow_0_512.map.scen,8,BFS,1.0,412,True,140.0000,167.33809509,36667,63.0605,-16.34
Moscow_0_512.map,Moscow_0_512.map.scen,8,BFS,1.0,413,True,146.0000,165.88225098,62737,108.7205,-11.99
Moscow_0_512.map,Moscow_0_512.map.scen,8,BFS,1.0,414,True,127.0000,166.76450195,50532,90.6440,-23.84
Moscow_0_512.map,Moscow_0_512.map.scen,8,BFS,1.0,415,True,155.0000,167.42640686,67425,125.0608,-7.42
Moscow_0_512.map,Moscow_0_512.map.scen,8,BFS,1.0,416,True,163.0000,164.65685425,53007,129.2767,-1.01
Moscow_0_512.map,Moscow_0_512.map.scen,8,BFS,1.0,417,True,130.0000,166.45079346,41114,84.2267,-21.90
Moscow_0_512.map,Moscow_0_512.map.scen,8,BFS,1.0,418,True,151.0000,167.15432892,58034,102.7642,-9.66
Moscow_0_512.map,Moscow_0_512.map.scen,8,BFS,1.0,419,True,159.0000,167.6984848,32966,57.7176,-5.19
Moscow_0_512.map,Moscow_0_512.map.scen,8,BFS,1.0,420,True,161.0000,171.76955261,69399,142.6823,-6.27
Moscow_0_512.map,Moscow_0_512.map.scen,8,BFS,1.0,421,True,148.0000,169.95331879,65793,173.1165,-12.92
Moscow_0_512.map,Moscow_0_512.map.scen,8,BFS,1.0,422,True,134.0000,170.45079346,53466,97.7052,-21.38
Moscow_0_512.map,Moscow_0_512.map.scen,8,BFS,1.0,423,True,151.0000,170.05382385,40871,72.5648,-11.20
Moscow_0_512.map,Moscow_0_512.map.scen,8,BFS,1.0,424,True,142.0000,170.99494934,55719,109.3807,-16.96
Moscow_0_512.map,Moscow_0_512.map.scen,8,BFS,1.0,425,True,144.0000,171.75230865,38808,68.6256,-16.16
Moscow_0_512.map,Moscow_0_512.map.scen,8,BFS,1.0,426,True,151.0000,169.22539673,68054,121.4961,-10.77
Moscow_0_512.map,Moscow_0_512.map.scen,8,BFS,1.0,427,True,158.0000,171.25483398,71415,147.0877,-7.74
Moscow_0_512.map,Moscow_0_512.map.scen,8,BFS,1.0,428,True,131.0000,169.1076477,33465,57.4230,-22.53
Moscow_0_512.map,Moscow_0_512.map.scen,8,BFS,1.0,429,True,140.0000,169.4091629,51580,89.4171,-17.36
Moscow_0_512.map,Moscow_0_512.map.scen,8,BFS,1.0,430,True,145.0000,174.4091629,64496,143.4012,-16.86
Moscow_0_512.map,Moscow_0_512.map.scen,8,BFS,1.0,431,True,146.0000,173.75230865,53224,105.4991,-15.97
Moscow_0_512.map,Moscow_0_512.map.scen,8,BFS,1.0,432,True,151.0000,175.85281372,40569,89.0089,-14.13
Moscow_0_512.map,Moscow_0_512.map.scen,8,BFS,1.0,433,True,132.0000,173.83556976,36642,66.7397,-24.07
Moscow_0_512.map,Moscow_0_512.map.scen,8,BFS,1.0,434,True,139.0000,172.96551208,57236,105.8450,-19.64
Moscow_0_512.map,Moscow_0_512.map.scen,8,BFS,1.0,435,True,139.0000,172.13708496,39463,67.6423,-19.25
Moscow_0_512.map,Moscow_0_512.map.scen,8,BFS,1.0,436,True,129.0000,172.90663757,51034,90.1996,-25.39
Moscow_0_512.map,Moscow_0_512.map.scen,8,BFS,1.0,437,True,141.0000,175.79393921,62709,119.0398,-19.79
Moscow_0_512.map,Moscow_0_512.map.scen,8,BFS,1.0,438,True,144.0000,174.65180359,57750,97.7885,-17.55
Moscow_0_512.map,Moscow_0_512.map.scen,8,BFS,1.0,439,True,149.0000,173.85281372,64156,110.2833,-14.30
Moscow_0_512.map,Moscow_0_512.map.scen,8,BFS,1.0,440,True,138.0000,179.00714264,41599,71.7559,-22.91
Moscow_0_512.map,Moscow_0_512.map.scen,8,BFS,1.0,441,True,160.0000,179.88225098,44940,78.3038,-11.05
Moscow_0_512.map,Moscow_0_512.map.scen,8,BFS,1.0,442,True,145.0000,178.55129852,60971,122.8250,-18.79
Moscow_0_512.map,Moscow_0_512.map.scen,8,BFS,1.0,443,True,165.0000,176.59797974,65646,112.1932,-6.57
Moscow_0_512.map,Moscow_0_512.map.scen,8,BFS,1.0,444,True,153.0000,177.43860016,43853,78.5408,-13.77
Moscow_0_512.map,Moscow_0_512.map.scen,8,BFS,1.0,445,True,164.0000,176.0121933,63531,109.4513,-6.82
Moscow_0_512.map,Moscow_0_512.map.scen,8,BFS,1.0,446,True,161.0000,176.74011536,76566,132.0286,-8.91
Moscow_0_512.map,Moscow_0_512.map.scen,8,BFS,1.0,447,True,143.0000,178.15432892,55881,96.3945,-19.73
Moscow_0_512.map,Moscow_0_512.map.scen,8,BFS,1.0,448,True,178.0000,179.24264069,84333,146.5898,-0.69
Moscow_0_512.map,Moscow_0_512.map.scen,8,BFS,1.0,449,True,168.0000,177.11269836,46791,82.2455,-5.15
Moscow_0_512.map,Moscow_0_512.map.scen,8,BFS,1.0,450,True,167.0000,181.08326111,72583,123.8900,-7.78
Moscow_0_512.map,Moscow_0_512.map.scen,8,BFS,1.0,451,True,136.0000,183.22034607,40967,70.5265,-25.77
Moscow_0_512.map,Moscow_0_512.map.scen,8,BFS,1.0,452,True,133.0000,180.22034607,28046,48.6973,-26.20
Moscow_0_512.map,Moscow_0_512.map.scen,8,BFS,1.0,453,True,167.0000,183.52691193,70508,121.4603,-9.01
Moscow_0_512.map,Moscow_0_512.map.scen,8,BFS,1.0,454,True,157.0000,183.92388153,37449,63.7469,-14.64
Moscow_0_512.map,Moscow_0_512.map.scen,8,BFS,1.0,455,True,168.0000,183.74011536,64721,112.6703,-8.57
Moscow_0_512.map,Moscow_0_512.map.scen,8,BFS,1.0,456,True,136.0000,180.32085113,36670,62.3190,-24.58
Moscow_0_512.map,Moscow_0_512.map.scen,8,BFS,1.0,457,True,166.0000,180.08326111,77192,129.6939,-7.82
Moscow_0_512.map,Moscow_0_512.map.scen,8,BFS,1.0,458,True,162.0000,181.88225098,40166,66.7408,-10.93
Moscow_0_512.map,Moscow_0_512.map.scen,8,BFS,1.0,459,True,175.0000,181.21320343,65111,111.5043,-3.43
Moscow_0_512.map,Moscow_0_512.map.scen,8,BFS,1.0,460,True,147.0000,186.76450195,47793,82.2451,-21.29
Moscow_0_512.map,Moscow_0_512.map.scen,8,BFS,1.0,461,True,151.0000,184.55129852,69469,117.3014,-18.18
Moscow_0_512.map,Moscow_0_512.map.scen,8,BFS,1.0,462,True,151.0000,187.45079346,25736,44.0368,-19.45
Moscow_0_512.map,Moscow_0_512.map.scen,8,BFS,1.0,463,True,149.0000,186.27922058,69499,117.9710,-20.01
Moscow_0_512.map,Moscow_0_512.map.scen,8,BFS,1.0,464,True,156.0000,187.06601715,34759,59.5838,-16.61
Moscow_0_512.map,Moscow_0_512.map.scen,8,BFS,1.0,465,True,163.0000,185.78174591,31693,53.1143,-12.26
Moscow_0_512.map,Moscow_0_512.map.scen,8,BFS,1.0,466,True,143.0000,187.7350647,50378,87.3289,-23.83
Moscow_0_512.map,Moscow_0_512.map.scen,8,BFS,1.0,467,True,134.0000,186.19090881,49589,86.3019,-28.03
Moscow_0_512.map,Moscow_0_512.map.scen,8,BFS,1.0,468,True,151.0000,185.79393921,52657,91.8394,-18.73
Moscow_0_512.map,Moscow_0_512.map.scen,8,BFS,1.0,469,True,168.0000,185.3969696,64698,111.5695,-9.38
Moscow_0_512.map,Moscow_0_512.map.scen,8,BFS,1.0,470,True,148.0000,188.17871551,61512,110.1477,-21.35
Moscow_0_512.map,Moscow_0_512.map.scen,8,BFS,1.0,471,True,175.0000,191.15432892,57078,97.4451,-8.45
Moscow_0_512.map,Moscow_0_512.map.scen,8,BFS,1.0,472,True,155.0000,190.62236633,74505,125.0040,-18.69
Moscow_0_512.map,Moscow_0_512.map.scen,8,BFS,1.0,473,True,156.0000,188.7228714,30236,50.6376,-17.34
Moscow_0_512.map,Moscow_0_512.map.scen,8,BFS,1.0,474,True,182.0000,190.28427124,75142,126.0463,-4.35
Moscow_0_512.map,Moscow_0_512.map.scen,8,BFS,1.0,475,True,177.0000,191.08326111,32900,55.5795,-7.37
Moscow_0_512.map,Moscow_0_512.map.scen,8,BFS,1.0,476,True,169.0000,188.46803741,45785,79.2145,-10.33
Moscow_0_512.map,Moscow_0_512.map.scen,8,BFS,1.0,477,True,180.0000,188.6984848,42202,72.7184,-4.61
Moscow_0_512.map,Moscow_0_512.map.scen,8,BFS,1.0,478,True,149.0000,188.35028839,41671,72.9868,-20.89
Moscow_0_512.map,Moscow_0_512.map.scen,8,BFS,1.0,479,True,173.0000,188.32590179,76772,129.9996,-8.14
Moscow_0_512.map,Moscow_0_512.map.scen,8,BFS,1.0,480,True,164.0000,194.65180359,81236,138.0819,-15.75
Moscow_0_512.map,Moscow_0_512.map.scen,8,BFS,1.0,481,True,161.0000,192.06601715,78886,133.2992,-16.17
Moscow_0_512.map,Moscow_0_512.map.scen,8,BFS,1.0,482,True,154.0000,193.76450195,57382,97.7864,-20.52
Moscow_0_512.map,Moscow_0_512.map.scen,8,BFS,1.0,483,True,156.0000,195.35028839,69869,187.9597,-20.14
Moscow_0_512.map,Moscow_0_512.map.scen,8,BFS,1.0,484,True,165.0000,192.33809509,37558,82.1570,-14.21
Moscow_0_512.map,Moscow_0_512.map.scen,8,BFS,1.0,485,True,155.0000,193.93607483,68111,127.8681,-20.08
Moscow_0_512.map,Moscow_0_512.map.scen,8,BFS,1.0,486,True,143.0000,193.94826813,54344,95.3783,-26.27
Moscow_0_512.map,Moscow_0_512.map.scen,8,BFS,1.0,487,True,165.0000,195.23759003,35893,65.5353,-15.49
Moscow_0_512.map,Moscow_0_512.map.scen,8,BFS,1.0,488,True,147.0000,194.63455963,47454,84.5692,-24.47
Moscow_0_512.map,Moscow_0_512.map.scen,8,BFS,1.0,489,True,153.0000,192.76450195,47448,84.9678,-20.63
Moscow_0_512.map,Moscow_0_512.map.scen,8,BFS,1.0,490,True,143.0000,199.33304443,50478,87.5649,-28.26
Moscow_0_512.map,Moscow_0_512.map.scen,8,BFS,1.0,491,True,163.0000,196.13708496,54528,94.1783,-16.89
Moscow_0_512.map,Moscow_0_512.map.scen,8,BFS,1.0,492,True,158.0000,196.93607483,74823,127.6729,-19.77
Moscow_0_512.map,Moscow_0_512.map.scen,8,BFS,1.0,493,True,158.0000,198.59292908,48028,86.4309,-20.44
Moscow_0_512.map,Moscow_0_512.map.scen,8,BFS,1.0,494,True,164.0000,199.89444427,42148,75.7642,-17.96
Moscow_0_512.map,Moscow_0_512.map.scen,8,BFS,1.0,495,True,164.0000,197.13708496,46291,80.9908,-16.81
Moscow_0_512.map,Moscow_0_512.map.scen,8,BFS,1.0,496,True,169.0000,197.99494934,37560,63.1655,-14.64
Moscow_0_512.map,Moscow_0_512.map.scen,8,BFS,1.0,497,True,163.0000,196.32590179,77989,132.0754,-16.97
Moscow_0_512.map,Moscow_0_512.map.scen,8,BFS,1.0,498,True,164.0000,196.30865784,71705,120.5309,-16.46
Moscow_0_512.map,Moscow_0_512.map.scen,8,BFS,1.0,499,True,176.0000,197.12489166,54582,93.6306,-10.72
Moscow_0_512.map,Moscow_0_512.map.scen,8,BFS,1.0,500,True,177.0000,203.92388153,68920,117.7679,-13.20
Moscow_0_512.map,Moscow_0_512.map.scen,8,BFS,1.0,501,True,159.0000,202.07821045,74551,138.7113,-21.32
Moscow_0_512.map,Moscow_0_512.map.scen,8,BFS,1.0,502,True,191.0000,202.59797974,42647,74.2542,-5.72
Moscow_0_512.map,Moscow_0_512.map.scen,8,BFS,1.0,503,True,176.0000,200.0243866,90132,198.6259,-12.01
Moscow_0_512.map,Moscow_0_512.map.scen,8,BFS,1.0,504,True,198.0000,203.79898987,84162,179.3070,-2.85
Moscow_0_512.map,Moscow_0_512.map.scen,8,BFS,1.0,505,True,167.0000,200.13708496,56391,103.3393,-16.56
Moscow_0_512.map,Moscow_0_512.map.scen,8,BFS,1.0,506,True,155.0000,202.22034607,43060,80.5674,-23.35
Moscow_0_512.map,Moscow_0_512.map.scen,8,BFS,1.0,507,True,162.0000,201.35028839,37290,65.9609,-19.54
Moscow_0_512.map,Moscow_0_512.map.scen,8,BFS,1.0,508,True,156.0000,201.97770538,63576,122.1541,-22.76
Moscow_0_512.map,Moscow_0_512.map.scen,8,BFS,1.0,509,True,167.0000,200.46803741,75695,131.3485,-16.69
Moscow_0_512.map,Moscow_0_512.map.scen,8,BFS,1.0,510,True,196.0000,205.52691193,109960,196.1138,-4.64
Moscow_0_512.map,Moscow_0_512.map.scen,8,BFS,1.0,511,True,182.0000,206.43860016,97375,171.4976,-11.84
Moscow_0_512.map,Moscow_0_512.map.scen,8,BFS,1.0,512,True,166.0000,204.93607483,32329,54.7618,-19.00
Moscow_0_512.map,Moscow_0_512.map.scen,8,BFS,1.0,513,True,157.0000,204.22034607,47421,84.9935,-23.12
Moscow_0_512.map,Moscow_0_512.map.scen,8,BFS,1.0,514,True,161.0000,207.39191894,66569,117.3848,-22.37
Moscow_0_512.map,Moscow_0_512.map.scen,8,BFS,1.0,515,True,168.0000,205.27922058,48209,87.1386,-18.16
Moscow_0_512.map,Moscow_0_512.map.scen,8,BFS,1.0,516,True,186.0000,207.53910522,50682,88.4624,-10.38
Moscow_0_512.map,Moscow_0_512.map.scen,8,BFS,1.0,517,True,156.0000,207.77669525,72549,126.1064,-24.92
Moscow_0_512.map,Moscow_0_512.map.scen,8,BFS,1.0,518,True,165.0000,204.36753235,62352,109.4364,-19.26
Moscow_0_512.map,Moscow_0_512.map.scen,8,BFS,1.0,519,True,172.0000,206.79393921,68382,117.7339,-16.83
Moscow_0_512.map,Moscow_0_512.map.scen,8,BFS,1.0,520,True,164.0000,209.56349182,80334,136.8496,-21.74
Moscow_0_512.map,Moscow_0_512.map.scen,8,BFS,1.0,521,True,169.0000,211.66399689,66712,114.8746,-20.16
Moscow_0_512.map,Moscow_0_512.map.scen,8,BFS,1.0,522,True,153.0000,209.33304443,46710,81.7456,-26.91
Moscow_0_512.map,Moscow_0_512.map.scen,8,BFS,1.0,523,True,171.0000,209.52186127,65581,112.9197,-18.39
Moscow_0_512.map,Moscow_0_512.map.scen,8,BFS,1.0,524,True,168.0000,208.59292908,72234,124.9856,-19.46
Moscow_0_512.map,Moscow_0_512.map.scen,8,BFS,1.0,525,True,201.0000,210.94112549,112514,202.4929,-4.71
Moscow_0_512.map,Moscow_0_512.map.scen,8,BFS,1.0,526,True,156.0000,209.84776306,31187,54.2430,-25.66
Moscow_0_512.map,Moscow_0_512.map.scen,8,BFS,1.0,527,True,187.0000,211.43860016,80759,138.1945,-11.56
Moscow_0_512.map,Moscow_0_512.map.scen,8,BFS,1.0,528,True,166.0000,208.66399689,61962,106.8929,-20.45
Moscow_0_512.map,Moscow_0_512.map.scen,8,BFS,1.0,529,True,197.0000,210.25483398,111972,197.3372,-6.30
Moscow_0_512.map,Moscow_0_512.map.scen,8,BFS,1.0,530,True,181.0000,215.06601715,83262,144.5475,-15.84
Moscow_0_512.map,Moscow_0_512.map.scen,8,BFS,1.0,531,True,176.0000,213.69343414,69646,119.3390,-17.64
Moscow_0_512.map,Moscow_0_512.map.scen,8,BFS,1.0,532,True,172.0000,214.66399689,42458,75.5328,-19.87
Moscow_0_512.map,Moscow_0_512.map.scen,8,BFS,1.0,533,True,168.0000,215.63455963,49851,88.3396,-22.09
Moscow_0_512.map,Moscow_0_512.map.scen,8,BFS,1.0,534,True,193.0000,215.36753235,106634,193.9448,-10.39
Moscow_0_512.map,Moscow_0_512.map.scen,8,BFS,1.0,535,True,170.0000,213.90663757,83597,147.3618,-20.53
Moscow_0_512.map,Moscow_0_512.map.scen,8,BFS,1.0,536,True,174.0000,215.00714264,41417,74.0946,-19.07
Moscow_0_512.map,Moscow_0_512.map.scen,8,BFS,1.0,537,True,168.0000,213.56349182,76382,135.1658,-21.33
Moscow_0_512.map,Moscow_0_512.map.scen,8,BFS,1.0,538,True,174.0000,212.93607483,72061,125.3716,-18.29
Moscow_0_512.map,Moscow_0_512.map.scen,8,BFS,1.0,539,True,195.0000,213.63961029,98266,174.9173,-8.72
Moscow_0_512.map,Moscow_0_512.map.scen,8,BFS,1.0,540,True,195.0000,219.85281372,37469,62.6980,-11.30
Moscow_0_512.map,Moscow_0_512.map.scen,8,BFS,1.0,541,True,185.0000,218.13708496,44117,76.5844,-15.19
Moscow_0_512.map,Moscow_0_512.map.scen,8,BFS,1.0,542,True,167.0000,219.60512237,44734,79.9429,-23.95
Moscow_0_512.map,Moscow_0_512.map.scen,8,BFS,1.0,543,True,192.0000,216.0243866,65901,116.3010,-11.12
Moscow_0_512.map,Moscow_0_512.map.scen,8,BFS,1.0,544,True,184.0000,217.55129852,103582,193.8093,-15.42
Moscow_0_512.map,Moscow_0_512.map.scen,8,BFS,1.0,545,True,187.0000,218.89444427,68205,122.3718,-14.57
Moscow_0_512.map,Moscow_0_512.map.scen,8,BFS,1.0,546,True,193.0000,219.92388153,46640,80.9977,-12.24
Moscow_0_512.map,Moscow_0_512.map.scen,8,BFS,1.0,547,True,177.0000,219.24978332,60996,111.4067,-19.27
Moscow_0_512.map,Moscow_0_512.map.scen,8,BFS,1.0,548,True,181.0000,216.62236633,37079,62.5721,-16.44
Moscow_0_512.map,Moscow_0_512.map.scen,8,BFS,1.0,549,True,201.0000,219.22539673,54101,95.6394,-8.31
Moscow_0_512.map,Moscow_0_512.map.scen,8,BFS,1.0,550,True,176.0000,222.39191894,72667,128.0785,-20.86
Moscow_0_512.map,Moscow_0_512.map.scen,8,BFS,1.0,551,True,183.0000,221.1076477,73921,129.1638,-17.23
Moscow_0_512.map,Moscow_0_512.map.scen,8,BFS,1.0,552,True,197.0000,222.26702728,88782,161.9111,-11.37
Moscow_0_512.map,Moscow_0_512.map.scen,8,BFS,1.0,553,True,186.0000,223.27922058,85724,156.3847,-16.70
Moscow_0_512.map,Moscow_0_512.map.scen,8,BFS,1.0,554,True,203.0000,222.05382385,62837,109.2096,-8.58
Moscow_0_512.map,Moscow_0_512.map.scen,8,BFS,1.0,555,True,171.0000,221.94826813,29987,51.2663,-22.96
Moscow_0_512.map,Moscow_0_512.map.scen,8,BFS,1.0,556,True,160.0000,221.30360718,64272,109.4162,-27.70
Moscow_0_512.map,Moscow_0_512.map.scen,8,BFS,1.0,557,True,173.0000,221.49242401,48877,89.0312,-21.89
Moscow_0_512.map,Moscow_0_512.map.scen,8,BFS,1.0,558,True,195.0000,221.09545441,56752,97.2273,-11.80
Moscow_0_512.map,Moscow_0_512.map.scen,8,BFS,1.0,559,True,191.0000,223.30865784,48807,93.9735,-14.47
Moscow_0_512.map,Moscow_0_512.map.scen,8,BFS,1.0,560,True,207.0000,224.81118317,71822,147.2520,-7.92
Moscow_0_512.map,Moscow_0_512.map.scen,8,BFS,1.0,561,True,182.0000,224.66399689,45313,81.4669,-18.99
Moscow_0_512.map,Moscow_0_512.map.scen,8,BFS,1.0,562,True,191.0000,225.37972565,64018,109.6072,-15.25
Moscow_0_512.map,Moscow_0_512.map.scen,8,BFS,1.0,563,True,166.0000,226.06096649,78453,138.6790,-26.57
Moscow_0_512.map,Moscow_0_512.map.scen,8,BFS,1.0,564,True,194.0000,227.55129852,82140,144.3900,-14.74
Moscow_0_512.map,Moscow_0_512.map.scen,8,BFS,1.0,565,True,180.0000,225.14927826,65116,115.1890,-20.05
Moscow_0_512.map,Moscow_0_512.map.scen,8,BFS,1.0,566,True,205.0000,224.88225098,78470,145.6158,-8.84
Moscow_0_512.map,Moscow_0_512.map.scen,8,BFS,1.0,567,True,169.0000,224.50461731,63969,120.1702,-24.72
Moscow_0_512.map,Moscow_0_512.map.scen,8,BFS,1.0,568,True,200.0000,225.68124084,76647,152.9248,-11.38
Moscow_0_512.map,Moscow_0_512.map.scen,8,BFS,1.0,569,True,193.0000,225.7228714,49724,92.4748,-14.50
Moscow_0_512.map,Moscow_0_512.map.scen,8,BFS,1.0,570,True,213.0000,229.98275604,80664,137.8137,-7.38
Moscow_0_512.map,Moscow_0_512.map.scen,8,BFS,1.0,571,True,180.0000,230.119841,88098,160.8284,-21.78
Moscow_0_512.map,Moscow_0_512.map.scen,8,BFS,1.0,572,True,199.0000,229.23759003,84340,143.7069,-13.19
Moscow_0_512.map,Moscow_0_512.map.scen,8,BFS,1.0,573,True,202.0000,228.50966797,98765,182.5635,-11.60
Moscow_0_512.map,Moscow_0_512.map.scen,8,BFS,1.0,574,True,213.0000,230.3969696,79499,221.7044,-7.55
Moscow_0_512.map,Moscow_0_512.map.scen,8,BFS,1.0,575,True,192.0000,229.23759003,53826,107.9039,-16.24
Moscow_0_512.map,Moscow_0_512.map.scen,8,BFS,1.0,576,True,197.0000,231.37972565,87211,169.7991,-14.86
Moscow_0_512.map,Moscow_0_512.map.scen,8,BFS,1.0,577,True,195.0000,229.37972565,50168,85.7175,-14.99
Moscow_0_512.map,Moscow_0_512.map.scen,8,BFS,1.0,578,True,183.0000,228.14927826,63986,112.6440,-19.79
Moscow_0_512.map,Moscow_0_512.map.scen,8,BFS,1.0,579,True,195.0000,230.23759003,75076,146.6427,-15.30
Moscow_0_512.map,Moscow_0_512.map.scen,8,BFS,1.0,580,True,176.0000,233.16147156,67414,133.2703,-24.52
Moscow_0_512.map,Moscow_0_512.map.scen,8,BFS,1.0,581,True,178.0000,235.57568512,74032,145.0804,-24.44
Moscow_0_512.map,Moscow_0_512.map.scen,8,BFS,1.0,582,True,199.0000,233.37972565,93366,185.6437,-14.73
Moscow_0_512.map,Moscow_0_512.map.scen,8,BFS,1.0,583,True,178.0000,232.26197662,57718,113.2459,-23.36
Moscow_0_512.map,Moscow_0_512.map.scen,8,BFS,1.0,584,True,188.0000,233.56349182,99637,201.7770,-19.51
Moscow_0_512.map,Moscow_0_512.map.scen,8,BFS,1.0,585,True,172.0000,234.1320343,80096,162.1968,-26.54
Moscow_0_512.map,Moscow_0_512.map.scen,8,BFS,1.0,586,True,202.0000,235.55129852,67395,134.4841,-14.24
Moscow_0_512.map,Moscow_0_512.map.scen,8,BFS,1.0,587,True,219.0000,234.74011536,130614,258.8762,-6.71
Moscow_0_512.map,Moscow_0_512.map.scen,8,BFS,1.0,588,True,176.0000,232.33304443,59255,114.7582,-24.25
Moscow_0_512.map,Moscow_0_512.map.scen,8,BFS,1.0,589,True,193.0000,233.17871551,105487,205.4120,-17.23
Moscow_0_512.map,Moscow_0_512.map.scen,8,BFS,1.0,590,True,213.0000,237.43860016,80723,157.4011,-10.29
Moscow_0_512.map,Moscow_0_512.map.scen,8,BFS,1.0,591,True,200.0000,236.37972565,87722,176.4660,-15.39
Moscow_0_512.map,Moscow_0_512.map.scen,8,BFS,1.0,592,True,208.0000,236.16652222,117713,241.1070,-11.93
Moscow_0_512.map,Moscow_0_512.map.scen,8,BFS,1.0,593,True,214.0000,237.61017303,115211,226.1087,-9.94
Moscow_0_512.map,Moscow_0_512.map.scen,8,BFS,1.0,594,True,217.0000,238.53910522,117166,204.7109,-9.03
Moscow_0_512.map,Moscow_0_512.map.scen,8,BFS,1.0,595,True,213.0000,238.12489166,70802,118.5963,-10.55
Moscow_0_512.map,Moscow_0_512.map.scen,8,BFS,1.0,596,True,192.0000,238.39191894,109586,236.0022,-19.46
Moscow_0_512.map,Moscow_0_512.map.scen,8,BFS,1.0,597,True,220.0000,239.88225098,49372,93.1828,-8.29
Moscow_0_512.map,Moscow_0_512.map.scen,8,BFS,1.0,598,True,173.0000,239.68838348,92545,174.8142,-27.82
