MapName,Scenario,Connectivity,Algorithm,Weight,TaskID,Success,PathLength,OptimalLength,ExpandedNodes,TimeMS,Suboptimality
maze512-1-1.map,maze512-1-1.map.scen,4,BFS,1.0,0,True,3.0000,3.0,8,0.0174,0.00
maze512-1-1.map,maze512-1-1.map.scen,4,BFS,1.0,15,True,6.0000,6.0,17,0.0275,0.00
maze512-1-1.map,maze512-1-1.map.scen,4,BFS,1.0,31,True,12.0000,12.0,35,0.0486,0.00
maze512-1-1.map,maze512-1-1.map.scen,4,BFS,1.0,47,True,17.0000,17.0,61,0.0554,0.00
maze512-1-1.map,maze512-1-1.map.scen,4,BFS,1.0,63,True,24.0000,24.0,88,0.0731,0.00
maze512-1-1.map,maze512-1-1.map.scen,4,BFS,1.0,79,True,30.0000,30.0,73,0.0613,0.00
maze512-1-1.map,maze512-1-1.map.scen,4,BFS,1.0,95,True,38.0000,38.0,100,0.0811,0.00
maze512-1-1.map,maze512-1-1.map.scen,4,BFS,1.0,110,True,44.0000,44.0,140,0.1237,0.00
maze512-1-1.map,maze512-1-1.map.scen,4,BFS,1.0,126,True,51.0000,51.0,198,0.1711,0.00
maze512-1-1.map,maze512-1-1.map.scen,4,BFS,1.0,142,True,58.0000,58.0,287,0.2818,0.00
maze512-1-1.map,maze512-1-1.map.scen,4,BFS,1.0,158,True,61.0000,61.0,221,0.2058,0.00
maze512-1-1.map,maze512-1-1.map.scen,4,BFS,1.0,174,True,71.0000,71.0,301,0.2711,0.00
maze512-1-1.map,maze512-1-1.map.scen,4,BFS,1.0,190,True,77.0000,77.0,203,0.1948,0.00
maze512-1-1.map,maze512-1-1.map.scen,4,BFS,1.0,206,True,81.0000,81.0,135,0.1291,0.00
maze512-1-1.map,maze512-1-1.map.scen,4,BFS,1.0,221,True,90.0000,90.0,483,0.3942,0.00
maze512-1-1.map,maze512-1-1.map.scen,4,BFS,1.0,237,True,92.0000,92.0,251,0.2304,0.00
maze512-1-1.map,maze512-1-1.map.scen,4,BFS,1.0,253,True,101.0000,101.0,335,0.3084,0.00
maze512-1-1.map,maze512-1-1.map.scen,4,BFS,1.0,269,True,104.0000,104.0,421,0.3719,0.00
maze512-1-1.map,maze512-1-1.map.scen,4,BFS,1.0,285,True,112.0000,112.0,259,0.2454,0.00
maze512-1-1.map,maze512-1-1.map.scen,4,BFS,1.0,301,True,121.0000,121.0,413,0.3633,0.00
maze512-1-1.map,maze512-1-1.map.scen,4,BFS,1.0,317,True,124.0000,124.0,391,0.3473,0.00
maze512-1-1.map,maze512-1-1.map.scen,4,BFS,1.0,332,True,132.0000,132.0,603,0.5572,0.00
maze512-1-1.map,maze512-1-1.map.scen,4,BFS,1.0,348,True,136.0000,136.0,687,0.6905,0.00
maze512-1-1.map,maze512-1-1.map.scen,4,BFS,1.0,364,True,147.0000,147.0,424,0.3733,0.00
maze512-1-1.map,maze512-1-1.map.scen,4,BFS,1.0,380,True,152.0000,152.0,615,0.5707,0.00
maze512-1-1.map,maze512-1-1.map.scen,4,BFS,1.0,396,True,156.0000,156.0,677,0.6122,0.00
maze512-1-1.map,maze512-1-1.map.scen,4,BFS,1.0,412,True,164.0000,164.0,1102,0.9279,0.00
maze512-1-1.map,maze512-1-1.map.scen,4,BFS,1.0,427,True,171.0000,171.0,758,0.6653,0.00
maze512-1-1.map,maze512-1-1.map.scen,4,BFS,1.0,443,True,179.0000,179.0,442,0.4020,0.00
maze512-1-1.map,maze512-1-1.map.scen,4,BFS,1.0,459,True,182.0000,182.0,902,0.8165,0.00
maze512-1-1.map,maze512-1-1.map.scen,4,BFS,1.0,475,True,191.0000,191.0,942,0.9803,0.00
maze512-1-1.map,maze512-1-1.map.scen,4,BFS,1.0,491,True,198.0000,198.0,1591,1.5218,0.00
maze512-1-1.map,maze512-1-1.map.scen,4,BFS,1.0,507,True,202.0000,202.0,580,0.5620,0.00
maze512-1-1.map,maze512-1-1.map.scen,4,BFS,1.0,523,True,208.0000,208.0,501,0.4722,0.00
maze512-1-1.map,maze512-1-1.map.scen,4,BFS,1.0,538,True,214.0000,214.0,673,0.6575,0.00
maze512-1-1.map,maze512-1-1.map.scen,4,BFS,1.0,554,True,221.0000,221.0,911,0.7885,0.00
maze512-1-1.map,maze512-1-1.map.scen,4,BFS,1.0,570,True,228.0000,228.0,955,0.8074,0.00
maze512-1-1.map,maze512-1-1.map.scen,4,BFS,1.0,586,True,233.0000,233.0,525,0.4983,0.00
maze512-1-1.map,maze512-1-1.map.scen,4,BFS,1.0,602,True,243.0000,243.0,776,0.6779,0.00
maze512-1-1.map,maze512-1-1.map.scen,4,BFS,1.0,618,True,247.0000,247.0,818,0.7400,0.00
maze512-1-1.map,maze512-1-1.map.scen,4,BFS,1.0,634,True,252.0000,252.0,1795,1.5266,0.00
maze512-1-1.map,maze512-1-1.map.scen,4,BFS,1.0,649,True,257.0000,257.0,749,0.6964,0.00
maze512-1-1.map,maze512-1-1.map.scen,4,BFS,1.0,665,True,265.0000,265.0,888,0.7604,0.00
maze512-1-1.map,maze512-1-1.map.scen,4,BFS,1.0,681,True,272.0000,272.0,1188,1.0435,0.00
maze512-1-1.map,maze512-1-1.map.scen,4,BFS,1.0,697,True,276.0000,276.0,1058,0.9106,0.00
maze512-1-1.map,maze512-1-1.map.scen,4,BFS,1.0,713,True,285.0000,285.0,786,0.7218,0.00
maze512-1-1.map,maze512-1-1.map.scen,4,BFS,1.0,729,True,290.0000,290.0,1753,1.5004,0.00
maze512-1-1.map,maze512-1-1.map.scen,4,BFS,1.0,744,True,299.0000,299.0,2199,2.7279,0.00
maze512-1-1.map,maze512-1-1.map.scen,4,BFS,1.0,760,True,307.0000,307.0,4071,3.4074,0.00
maze512-1-1.map,maze512-1-1.map.scen,4,BFS,1.0,776,True,308.0000,308.0,4335,3.5874,0.00
maze512-1-1.map,maze512-1-1.map.scen,4,BFS,1.0,792,True,318.0000,318.0,4109,3.4252,0.00
maze512-1-1.map,maze512-1-1.map.scen,4,BFS,1.0,808,True,322.0000,322.0,2246,1.8444,0.00
maze512-1-1.map,maze512-1-1.map.scen,4,BFS,1.0,824,True,329.0000,329.0,1615,1.4174,0.00
maze512-1-1.map,maze512-1-1.map.scen,4,BFS,1.0,840,True,338.0000,338.0,2848,2.4104,0.00
maze512-1-1.map,maze512-1-1.map.scen,4,BFS,1.0,855,True,340.0000,340.0,2619,2.1882,0.00
maze512-1-1.map,maze512-1-1.map.scen,4,BFS,1.0,871,True,350.0000,350.0,7396,6.3495,0.00
maze512-1-1.map,maze512-1-1.map.scen,4,BFS,1.0,887,True,352.0000,352.0,1788,1.5177,0.00
maze512-1-1.map,maze512-1-1.map.scen,4,BFS,1.0,903,True,363.0000,363.0,1113,1.0106,0.00
maze512-1-1.map,maze512-1-1.map.scen,4,BFS,1.0,919,True,365.0000,365.0,2072,1.7069,0.00
maze512-1-1.map,maze512-1-1.map.scen,4,BFS,1.0,935,True,373.0000,373.0,2265,1.8816,0.00
maze512-1-1.map,maze512-1-1.map.scen,4,BFS,1.0,951,True,381.0000,381.0,4708,3.8793,0.00
maze512-1-1.map,maze512-1-1.map.scen,4,BFS,1.0,966,True,385.0000,385.0,2662,2.1684,0.00
maze512-1-1.map,maze512-1-1.map.scen,4,BFS,1.0,982,True,395.0000,395.0,2173,1.6908,0.00
maze512-1-1.map,maze512-1-1.map.scen,4,BFS,1.0,998,True,398.0000,398.0,1932,1.5660,0.00
maze512-1-1.map,maze512-1-1.map.scen,4,BFS,1.0,1014,True,405.0000,405.0,8782,7.3002,0.00
maze512-1-1.map,maze512-1-1.map.scen,4,BFS,1.0,1030,True,413.0000,413.0,5098,4.2594,0.00
maze512-1-1.map,maze512-1-1.map.scen,4,BFS,1.0,1046,True,417.0000,417.0,2476,2.0391,0.00
maze512-1-1.map,maze512-1-1.map.scen,4,BFS,1.0,1061,True,424.0000,424.0,5771,4.7140,0.00
maze512-1-1.map,maze512-1-1.map.scen,4,BFS,1.0,1077,True,430.0000,430.0,2823,2.3382,0.00
maze512-1-1.map,maze512-1-1.map.scen,4,BFS,1.0,1093,True,436.0000,436.0,5522,4.7138,0.00
maze512-1-1.map,maze512-1-1.map.scen,4,BFS,1.0,1109,True,443.0000,443.0,2153,1.8085,0.00
maze512-1-1.map,maze512-1-1.map.scen,4,BFS,1.0,1125,True,448.0000,448.0,5079,4.3848,0.00
maze512-1-1.map,maze512-1-1.map.scen,4,BFS,1.0,1141,True,457.0000,457.0,9368,7.5168,0.00
maze512-1-1.map,maze512-1-1.map.scen,4,BFS,1.0,1157,True,461.0000,461.0,3496,2.8310,0.00
maze512-1-1.map,maze512-1-1.map.scen,4,BFS,1.0,1172,True,468.0000,468.0,12953,11.3393,0.00
maze512-1-1.map,maze512-1-1.map.scen,4,BFS,1.0,1188,True,472.0000,472.0,3448,2.8542,0.00
maze512-1-1.map,maze512-1-1.map.scen,4,BFS,1.0,1204,True,480.0000,480.0,2353,1.8608,0.00
maze512-1-1.map,maze512-1-1.map.scen,4,BFS,1.0,1220,True,488.0000,488.0,3724,3.1294,0.00
maze512-1-1.map,maze512-1-1.map.scen,4,BFS,1.0,1236,True,492.0000,492.0,4447,3.5291,0.00
maze512-1-1.map,maze512-1-1.map.scen,4,BFS,1.0,1252,True,502.0000,502.0,3305,2.6813,0.00
maze512-1-1.map,maze512-1-1.map.scen,4,BFS,1.0,1268,True,506.0000,506.0,4289,3.2881,0.00
maze512-1-1.map,maze512-1-1.map.scen,4,BFS,1.0,1283,True,512.0000,512.0,11637,9.5682,0.00
maze512-1-1.map,maze512-1-1.map.scen,4,BFS,1.0,1299,True,519.0000,519.0,3157,2.5451,0.00
maze512-1-1.map,maze512-1-1.map.scen,4,BFS,1.0,1315,True,526.0000,526.0,4206,3.2686,0.00
maze512-1-1.map,maze512-1-1.map.scen,4,BFS,1.0,1331,True,533.0000,533.0,3806,3.1808,0.00
maze512-1-1.map,maze512-1-1.map.scen,4,BFS,1.0,1347,True,538.0000,538.0,2035,1.6754,0.00
maze512-1-1.map,maze512-1-1.map.scen,4,BFS,1.0,1363,True,547.0000,547.0,9365,7.5452,0.00
maze512-1-1.map,maze512-1-1.map.scen,4,BFS,1.0,1378,True,549.0000,549.0,2258,1.7979,0.00
maze512-1-1.map,maze512-1-1.map.scen,4,BFS,1.0,1394,True,556.0000,556.0,11646,9.4858,0.00
maze512-1-1.map,maze512-1-1.map.scen,4,BFS,1.0,1410,True,566.0000,566.0,5481,4.5573,0.00
maze512-1-1.map,maze512-1-1.map.scen,4,BFS,1.0,1426,True,570.0000,570.0,5289,4.8123,0.00
maze512-1-1.map,maze512-1-1.map.scen,4,BFS,1.0,1442,True,576.0000,576.0,3786,3.0138,0.00
maze512-1-1.map,maze512-1-1.map.scen,4,BFS,1.0,1458,True,582.0000,582.0,7189,5.6648,0.00
maze512-1-1.map,maze512-1-1.map.scen,4,BFS,1.0,1474,True,590.0000,590.0,3389,2.6877,0.00
maze512-1-1.map,maze512-1-1.map.scen,4,BFS,1.0,1489,True,593.0000,593.0,2985,2.4515,0.00
maze512-1-1.map,maze512-1-1.map.scen,4,BFS,1.0,1505,True,603.0000,603.0,5038,3.9557,0.00
maze512-1-1.map,maze512-1-1.map.scen,4,BFS,1.0,1521,True,608.0000,608.0,9827,7.9846,0.00
maze512-1-1.map,maze512-1-1.map.scen,4,BFS,1.0,1537,True,613.0000,613.0,1792,1.7328,0.00
maze512-1-1.map,maze512-1-1.map.scen,4,BFS,1.0,1553,True,623.0000,623.0,7155,5.7430,0.00
maze512-1-1.map,maze512-1-1.map.scen,4,BFS,1.0,1569,True,626.0000,626.0,2350,1.8485,0.00
maze512-1-1.map,maze512-1-1.map.scen,4,BFS,1.0,1585,True,632.0000,632.0,21579,19.2035,0.00
maze512-1-1.map,maze512-1-1.map.scen,4,BFS,1.0,1600,True,643.0000,643.0,5628,4.5868,0.00
maze512-1-1.map,maze512-1-1.map.scen,4,BFS,1.0,1616,True,645.0000,645.0,5322,4.3455,0.00
maze512-1-1.map,maze512-1-1.map.scen,4,BFS,1.0,1632,True,654.0000,654.0,8409,6.8365,0.00
maze512-1-1.map,maze512-1-1.map.scen,4,BFS,1.0,1648,True,656.0000,656.0,12846,10.6286,0.00
maze512-1-1.map,maze512-1-1.map.scen,4,BFS,1.0,1664,True,666.0000,666.0,8467,6.7850,0.00
maze512-1-1.map,maze512-1-1.map.scen,4,BFS,1.0,1680,True,674.0000,674.0,23109,19.3089,0.00
maze512-1-1.map,maze512-1-1.map.scen,4,BFS,1.0,1695,True,677.0000,677.0,13278,10.7759,0.00
maze512-1-1.map,maze512-1-1.map.scen,4,BFS,1.0,1711,True,687.0000,687.0,20475,16.8141,0.00
maze512-1-1.map,maze512-1-1.map.scen,4,BFS,1.0,1727,True,689.0000,689.0,2394,2.0527,0.00
maze512-1-1.map,maze512-1-1.map.scen,4,BFS,1.0,1743,True,699.0000,699.0,11728,9.4267,0.00
maze512-1-1.map,maze512-1-1.map.scen,4,BFS,1.0,1759,True,701.0000,701.0,8310,6.5505,0.00
maze512-1-1.map,maze512-1-1.map.scen,4,BFS,1.0,1775,True,709.0000,709.0,11508,9.5007,0.00
maze512-1-1.map,maze512-1-1.map.scen,4,BFS,1.0,1791,True,717.0000,717.0,30103,24.2687,0.00
maze512-1-1.map,maze512-1-1.map.scen,4,BFS,1.0,1806,True,723.0000,723.0,19183,14.7147,0.00
maze512-1-1.map,maze512-1-1.map.scen,4,BFS,1.0,1822,True,729.0000,729.0,24990,20.8914,0.00
maze512-1-1.map,maze512-1-1.map.scen,4,BFS,1.0,1838,True,735.0000,735.0,16382,12.8110,0.00
maze512-1-1.map,maze512-1-1.map.scen,4,BFS,1.0,1854,True,740.0000,740.0,27378,21.7759,0.00
maze512-1-1.map,maze512-1-1.map.scen,4,BFS,1.0,1870,True,749.0000,749.0,14925,12.0699,0.00
maze512-1-1.map,maze512-1-1.map.scen,4,BFS,1.0,1886,True,752.0000,752.0,7339,5.9906,0.00
maze512-1-1.map,maze512-1-1.map.scen,4,BFS,1.0,1902,True,761.0000,761.0,34595,27.8213,0.00
maze512-1-1.map,maze512-1-1.map.scen,4,BFS,1.0,1917,True,765.0000,765.0,11496,10.3686,0.00
maze512-1-1.map,maze512-1-1.map.scen,4,BFS,1.0,1933,True,774.0000,774.0,8101,6.6687,0.00
maze512-1-1.map,maze512-1-1.map.scen,4,BFS,1.0,1949,True,776.0000,776.0,5477,4.5385,0.00
maze512-1-1.map,maze512-1-1.map.scen,4,BFS,1.0,1965,True,786.0000,786.0,7215,6.0862,0.00
maze512-1-1.map,maze512-1-1.map.scen,4,BFS,1.0,1981,True,793.0000,793.0,9124,7.5005,0.00
maze512-1-1.map,maze512-1-1.map.scen,4,BFS,1.0,1997,True,798.0000,798.0,5051,4.1645,0.00
maze512-1-1.map,maze512-1-1.map.scen,4,BFS,1.0,2012,True,805.0000,805.0,14127,11.4342,0.00
maze512-1-1.map,maze512-1-1.map.scen,4,BFS,1.0,2028,True,811.0000,811.0,12087,10.2481,0.00
maze512-1-1.map,maze512-1-1.map.scen,4,BFS,1.0,2044,True,819.0000,819.0,27966,23.1328,0.00
maze512-1-1.map,maze512-1-1.map.scen,4,BFS,1.0,2060,True,827.0000,827.0,40694,33.5710,0.00
maze512-1-1.map,maze512-1-1.map.scen,4,BFS,1.0,2076,True,828.0000,828.0,12342,10.0470,0.00
maze512-1-1.map,maze512-1-1.map.scen,4,BFS,1.0,2092,True,837.0000,837.0,6669,5.4483,0.00
maze512-1-1.map,maze512-1-1.map.scen,4,BFS,1.0,2108,True,840.0000,840.0,6481,5.3307,0.00
maze512-1-1.map,maze512-1-1.map.scen,4,BFS,1.0,2123,True,849.0000,849.0,8927,7.3252,0.00
maze512-1-1.map,maze512-1-1.map.scen,4,BFS,1.0,2139,True,854.0000,854.0,2753,2.2568,0.00
maze512-1-1.map,maze512-1-1.map.scen,4,BFS,1.0,2155,True,860.0000,860.0,30945,25.8383,0.00
maze512-1-1.map,maze512-1-1.map.scen,4,BFS,1.0,2171,True,871.0000,871.0,30907,25.5019,0.00
maze512-1-1.map,maze512-1-1.map.scen,4,BFS,1.0,2187,True,875.0000,875.0,9309,7.3868,0.00
maze512-1-1.map,maze512-1-1.map.scen,4,BFS,1.0,2203,True,882.0000,882.0,23221,19.6814,0.00
maze512-1-1.map,maze512-1-1.map.scen,4,BFS,1.0,2219,True,885.0000,885.0,5841,4.7725,0.00
maze512-1-1.map,maze512-1-1.map.scen,4,BFS,1.0,2234,True,894.0000,894.0,25793,20.9787,0.00
maze512-1-1.map,maze512-1-1.map.scen,4,BFS,1.0,2250,True,901.0000,901.0,16403,12.9044,0.00
maze512-1-1.map,maze512-1-1.map.scen,4,BFS,1.0,2266,True,904.0000,904.0,7467,5.9130,0.00
maze512-1-1.map,maze512-1-1.map.scen,4,BFS,1.0,2282,True,914.0000,914.0,13102,10.1909,0.00
maze512-1-1.map,maze512-1-1.map.scen,4,BFS,1.0,2298,True,918.0000,918.0,6374,5.7448,0.00
maze512-1-1.map,maze512-1-1.map.scen,4,BFS,1.0,2314,True,925.0000,925.0,12036,10.0069,0.00
maze512-1-1.map,maze512-1-1.map.scen,4,BFS,1.0,2329,True,931.0000,931.0,17042,14.0325,0.00
maze512-1-1.map,maze512-1-1.map.scen,4,BFS,1.0,2345,True,938.0000,938.0,6737,5.6891,0.00
maze512-1-1.map,maze512-1-1.map.scen,4,BFS,1.0,2361,True,946.0000,946.0,30190,24.1951,0.00
maze512-1-1.map,maze512-1-1.map.scen,4,BFS,1.0,2377,True,948.0000,948.0,4472,3.5339,0.00
maze512-1-1.map,maze512-1-1.map.scen,4,BFS,1.0,2393,True,957.0000,957.0,17968,13.7453,0.00
maze512-1-1.map,maze512-1-1.map.scen,4,BFS,1.0,2409,True,961.0000,961.0,6552,5.2936,0.00
maze512-1-1.map,maze512-1-1.map.scen,4,BFS,1.0,2425,True,969.0000,969.0,38468,31.4040,0.00
maze512-1-1.map,maze512-1-1.map.scen,4,BFS,1.0,2440,True,978.0000,978.0,15055,11.6392,0.00
maze512-1-1.map,maze512-1-1.map.scen,4,BFS,1.0,2456,True,981.0000,981.0,14349,11.2725,0.00
maze512-1-1.map,maze512-1-1.map.scen,4,BFS,1.0,2472,True,990.0000,990.0,27281,22.0090,0.00
maze512-1-1.map,maze512-1-1.map.scen,4,BFS,1.0,2488,True,992.0000,992.0,29829,23.5851,0.00
maze512-1-1.map,maze512-1-1.map.scen,4,BFS,1.0,2504,True,1002.0000,1002.0,13859,11.9469,0.00
maze512-1-1.map,maze512-1-1.map.scen,4,BFS,1.0,2520,True,1011.0000,1011.0,18985,14.8398,0.00
maze512-1-1.map,maze512-1-1.map.scen,4,BFS,1.0,2536,True,1012.0000,1012.0,41521,33.3642,0.00
maze512-1-1.map,maze512-1-1.map.scen,4,BFS,1.0,2551,True,1022.0000,1022.0,12672,10.7536,0.00
maze512-1-1.map,maze512-1-1.map.scen,4,BFS,1.0,2567,True,1025.0000,1025.0,12922,10.5510,0.00
maze512-1-1.map,maze512-1-1.map.scen,4,BFS,1.0,2583,True,1033.0000,1033.0,9529,7.6375,0.00
maze512-1-1.map,maze512-1-1.map.scen,4,BFS,1.0,2599,True,1036.0000,1036.0,11724,10.4301,0.00
maze512-1-1.map,maze512-1-1.map.scen,4,BFS,1.0,2615,True,1044.0000,1044.0,12996,10.6053,0.00
maze512-1-1.map,maze512-1-1.map.scen,4,BFS,1.0,2631,True,1053.0000,1053.0,33763,27.8156,0.00
maze512-1-1.map,maze512-1-1.map.scen,4,BFS,1.0,2646,True,1059.0000,1059.0,26701,21.3053,0.00
maze512-1-1.map,maze512-1-1.map.scen,4,BFS,1.0,2662,True,1066.0000,1066.0,58751,49.2793,0.00
maze512-1-1.map,maze512-1-1.map.scen,4,BFS,1.0,2678,True,1070.0000,1070.0,49953,42.6871,0.00
maze512-1-1.map,maze512-1-1.map.scen,4,BFS,1.0,2694,True,1077.0000,1077.0,12909,10.5246,0.00
maze512-1-1.map,maze512-1-1.map.scen,4,BFS,1.0,2710,True,1085.0000,1085.0,21808,18.5066,0.00
maze512-1-1.map,maze512-1-1.map.scen,4,BFS,1.0,2726,True,1089.0000,1089.0,31314,25.8923,0.00
maze512-1-1.map,maze512-1-1.map.scen,4,BFS,1.0,2742,True,1098.0000,1098.0,31960,25.2941,0.00
maze512-1-1.map,maze512-1-1.map.scen,4,BFS,1.0,2757,True,1102.0000,1102.0,32119,25.7723,0.00
maze512-1-1.map,maze512-1-1.map.scen,4,BFS,1.0,2773,True,1110.0000,1110.0,21464,18.3126,0.00
maze512-1-1.map,maze512-1-1.map.scen,4,BFS,1.0,2789,True,1115.0000,1115.0,52468,43.7812,0.00
maze512-1-1.map,maze512-1-1.map.scen,4,BFS,1.0,2805,True,1120.0000,1120.0,19866,15.2612,0.00
maze512-1-1.map,maze512-1-1.map.scen,4,BFS,1.0,2821,True,1128.0000,1128.0,43261,37.9517,0.00
maze512-1-1.map,maze512-1-1.map.scen,4,BFS,1.0,2837,True,1132.0000,1132.0,24046,19.6236,0.00
maze512-1-1.map,maze512-1-1.map.scen,4,BFS,1.0,2853,True,1142.0000,1142.0,7960,6.8078,0.00
maze512-1-1.map,maze512-1-1.map.scen,4,BFS,1.0,2868,True,1146.0000,1146.0,32251,26.6072,0.00
maze512-1-1.map,maze512-1-1.map.scen,4,BFS,1.0,2884,True,1154.0000,1154.0,14947,11.9730,0.00
maze512-1-1.map,maze512-1-1.map.scen,4,BFS,1.0,2900,True,1163.0000,1163.0,34435,28.5842,0.00
maze512-1-1.map,maze512-1-1.map.scen,4,BFS,1.0,2916,True,1167.0000,1167.0,12036,9.9026,0.00
maze512-1-1.map,maze512-1-1.map.scen,4,BFS,1.0,2932,True,1173.0000,1173.0,29545,23.5737,0.00
maze512-1-1.map,maze512-1-1.map.scen,4,BFS,1.0,2948,True,1177.0000,1177.0,62100,50.9081,0.00
maze512-1-1.map,maze512-1-1.map.scen,4,BFS,1.0,2963,True,1185.0000,1185.0,21497,18.3810,0.00
maze512-1-1.map,maze512-1-1.map.scen,4,BFS,1.0,2979,True,1189.0000,1189.0,19797,16.3407,0.00
maze512-1-1.map,maze512-1-1.map.scen,4,BFS,1.0,2995,True,1197.0000,1197.0,10136,7.7663,0.00
maze512-1-1.map,maze512-1-1.map.scen,4,BFS,1.0,3011,True,1204.0000,1204.0,25106,20.3545,0.00
maze512-1-1.map,maze512-1-1.map.scen,4,BFS,1.0,3027,True,1209.0000,1209.0,16173,12.9024,0.00
maze512-1-1.map,maze512-1-1.map.scen,4,BFS,1.0,3043,True,1217.0000,1217.0,21503,17.2158,0.00
maze512-1-1.map,maze512-1-1.map.scen,4,BFS,1.0,3059,True,1222.0000,1222.0,24408,20.5473,0.00
maze512-1-1.map,maze512-1-1.map.scen,4,BFS,1.0,3074,True,1230.0000,1230.0,42114,36.3152,0.00
maze512-1-1.map,maze512-1-1.map.scen,4,BFS,1.0,3090,True,1237.0000,1237.0,15282,11.7770,0.00
maze512-1-1.map,maze512-1-1.map.scen,4,BFS,1.0,3106,True,1241.0000,1241.0,46499,41.3459,0.00
maze512-1-1.map,maze512-1-1.map.scen,4,BFS,1.0,3122,True,1249.0000,1249.0,36151,29.1613,0.00
maze512-1-1.map,maze512-1-1.map.scen,4,BFS,1.0,3138,True,1255.0000,1255.0,57491,46.7671,0.00
maze512-1-1.map,maze512-1-1.map.scen,4,BFS,1.0,3154,True,1260.0000,1260.0,27243,21.8959,0.00
maze512-1-1.map,maze512-1-1.map.scen,4,BFS,1.0,3170,True,1269.0000,1269.0,61176,48.6207,0.00
maze512-1-1.map,maze512-1-1.map.scen,4,BFS,1.0,3185,True,1272.0000,1272.0,54720,44.7696,0.00
maze512-1-1.map,maze512-1-1.map.scen,4,BFS,1.0,3201,True,1283.0000,1283.0,63497,49.9755,0.00
maze512-1-1.map,maze512-1-1.map.scen,4,BFS,1.0,3217,True,1284.0000,1284.0,32346,26.2866,0.00
maze512-1-1.map,maze512-1-1.map.scen,4,BFS,1.0,3233,True,1292.0000,1292.0,37107,30.4843,0.00
maze512-1-1.map,maze512-1-1.map.scen,4,BFS,1.0,3249,True,1298.0000,1298.0,62153,50.4837,0.00
maze512-1-1.map,maze512-1-1.map.scen,4,BFS,1.0,3265,True,1306.0000,1306.0,28067,23.4611,0.00
maze512-1-1.map,maze512-1-1.map.scen,4,BFS,1.0,3280,True,1315.0000,1315.0,52725,42.4820,0.00
maze512-1-1.map,maze512-1-1.map.scen,4,BFS,1.0,3296,True,1319.0000,1319.0,52998,43.4918,0.00
maze512-1-1.map,maze512-1-1.map.scen,4,BFS,1.0,3312,True,1326.0000,1326.0,18447,14.4289,0.00
maze512-1-1.map,maze512-1-1.map.scen,4,BFS,1.0,3328,True,1328.0000,1328.0,23971,19.3913,0.00
maze512-1-1.map,maze512-1-1.map.scen,4,BFS,1.0,3344,True,1337.0000,1337.0,34475,27.5665,0.00
maze512-1-1.map,maze512-1-1.map.scen,4,BFS,1.0,3360,True,1347.0000,1347.0,21944,19.3187,0.00
maze512-1-1.map,maze512-1-1.map.scen,4,BFS,1.0,3376,True,1349.0000,1349.0,48301,40.3239,0.00
maze512-1-1.map,maze512-1-1.map.scen,4,BFS,1.0,3391,True,1358.0000,1358.0,9872,7.7929,0.00
maze512-1-1.map,maze512-1-1.map.scen,4,BFS,1.0,3407,True,1361.0000,1361.0,13590,11.4026,0.00
maze512-1-1.map,maze512-1-1.map.scen,4,BFS,1.0,3423,True,1371.0000,1371.0,12630,10.2267,0.00
maze512-1-1.map,maze512-1-1.map.scen,4,BFS,1.0,3439,True,1375.0000,1375.0,54156,45.9334,0.00
maze512-1-1.map,maze512-1-1.map.scen,4,BFS,1.0,3455,True,1380.0000,1380.0,16905,13.1156,0.00
maze512-1-1.map,maze512-1-1.map.scen,4,BFS,1.0,3471,True,1391.0000,1391.0,56420,45.2731,0.00
maze512-1-1.map,maze512-1-1.map.scen,4,BFS,1.0,3487,True,1395.0000,1395.0,8691,6.8015,0.00
maze512-1-1.map,maze512-1-1.map.scen,4,BFS,1.0,3502,True,1403.0000,1403.0,13773,11.9384,0.00
maze512-1-1.map,maze512-1-1.map.scen,4,BFS,1.0,3518,True,1406.0000,1406.0,61067,51.2250,0.00
maze512-1-1.map,maze512-1-1.map.scen,4,BFS,1.0,3534,True,1415.0000,1415.0,58503,47.1098,0.00
maze512-1-1.map,maze512-1-1.map.scen,4,BFS,1.0,3550,True,1423.0000,1423.0,47143,38.2869,0.00
maze512-1-1.map,maze512-1-1.map.scen,4,BFS,1.0,3566,True,1424.0000,1424.0,49923,40.2777,0.00
maze512-1-1.map,maze512-1-1.map.scen,4,BFS,1.0,3582,True,1433.0000,1433.0,35601,28.5791,0.00
maze512-1-1.map,maze512-1-1.map.scen,4,BFS,1.0,3597,True,1437.0000,1437.0,56483,46.1631,0.00
maze512-1-1.map,maze512-1-1.map.scen,4,BFS,1.0,3613,True,1447.0000,1447.0,14420,11.6868,0.00
maze512-1-1.map,maze512-1-1.map.scen,4,BFS,1.0,3629,True,1451.0000,1451.0,40929,33.3057,0.00
maze512-1-1.map,maze512-1-1.map.scen,4,BFS,1.0,3645,True,1456.0000,1456.0,62197,50.6707,0.00
maze512-1-1.map,maze512-1-1.map.scen,4,BFS,1.0,3661,True,1466.0000,1466.0,42600,36.3224,0.00
maze512-1-1.map,maze512-1-1.map.scen,4,BFS,1.0,3677,True,1469.0000,1469.0,19253,15.5301,0.00
maze512-1-1.map,maze512-1-1.map.scen,4,BFS,1.0,3693,True,1476.0000,1476.0,56169,46.5694,0.00
maze512-1-1.map,maze512-1-1.map.scen,4,BFS,1.0,3708,True,1481.0000,1481.0,47425,39.0879,0.00
maze512-1-1.map,maze512-1-1.map.scen,4,BFS,1.0,3724,True,1491.0000,1491.0,56314,45.4292,0.00
maze512-1-1.map,maze512-1-1.map.scen,4,BFS,1.0,3740,True,1499.0000,1499.0,24213,19.3871,0.00
maze512-1-1.map,maze512-1-1.map.scen,4,BFS,1.0,3756,True,1501.0000,1501.0,27530,22.4106,0.00
maze512-1-1.map,maze512-1-1.map.scen,4,BFS,1.0,3772,True,1508.0000,1508.0,62729,51.6125,0.00
maze512-1-1.map,maze512-1-1.map.scen,4,BFS,1.0,3788,True,1515.0000,1515.0,29996,24.4658,0.00
maze512-1-1.map,maze512-1-1.map.scen,4,BFS,1.0,3804,True,1520.0000,1520.0,56389,45.5985,0.00
maze512-1-1.map,maze512-1-1.map.scen,4,BFS,1.0,3819,True,1526.0000,1526.0,55745,45.2146,0.00
maze512-1-1.map,maze512-1-1.map.scen,4,BFS,1.0,3835,True,1533.0000,1533.0,37879,30.2928,0.00
maze512-1-1.map,maze512-1-1.map.scen,4,BFS,1.0,3851,True,1540.0000,1540.0,44012,36.2883,0.00
maze512-1-1.map,maze512-1-1.map.scen,4,BFS,1.0,3867,True,1547.0000,1547.0,49966,42.5160,0.00
maze512-1-1.map,maze512-1-1.map.scen,4,BFS,1.0,3883,True,1555.0000,1555.0,5998,4.8946,0.00
maze512-1-1.map,maze512-1-1.map.scen,4,BFS,1.0,3899,True,1558.0000,1558.0,42254,37.4190,0.00
maze512-1-1.map,maze512-1-1.map.scen,4,BFS,1.0,3914,True,1567.0000,1567.0,21771,18.0441,0.00
maze512-1-1.map,maze512-1-1.map.scen,4,BFS,1.0,3930,True,1572.0000,1572.0,32080,26.2582,0.00
maze512-1-1.map,maze512-1-1.map.scen,4,BFS,1.0,3946,True,1579.0000,1579.0,22700,18.7926,0.00
maze512-1-1.map,maze512-1-1.map.scen,4,BFS,1.0,3962,True,1585.0000,1585.0,27243,22.3687,0.00
maze512-1-1.map,maze512-1-1.map.scen,4,BFS,1.0,3978,True,1591.0000,1591.0,61555,50.9554,0.00
maze512-1-1.map,maze512-1-1.map.scen,4,BFS,1.0,3994,True,1598.0000,1598.0,54924,44.1893,0.00
maze512-1-1.map,maze512-1-1.map.scen,4,BFS,1.0,4010,True,1605.0000,1605.0,81397,64.5739,0.00
maze512-1-1.map,maze512-1-1.map.scen,4,BFS,1.0,4025,True,1609.0000,1609.0,76287,59.2639,0.00
maze512-1-1.map,maze512-1-1.map.scen,4,BFS,1.0,4041,True,1616.0000,1616.0,61618,49.4355,0.00
maze512-1-1.map,maze512-1-1.map.scen,4,BFS,1.0,4057,True,1623.0000,1623.0,62988,49.6986,0.00
maze512-1-1.map,maze512-1-1.map.scen,4,BFS,1.0,4073,True,1631.0000,1631.0,56244,44.8172,0.00
maze512-1-1.map,maze512-1-1.map.scen,4,BFS,1.0,4089,True,1635.0000,1635.0,38974,30.8846,0.00
maze512-1-1.map,maze512-1-1.map.scen,4,BFS,1.0,4105,True,1641.0000,1641.0,28672,23.1382,0.00
maze512-1-1.map,maze512-1-1.map.scen,4,BFS,1.0,4121,True,1648.0000,1648.0,35728,28.5923,0.00
maze512-1-1.map,maze512-1-1.map.scen,4,BFS,1.0,4136,True,1655.0000,1655.0,61432,50.6922,0.00
maze512-1-1.map,maze512-1-1.map.scen,4,BFS,1.0,4152,True,1660.0000,1660.0,64512,51.4800,0.00
maze512-1-1.map,maze512-1-1.map.scen,4,BFS,1.0,4168,True,1665.0000,1665.0,60636,48.5021,0.00
maze512-1-1.map,maze512-1-1.map.scen,4,BFS,1.0,4184,True,1675.0000,1675.0,49442,40.3495,0.00
maze512-1-1.map,maze512-1-1.map.scen,4,BFS,1.0,4200,True,1680.0000,1680.0,52083,42.0079,0.00
maze512-1-1.map,maze512-1-1.map.scen,4,BFS,1.0,4216,True,1687.0000,1687.0,30716,24.6956,0.00
maze512-1-1.map,maze512-1-1.map.scen,4,BFS,1.0,4231,True,1694.0000,1694.0,12105,10.1615,0.00
maze512-1-1.map,maze512-1-1.map.scen,4,BFS,1.0,4247,True,1698.0000,1698.0,25374,20.5629,0.00
maze512-1-1.map,maze512-1-1.map.scen,4,BFS,1.0,4263,True,1707.0000,1707.0,48081,39.7222,0.00
maze512-1-1.map,maze512-1-1.map.scen,4,BFS,1.0,4279,True,1709.0000,1709.0,19262,15.5183,0.00
maze512-1-1.map,maze512-1-1.map.scen,4,BFS,1.0,4295,True,1718.0000,1718.0,57110,47.3673,0.00
maze512-1-1.map,maze512-1-1.map.scen,4,BFS,1.0,4311,True,1727.0000,1727.0,49218,41.2067,0.00
maze512-1-1.map,maze512-1-1.map.scen,4,BFS,1.0,4327,True,1728.0000,1728.0,32051,25.5234,0.00
maze512-1-1.map,maze512-1-1.map.scen,4,BFS,1.0,4342,True,1736.0000,1736.0,62887,51.2343,0.00
maze512-1-1.map,maze512-1-1.map.scen,4,BFS,1.0,4358,True,1740.0000,1740.0,22128,18.3936,0.00
maze512-1-1.map,maze512-1-1.map.scen,4,BFS,1.0,4374,True,1749.0000,1749.0,61583,50.0928,0.00
maze512-1-1.map,maze512-1-1.map.scen,4,BFS,1.0,4390,True,1758.0000,1758.0,15990,12.4177,0.00
maze512-1-1.map,maze512-1-1.map.scen,4,BFS,1.0,4406,True,1763.0000,1763.0,43197,36.7195,0.00
maze512-1-1.map,maze512-1-1.map.scen,4,BFS,1.0,4422,True,1770.0000,1770.0,71991,57.7515,0.00
maze512-1-1.map,maze512-1-1.map.scen,4,BFS,1.0,4438,True,1773.0000,1773.0,49482,40.4369,0.00
maze512-1-1.map,maze512-1-1.map.scen,4,BFS,1.0,4453,True,1781.0000,1781.0,82738,66.0072,0.00
maze512-1-1.map,maze512-1-1.map.scen,4,BFS,1.0,4469,True,1784.0000,1784.0,31636,25.1726,0.00
maze512-1-1.map,maze512-1-1.map.scen,4,BFS,1.0,4485,True,1795.0000,1795.0,23608,19.1622,0.00
maze512-1-1.map,maze512-1-1.map.scen,4,BFS,1.0,4501,True,1801.0000,1801.0,20758,17.3180,0.00
maze512-1-1.map,maze512-1-1.map.scen,4,BFS,1.0,4517,True,1807.0000,1807.0,66174,56.5744,0.00
maze512-1-1.map,maze512-1-1.map.scen,4,BFS,1.0,4533,True,1813.0000,1813.0,43194,36.1104,0.00
maze512-1-1.map,maze512-1-1.map.scen,4,BFS,1.0,4548,True,1816.0000,1816.0,33910,28.6898,0.00
maze512-1-1.map,maze512-1-1.map.scen,4,BFS,1.0,4564,True,1827.0000,1827.0,39677,32.5823,0.00
maze512-1-1.map,maze512-1-1.map.scen,4,BFS,1.0,4580,True,1835.0000,1835.0,25529,20.2134,0.00
maze512-1-1.map,maze512-1-1.map.scen,4,BFS,1.0,4596,True,1839.0000,1839.0,51278,44.1146,0.00
maze512-1-1.map,maze512-1-1.map.scen,4,BFS,1.0,4612,True,1847.0000,1847.0,17361,13.7124,0.00
maze512-1-1.map,maze512-1-1.map.scen,4,BFS,1.0,4628,True,1849.0000,1849.0,61396,51.7630,0.00
maze512-1-1.map,maze512-1-1.map.scen,4,BFS,1.0,4644,True,1859.0000,1859.0,83255,68.7581,0.00
maze512-1-1.map,maze512-1-1.map.scen,4,BFS,1.0,4659,True,1860.0000,1860.0,19472,15.3393,0.00
maze512-1-1.map,maze512-1-1.map.scen,4,BFS,1.0,4675,True,1868.0000,1868.0,42135,35.7467,0.00
maze512-1-1.map,maze512-1-1.map.scen,4,BFS,1.0,4691,True,1879.0000,1879.0,75789,60.9229,0.00
maze512-1-1.map,maze512-1-1.map.scen,4,BFS,1.0,4707,True,1882.0000,1882.0,51448,42.7583,0.00
maze512-1-1.map,maze512-1-1.map.scen,4,BFS,1.0,4723,True,1889.0000,1889.0,32186,25.5703,0.00
maze512-1-1.map,maze512-1-1.map.scen,4,BFS,1.0,4739,True,1894.0000,1894.0,39299,32.9624,0.00
maze512-1-1.map,maze512-1-1.map.scen,4,BFS,1.0,4755,True,1901.0000,1901.0,52992,44.1491,0.00
maze512-1-1.map,maze512-1-1.map.scen,4,BFS,1.0,4770,True,1908.0000,1908.0,39337,31.1045,0.00
maze512-1-1.map,maze512-1-1.map.scen,4,BFS,1.0,4786,True,1912.0000,1912.0,57167,45.8987,0.00
maze512-1-1.map,maze512-1-1.map.scen,4,BFS,1.0,4802,True,1923.0000,1923.0,43652,36.4078,0.00
maze512-1-1.map,maze512-1-1.map.scen,4,BFS,1.0,4818,True,1925.0000,1925.0,79936,65.7437,0.00
maze512-1-1.map,maze512-1-1.map.scen,4,BFS,1.0,4834,True,1935.0000,1935.0,43957,37.4059,0.00
maze512-1-1.map,maze512-1-1.map.scen,4,BFS,1.0,4850,True,1941.0000,1941.0,66409,54.2422,0.00
maze512-1-1.map,maze512-1-1.map.scen,4,BFS,1.0,4865,True,1947.0000,1947.0,17655,13.6000,0.00
maze512-1-1.map,maze512-1-1.map.scen,4,BFS,1.0,4881,True,1953.0000,1953.0,64892,52.4343,0.00
maze512-1-1.map,maze512-1-1.map.scen,4,BFS,1.0,4897,True,1958.0000,1958.0,74300,60.2384,0.00
maze512-1-1.map,maze512-1-1.map.scen,4,BFS,1.0,4913,True,1966.0000,1966.0,52187,43.7593,0.00
maze512-1-1.map,maze512-1-1.map.scen,4,BFS,1.0,4929,True,1968.0000,1968.0,80452,64.0925,0.00
maze512-1-1.map,maze512-1-1.map.scen,4,BFS,1.0,4945,True,1978.0000,1978.0,41755,32.9047,0.00
maze512-1-1.map,maze512-1-1.map.scen,4,BFS,1.0,4961,True,1986.0000,1986.0,47487,39.2418,0.00
maze512-1-1.map,maze512-1-1.map.scen,4,BFS,1.0,4976,True,1991.0000,1991.0,42986,37.0988,0.00
maze512-1-1.map,maze512-1-1.map.scen,4,BFS,1.0,4992,True,1996.0000,1996.0,67862,56.2024,0.00
maze512-1-1.map,maze512-1-1.map.scen,4,BFS,1.0,5008,True,2000.0000,2000.0,83522,69.2233,0.00
maze512-1-1.map,maze512-1-1.map.scen,4,BFS,1.0,5024,True,2009.0000,2009.0,85350,74.1103,0.00
maze512-1-1.map,maze512-1-1.map.scen,4,BFS,1.0,5040,True,2019.0000,2019.0,79379,65.1693,0.00
maze512-1-1.map,maze512-1-1.map.scen,4,BFS,1.0,5056,True,2023.0000,2023.0,27775,22.6552,0.00
maze512-1-1.map,maze512-1-1.map.scen,4,BFS,1.0,5072,True,2031.0000,2031.0,88734,75.0175,0.00
maze512-1-1.map,maze512-1-1.map.scen,4,BFS,1.0,5087,True,2033.0000,2033.0,41089,32.4960,0.00
maze512-1-1.map,maze512-1-1.map.scen,4,BFS,1.0,5103,True,2042.0000,2042.0,73638,61.0319,0.00
maze512-1-1.map,maze512-1-1.map.scen,4,BFS,1.0,5119,True,2046.0000,2046.0,19155,15.3379,0.00
maze512-1-1.map,maze512-1-1.map.scen,4,BFS,1.0,5135,True,2054.0000,2054.0,82598,67.8453,0.00
maze512-1-1.map,maze512-1-1.map.scen,4,BFS,1.0,5151,True,2060.0000,2060.0,87075,74.3115,0.00
maze512-1-1.map,maze512-1-1.map.scen,4,BFS,1.0,5167,True,2065.0000,2065.0,37907,30.6742,0.00
maze512-1-1.map,maze512-1-1.map.scen,4,BFS,1.0,5182,True,2074.0000,2074.0,20109,16.4787,0.00
maze512-1-1.map,maze512-1-1.map.scen,4,BFS,1.0,5198,True,2079.0000,2079.0,60220,49.0690,0.00
maze512-1-1.map,maze512-1-1.map.scen,4,BFS,1.0,5214,True,2087.0000,2087.0,76048,60.9361,0.00
maze512-1-1.map,maze512-1-1.map.scen,4,BFS,1.0,5230,True,2094.0000,2094.0,89401,76.2038,0.00
maze512-1-1.map,maze512-1-1.map.scen,4,BFS,1.0,5246,True,2096.0000,2096.0,73412,59.4446,0.00
maze512-1-1.map,maze512-1-1.map.scen,4,BFS,1.0,5262,True,2105.0000,2105.0,77115,61.7958,0.00
maze512-1-1.map,maze512-1-1.map.scen,4,BFS,1.0,5278,True,2110.0000,2110.0,83443,66.3582,0.00
maze512-1-1.map,maze512-1-1.map.scen,4,BFS,1.0,5293,True,2118.0000,2118.0,75217,60.5367,0.00
maze512-1-1.map,maze512-1-1.map.scen,4,BFS,1.0,5309,True,2120.0000,2120.0,73601,59.3487,0.00
maze512-1-1.map,maze512-1-1.map.scen,4,BFS,1.0,5325,True,2131.0000,2131.0,65159,53.6028,0.00
maze512-1-1.map,maze512-1-1.map.scen,4,BFS,1.0,5341,True,2136.0000,2136.0,68217,55.9753,0.00
maze512-1-1.map,maze512-1-1.map.scen,4,BFS,1.0,5357,True,2141.0000,2141.0,57491,47.1944,0.00
maze512-1-1.map,maze512-1-1.map.scen,4,BFS,1.0,5373,True,2151.0000,2151.0,82437,66.4947,0.00
maze512-1-1.map,maze512-1-1.map.scen,4,BFS,1.0,5389,True,2154.0000,2154.0,67936,54.6895,0.00
maze512-1-1.map,maze512-1-1.map.scen,4,BFS,1.0,5404,True,2161.0000,2161.0,12891,10.7597,0.00
maze512-1-1.map,maze512-1-1.map.scen,4,BFS,1.0,5420,True,2171.0000,2171.0,50989,42.2826,0.00
maze512-1-1.map,maze512-1-1.map.scen,4,BFS,1.0,5436,True,2174.0000,2174.0,26603,21.7185,0.00
maze512-1-1.map,maze512-1-1.map.scen,4,BFS,1.0,5452,True,2182.0000,2182.0,34746,28.7760,0.00
maze512-1-1.map,maze512-1-1.map.scen,4,BFS,1.0,5468,True,2184.0000,2184.0,79428,66.0629,0.00
maze512-1-1.map,maze512-1-1.map.scen,4,BFS,1.0,5484,True,2193.0000,2193.0,86178,74.3485,0.00
maze512-1-1.map,maze512-1-1.map.scen,4,BFS,1.0,5499,True,2199.0000,2199.0,83339,66.6309,0.00
maze512-1-1.map,maze512-1-1.map.scen,4,BFS,1.0,5515,True,2206.0000,2206.0,72673,59.2920,0.00
maze512-1-1.map,maze512-1-1.map.scen,4,BFS,1.0,5531,True,2212.0000,2212.0,88870,77.2619,0.00
maze512-1-1.map,maze512-1-1.map.scen,4,BFS,1.0,5547,True,2217.0000,2217.0,44172,37.0699,0.00
maze512-1-1.map,maze512-1-1.map.scen,4,BFS,1.0,5563,True,2227.0000,2227.0,54710,45.3311,0.00
maze512-1-1.map,maze512-1-1.map.scen,4,BFS,1.0,5579,True,2231.0000,2231.0,62972,51.8256,0.00
maze512-1-1.map,maze512-1-1.map.scen,4,BFS,1.0,5595,True,2236.0000,2236.0,37404,30.1894,0.00
maze512-1-1.map,maze512-1-1.map.scen,4,BFS,1.0,5610,True,2246.0000,2246.0,68215,56.2004,0.00
maze512-1-1.map,maze512-1-1.map.scen,4,BFS,1.0,5626,True,2248.0000,2248.0,85962,74.2149,0.00
maze512-1-1.map,maze512-1-1.map.scen,4,BFS,1.0,5642,True,2259.0000,2259.0,86121,74.0710,0.00
maze512-1-1.map,maze512-1-1.map.scen,4,BFS,1.0,5658,True,2263.0000,2263.0,75361,60.9608,0.00
maze512-1-1.map,maze512-1-1.map.scen,4,BFS,1.0,5674,True,2269.0000,2269.0,45196,38.4400,0.00
maze512-1-1.map,maze512-1-1.map.scen,4,BFS,1.0,5690,True,2276.0000,2276.0,78245,63.2630,0.00
maze512-1-1.map,maze512-1-1.map.scen,4,BFS,1.0,5706,True,2283.0000,2283.0,85229,72.8796,0.00
maze512-1-1.map,maze512-1-1.map.scen,4,BFS,1.0,5721,True,2289.0000,2289.0,59046,47.8511,0.00
maze512-1-1.map,maze512-1-1.map.scen,4,BFS,1.0,5737,True,2294.0000,2294.0,31099,25.3460,0.00
maze512-1-1.map,maze512-1-1.map.scen,4,BFS,1.0,5753,True,2303.0000,2303.0,85960,75.7013,0.00
maze512-1-1.map,maze512-1-1.map.scen,4,BFS,1.0,5769,True,2304.0000,2304.0,90179,78.0294,0.00
maze512-1-1.map,maze512-1-1.map.scen,4,BFS,1.0,5785,True,2313.0000,2313.0,87263,76.3094,0.00
maze512-1-1.map,maze512-1-1.map.scen,4,BFS,1.0,5801,True,2321.0000,2321.0,45887,38.4176,0.00
maze512-1-1.map,maze512-1-1.map.scen,4,BFS,1.0,5816,True,2325.0000,2325.0,79423,65.7167,0.00
maze512-1-1.map,maze512-1-1.map.scen,4,BFS,1.0,5832,True,2335.0000,2335.0,29619,23.5703,0.00
maze512-1-1.map,maze512-1-1.map.scen,4,BFS,1.0,5848,True,2338.0000,2338.0,76284,62.9609,0.00
maze512-1-1.map,maze512-1-1.map.scen,4,BFS,1.0,5864,True,2345.0000,2345.0,56974,46.1365,0.00
maze512-1-1.map,maze512-1-1.map.scen,4,BFS,1.0,5880,True,2353.0000,2353.0,58538,47.8189,0.00
maze512-1-1.map,maze512-1-1.map.scen,4,BFS,1.0,5896,True,2358.0000,2358.0,83177,66.8751,0.00
maze512-1-1.map,maze512-1-1.map.scen,4,BFS,1.0,5912,True,2364.0000,2364.0,50709,41.1043,0.00
maze512-1-1.map,maze512-1-1.map.scen,4,BFS,1.0,5927,True,2369.0000,2369.0,97005,84.2963,0.00
maze512-1-1.map,maze512-1-1.map.scen,4,BFS,1.0,5943,True,2377.0000,2377.0,66444,53.4100,0.00
maze512-1-1.map,maze512-1-1.map.scen,4,BFS,1.0,5959,True,2381.0000,2381.0,29454,24.0812,0.00
maze512-1-1.map,maze512-1-1.map.scen,4,BFS,1.0,5975,True,2389.0000,2389.0,87823,79.9394,0.00
maze512-1-1.map,maze512-1-1.map.scen,4,BFS,1.0,5991,True,2396.0000,2396.0,50907,43.9917,0.00
maze512-1-1.map,maze512-1-1.map.scen,4,BFS,1.0,6007,True,2401.0000,2401.0,13691,11.7198,0.00
maze512-1-1.map,maze512-1-1.map.scen,4,BFS,1.0,6023,True,2409.0000,2409.0,60971,51.8508,0.00
maze512-1-1.map,maze512-1-1.map.scen,4,BFS,1.0,6038,True,2415.0000,2415.0,21571,17.7149,0.00
maze512-1-1.map,maze512-1-1.map.scen,4,BFS,1.0,6054,True,2422.0000,2422.0,19168,15.7468,0.00
maze512-1-1.map,maze512-1-1.map.scen,4,BFS,1.0,6070,True,2429.0000,2429.0,75594,63.3949,0.00
maze512-1-1.map,maze512-1-1.map.scen,4,BFS,1.0,6086,True,2434.0000,2434.0,99945,85.3094,0.00
maze512-1-1.map,maze512-1-1.map.scen,4,BFS,1.0,6102,True,2442.0000,2442.0,68978,55.3311,0.00
maze512-1-1.map,maze512-1-1.map.scen,4,BFS,1.0,6118,True,2444.0000,2444.0,75935,61.6427,0.00
maze512-1-1.map,maze512-1-1.map.scen,4,BFS,1.0,6133,True,2454.0000,2454.0,93092,79.6001,0.00
maze512-1-1.map,maze512-1-1.map.scen,4,BFS,1.0,6149,True,2459.0000,2459.0,91009,79.6471,0.00
maze512-1-1.map,maze512-1-1.map.scen,4,BFS,1.0,6165,True,2464.0000,2464.0,26220,21.3639,0.00
maze512-1-1.map,maze512-1-1.map.scen,4,BFS,1.0,6181,True,2475.0000,2475.0,90565,78.6065,0.00
maze512-1-1.map,maze512-1-1.map.scen,4,BFS,1.0,6197,True,2476.0000,2476.0,83021,67.9546,0.00
maze512-1-1.map,maze512-1-1.map.scen,4,BFS,1.0,6213,True,2486.0000,2486.0,15417,12.2579,0.00
maze512-1-1.map,maze512-1-1.map.scen,4,BFS,1.0,6229,True,2490.0000,2490.0,88720,77.1984,0.00
maze512-1-1.map,maze512-1-1.map.scen,4,BFS,1.0,6244,True,2497.0000,2497.0,48919,41.4656,0.00
maze512-1-1.map,maze512-1-1.map.scen,4,BFS,1.0,6260,True,2506.0000,2506.0,66781,54.8595,0.00
maze512-1-1.map,maze512-1-1.map.scen,4,BFS,1.0,6276,True,2510.0000,2510.0,18154,15.0016,0.00
maze512-1-1.map,maze512-1-1.map.scen,4,BFS,1.0,6292,True,2518.0000,2518.0,37085,30.7326,0.00
maze512-1-1.map,maze512-1-1.map.scen,4,BFS,1.0,6308,True,2523.0000,2523.0,15887,12.8631,0.00
maze512-1-1.map,maze512-1-1.map.scen,4,BFS,1.0,6324,True,2531.0000,2531.0,64930,53.1287,0.00
maze512-1-1.map,maze512-1-1.map.scen,4,BFS,1.0,6340,True,2536.0000,2536.0,46190,39.2810,0.00
maze512-1-1.map,maze512-1-1.map.scen,4,BFS,1.0,6355,True,2540.0000,2540.0,93925,82.0405,0.00
maze512-1-1.map,maze512-1-1.map.scen,4,BFS,1.0,6371,True,2550.0000,2550.0,105005,89.6797,0.00
maze512-1-1.map,maze512-1-1.map.scen,4,BFS,1.0,6387,True,2555.0000,2555.0,18045,14.1994,0.00
maze512-1-1.map,maze512-1-1.map.scen,4,BFS,1.0,6403,True,2561.0000,2561.0,69836,57.9815,0.00
maze512-1-1.map,maze512-1-1.map.scen,4,BFS,1.0,6419,True,2564.0000,2564.0,67034,55.6445,0.00
maze512-1-1.map,maze512-1-1.map.scen,4,BFS,1.0,6435,True,2574.0000,2574.0,32380,26.4015,0.00
maze512-1-1.map,maze512-1-1.map.scen,4,BFS,1.0,6450,True,2583.0000,2583.0,28490,24.1321,0.00
maze512-1-1.map,maze512-1-1.map.scen,4,BFS,1.0,6466,True,2585.0000,2585.0,88916,78.4981,0.00
maze512-1-1.map,maze512-1-1.map.scen,4,BFS,1.0,6482,True,2593.0000,2593.0,18854,14.9595,0.00
maze512-1-1.map,maze512-1-1.map.scen,4,BFS,1.0,6498,True,2598.0000,2598.0,85541,75.9687,0.00
maze512-1-1.map,maze512-1-1.map.scen,4,BFS,1.0,6514,True,2604.0000,2604.0,28212,23.2947,0.00
maze512-1-1.map,maze512-1-1.map.scen,4,BFS,1.0,6530,True,2615.0000,2615.0,31474,25.8961,0.00
maze512-1-1.map,maze512-1-1.map.scen,4,BFS,1.0,6546,True,2617.0000,2617.0,78093,65.5810,0.00
maze512-1-1.map,maze512-1-1.map.scen,4,BFS,1.0,6561,True,2625.0000,2625.0,74397,60.3654,0.00
maze512-1-1.map,maze512-1-1.map.scen,4,BFS,1.0,6577,True,2629.0000,2629.0,39639,32.4685,0.00
maze512-1-1.map,maze512-1-1.map.scen,4,BFS,1.0,6593,True,2636.0000,2636.0,20094,16.3210,0.00
maze512-1-1.map,maze512-1-1.map.scen,4,BFS,1.0,6609,True,2643.0000,2643.0,25958,21.9968,0.00
maze512-1-1.map,maze512-1-1.map.scen,4,BFS,1.0,6625,True,2651.0000,2651.0,59261,49.3885,0.00
maze512-1-1.map,maze512-1-1.map.scen,4,BFS,1.0,6641,True,2659.0000,2659.0,95992,82.1942,0.00
maze512-1-1.map,maze512-1-1.map.scen,4,BFS,1.0,6657,True,2662.0000,2662.0,87019,77.3013,0.00
maze512-1-1.map,maze512-1-1.map.scen,4,BFS,1.0,6672,True,2671.0000,2671.0,95255,82.3066,0.00
maze512-1-1.map,maze512-1-1.map.scen,4,BFS,1.0,6688,True,2675.0000,2675.0,79279,64.9551,0.00
maze512-1-1.map,maze512-1-1.map.scen,4,BFS,1.0,6704,True,2681.0000,2681.0,99451,85.5409,0.00
maze512-1-1.map,maze512-1-1.map.scen,4,BFS,1.0,6720,True,2688.0000,2688.0,97362,83.1435,0.00
maze512-1-1.map,maze512-1-1.map.scen,4,BFS,1.0,6736,True,2695.0000,2695.0,86499,74.7176,0.00
maze512-1-1.map,maze512-1-1.map.scen,4,BFS,1.0,6752,True,2702.0000,2702.0,80171,66.5106,0.00
maze512-1-1.map,maze512-1-1.map.scen,4,BFS,1.0,6767,True,2705.0000,2705.0,87195,74.7170,0.00
maze512-1-1.map,maze512-1-1.map.scen,4,BFS,1.0,6783,True,2715.0000,2715.0,95168,80.8735,0.00
maze512-1-1.map,maze512-1-1.map.scen,4,BFS,1.0,6799,True,2718.0000,2718.0,29862,24.4628,0.00
maze512-1-1.map,maze512-1-1.map.scen,4,BFS,1.0,6815,True,2724.0000,2724.0,89163,79.3612,0.00
maze512-1-1.map,maze512-1-1.map.scen,4,BFS,1.0,6831,True,2735.0000,2735.0,72370,59.7961,0.00
maze512-1-1.map,maze512-1-1.map.scen,4,BFS,1.0,6847,True,2737.0000,2737.0,98322,83.6096,0.00
maze512-1-1.map,maze512-1-1.map.scen,4,BFS,1.0,6863,True,2744.0000,2744.0,52109,43.2991,0.00
maze512-1-1.map,maze512-1-1.map.scen,4,BFS,1.0,6878,True,2750.0000,2750.0,56225,47.4150,0.00
maze512-1-1.map,maze512-1-1.map.scen,4,BFS,1.0,6894,True,2756.0000,2756.0,47876,39.8466,0.00
maze512-1-1.map,maze512-1-1.map.scen,4,BFS,1.0,6910,True,2764.0000,2764.0,94848,81.1661,0.00
maze512-1-1.map,maze512-1-1.map.scen,4,BFS,1.0,6926,True,2769.0000,2769.0,73516,59.5922,0.00
maze512-1-1.map,maze512-1-1.map.scen,4,BFS,1.0,6942,True,2777.0000,2777.0,92455,80.0911,0.00
maze512-1-1.map,maze512-1-1.map.scen,4,BFS,1.0,6958,True,2783.0000,2783.0,88351,78.6786,0.00
maze512-1-1.map,maze512-1-1.map.scen,4,BFS,1.0,6974,True,2790.0000,2790.0,65057,54.1803,0.00
maze512-1-1.map,maze512-1-1.map.scen,4,BFS,1.0,6989,True,2794.0000,2794.0,95756,82.2744,0.00
maze512-1-1.map,maze512-1-1.map.scen,4,BFS,1.0,7005,True,2803.0000,2803.0,35403,28.4823,0.00
maze512-1-1.map,maze512-1-1.map.scen,4,BFS,1.0,7021,True,2808.0000,2808.0,91404,78.1511,0.00
maze512-1-1.map,maze512-1-1.map.scen,4,BFS,1.0,7037,True,2815.0000,2815.0,90348,78.6221,0.00
maze512-1-1.map,maze512-1-1.map.scen,4,BFS,1.0,7053,True,2822.0000,2822.0,54096,45.6009,0.00
maze512-1-1.map,maze512-1-1.map.scen,4,BFS,1.0,7069,True,2827.0000,2827.0,35873,29.6125,0.00
maze512-1-1.map,maze512-1-1.map.scen,4,BFS,1.0,7084,True,2832.0000,2832.0,109436,93.5468,0.00
maze512-1-1.map,maze512-1-1.map.scen,4,BFS,1.0,7100,True,2840.0000,2840.0,98500,85.4051,0.00
maze512-1-1.map,maze512-1-1.map.scen,4,BFS,1.0,7116,True,2845.0000,2845.0,100563,86.1935,0.00
maze512-1-1.map,maze512-1-1.map.scen,4,BFS,1.0,7132,True,2853.0000,2853.0,56112,46.9662,0.00
maze512-1-1.map,maze512-1-1.map.scen,4,BFS,1.0,7148,True,2858.0000,2858.0,94282,81.0155,0.00
maze512-1-1.map,maze512-1-1.map.scen,4,BFS,1.0,7164,True,2867.0000,2867.0,45406,40.9658,0.00
maze512-1-1.map,maze512-1-1.map.scen,4,BFS,1.0,7180,True,2872.0000,2872.0,100429,86.9408,0.00
maze512-1-1.map,maze512-1-1.map.scen,4,BFS,1.0,7195,True,2877.0000,2877.0,111984,96.7709,0.00
maze512-1-1.map,maze512-1-1.map.scen,4,BFS,1.0,7211,True,2886.0000,2886.0,24408,20.3561,0.00
maze512-1-1.map,maze512-1-1.map.scen,4,BFS,1.0,7227,True,2891.0000,2891.0,28012,23.5699,0.00
maze512-1-1.map,maze512-1-1.map.scen,4,BFS,1.0,7243,True,2896.0000,2896.0,32112,28.2062,0.00
maze512-1-1.map,maze512-1-1.map.scen,4,BFS,1.0,7259,True,2903.0000,2903.0,74720,62.9185,0.00
maze512-1-1.map,maze512-1-1.map.scen,4,BFS,1.0,7275,True,2909.0000,2909.0,63136,53.3234,0.00
maze512-1-1.map,maze512-1-1.map.scen,4,BFS,1.0,7291,True,2917.0000,2917.0,77568,64.3670,0.00
maze512-1-1.map,maze512-1-1.map.scen,4,BFS,1.0,7306,True,2921.0000,2921.0,110774,95.2903,0.00
maze512-1-1.map,maze512-1-1.map.scen,4,BFS,1.0,7322,True,2928.0000,2928.0,60011,49.0897,0.00
maze512-1-1.map,maze512-1-1.map.scen,4,BFS,1.0,7338,True,2935.0000,2935.0,31998,26.6132,0.00
maze512-1-1.map,maze512-1-1.map.scen,4,BFS,1.0,7354,True,2942.0000,2942.0,44066,38.7024,0.00
maze512-1-1.map,maze512-1-1.map.scen,4,BFS,1.0,7370,True,2951.0000,2951.0,97166,85.0027,0.00
maze512-1-1.map,maze512-1-1.map.scen,4,BFS,1.0,7386,True,2952.0000,2952.0,95513,84.8515,0.00
maze512-1-1.map,maze512-1-1.map.scen,4,BFS,1.0,7401,True,2963.0000,2963.0,35406,29.3070,0.00
maze512-1-1.map,maze512-1-1.map.scen,4,BFS,1.0,7417,True,2966.0000,2966.0,65533,54.6195,0.00
maze512-1-1.map,maze512-1-1.map.scen,4,BFS,1.0,7433,True,2973.0000,2973.0,70657,58.1155,0.00
maze512-1-1.map,maze512-1-1.map.scen,4,BFS,1.0,7449,True,2976.0000,2976.0,108344,92.8691,0.00
maze512-1-1.map,maze512-1-1.map.scen,4,BFS,1.0,7465,True,2987.0000,2987.0,100023,84.2638,0.00
maze512-1-1.map,maze512-1-1.map.scen,4,BFS,1.0,7481,True,2992.0000,2992.0,46333,39.4606,0.00
maze512-1-1.map,maze512-1-1.map.scen,4,BFS,1.0,7497,True,2998.0000,2998.0,43367,37.8958,0.00
maze512-1-1.map,maze512-1-1.map.scen,4,BFS,1.0,7512,True,3004.0000,3004.0,41641,34.2731,0.00
maze512-1-1.map,maze512-1-1.map.scen,4,BFS,1.0,7528,True,3010.0000,3010.0,22635,19.2921,0.00
maze512-1-1.map,maze512-1-1.map.scen,4,BFS,1.0,7544,True,3017.0000,3017.0,97302,86.7349,0.00
maze512-1-1.map,maze512-1-1.map.scen,4,BFS,1.0,7560,True,3026.0000,3026.0,29437,24.3372,0.00
maze512-1-1.map,maze512-1-1.map.scen,4,BFS,1.0,7576,True,3029.0000,3029.0,104119,90.3578,0.00
maze512-1-1.map,maze512-1-1.map.scen,4,BFS,1.0,7592,True,3036.0000,3036.0,85211,77.4332,0.00
maze512-1-1.map,maze512-1-1.map.scen,4,BFS,1.0,7608,True,3042.0000,3042.0,91838,79.4100,0.00
maze512-1-1.map,maze512-1-1.map.scen,4,BFS,1.0,7623,True,3051.0000,3051.0,96610,83.7206,0.00
maze512-1-1.map,maze512-1-1.map.scen,4,BFS,1.0,7639,True,3052.0000,3052.0,94424,82.8500,0.00
maze512-1-1.map,maze512-1-1.map.scen,4,BFS,1.0,7655,True,3060.0000,3060.0,95781,83.7157,0.00
maze512-1-1.map,maze512-1-1.map.scen,4,BFS,1.0,7671,True,3071.0000,3071.0,102683,89.3610,0.00
maze512-1-1.map,maze512-1-1.map.scen,4,BFS,1.0,7687,True,3074.0000,3074.0,15689,12.7622,0.00
maze512-1-1.map,maze512-1-1.map.scen,4,BFS,1.0,7703,True,3081.0000,3081.0,114468,98.0266,0.00
maze512-1-1.map,maze512-1-1.map.scen,4,BFS,1.0,7718,True,3087.0000,3087.0,35934,28.8689,0.00
maze512-1-1.map,maze512-1-1.map.scen,4,BFS,1.0,7734,True,3094.0000,3094.0,37512,31.3866,0.00
maze512-1-1.map,maze512-1-1.map.scen,4,BFS,1.0,7750,True,3101.0000,3101.0,105306,91.8411,0.00
maze512-1-1.map,maze512-1-1.map.scen,4,BFS,1.0,7766,True,3107.0000,3107.0,17639,14.7298,0.00
maze512-1-1.map,maze512-1-1.map.scen,4,BFS,1.0,7782,True,3113.0000,3113.0,31410,26.8516,0.00
maze512-1-1.map,maze512-1-1.map.scen,4,BFS,1.0,7798,True,3119.0000,3119.0,57107,48.1421,0.00
maze512-1-1.map,maze512-1-1.map.scen,4,BFS,1.0,7814,True,3127.0000,3127.0,108247,92.8862,0.00
maze512-1-1.map,maze512-1-1.map.scen,4,BFS,1.0,7829,True,3131.0000,3131.0,25348,20.9809,0.00
maze512-1-1.map,maze512-1-1.map.scen,4,BFS,1.0,7845,True,3139.0000,3139.0,47991,40.6985,0.00
maze512-1-1.map,maze512-1-1.map.scen,4,BFS,1.0,7861,True,3146.0000,3146.0,106680,90.8993,0.00
maze512-1-1.map,maze512-1-1.map.scen,4,BFS,1.0,7877,True,3149.0000,3149.0,111110,94.5192,0.00
maze512-1-1.map,maze512-1-1.map.scen,4,BFS,1.0,7893,True,3159.0000,3159.0,60548,49.4755,0.00
maze512-1-1.map,maze512-1-1.map.scen,4,BFS,1.0,7909,True,3162.0000,3162.0,20541,17.1116,0.00
maze512-1-1.map,maze512-1-1.map.scen,4,BFS,1.0,7925,True,3171.0000,3171.0,105410,89.9539,0.00
maze512-1-1.map,maze512-1-1.map.scen,4,BFS,1.0,7940,True,3179.0000,3179.0,76112,63.3255,0.00
maze512-1-1.map,maze512-1-1.map.scen,4,BFS,1.0,7956,True,3183.0000,3183.0,19159,15.4361,0.00
maze512-1-1.map,maze512-1-1.map.scen,4,BFS,1.0,7972,True,3188.0000,3188.0,104040,89.9025,0.00
maze512-1-1.map,maze512-1-1.map.scen,4,BFS,1.0,7988,True,3194.0000,3194.0,87574,135.0863,0.00
maze512-1-1.map,maze512-1-1.map.scen,4,BFS,1.0,8004,True,3202.0000,3202.0,101306,90.9199,0.00
maze512-1-1.map,maze512-1-1.map.scen,4,BFS,1.0,8020,True,3208.0000,3208.0,107319,96.3318,0.00
maze512-1-1.map,maze512-1-1.map.scen,4,BFS,1.0,8035,True,3213.0000,3213.0,66982,56.2317,0.00
maze512-1-1.map,maze512-1-1.map.scen,4,BFS,1.0,8051,True,3222.0000,3222.0,97110,83.8631,0.00
maze512-1-1.map,maze512-1-1.map.scen,4,BFS,1.0,8067,True,3225.0000,3225.0,108804,92.7832,0.00
maze512-1-1.map,maze512-1-1.map.scen,4,BFS,1.0,8083,True,3235.0000,3235.0,104334,90.7453,0.00
maze512-1-1.map,maze512-1-1.map.scen,4,BFS,1.0,8099,True,3237.0000,3237.0,61491,52.6530,0.00
maze512-1-1.map,maze512-1-1.map.scen,4,BFS,1.0,8115,True,3245.0000,3245.0,49421,42.1968,0.00
maze512-1-1.map,maze512-1-1.map.scen,4,BFS,1.0,8131,True,3254.0000,3254.0,86941,76.8819,0.00
maze512-1-1.map,maze512-1-1.map.scen,4,BFS,1.0,8146,True,3256.0000,3256.0,69659,59.0716,0.00
maze512-1-1.map,maze512-1-1.map.scen,4,BFS,1.0,8162,True,3266.0000,3266.0,23735,20.2783,0.00
maze512-1-1.map,maze512-1-1.map.scen,4,BFS,1.0,8178,True,3271.0000,3271.0,31173,25.9430,0.00
maze512-1-1.map,maze512-1-1.map.scen,4,BFS,1.0,8194,True,3279.0000,3279.0,60226,51.5007,0.00
maze512-1-1.map,maze512-1-1.map.scen,4,BFS,1.0,8210,True,3286.0000,3286.0,108427,93.1429,0.00
maze512-1-1.map,maze512-1-1.map.scen,4,BFS,1.0,8226,True,3291.0000,3291.0,106503,94.1681,0.00
maze512-1-1.map,maze512-1-1.map.scen,4,BFS,1.0,8242,True,3296.0000,3296.0,65361,54.2680,0.00
maze512-1-1.map,maze512-1-1.map.scen,4,BFS,1.0,8257,True,3301.0000,3301.0,45921,40.2215,0.00
maze512-1-1.map,maze512-1-1.map.scen,4,BFS,1.0,8273,True,3308.0000,3308.0,104848,93.1314,0.00
maze512-1-1.map,maze512-1-1.map.scen,4,BFS,1.0,8289,True,3312.0000,3312.0,105004,91.9098,0.00
maze512-1-1.map,maze512-1-1.map.scen,4,BFS,1.0,8305,True,3320.0000,3320.0,102091,88.4952,0.00
maze512-1-1.map,maze512-1-1.map.scen,4,BFS,1.0,8321,True,3328.0000,3328.0,33622,28.2999,0.00
maze512-1-1.map,maze512-1-1.map.scen,4,BFS,1.0,8337,True,3335.0000,3335.0,102484,92.6305,0.00
maze512-1-1.map,maze512-1-1.map.scen,4,BFS,1.0,8352,True,3340.0000,3340.0,89939,82.1379,0.00
maze512-1-1.map,maze512-1-1.map.scen,4,BFS,1.0,8368,True,3344.0000,3344.0,34819,28.5123,0.00
maze512-1-1.map,maze512-1-1.map.scen,4,BFS,1.0,8384,True,3355.0000,3355.0,77375,66.3988,0.00
maze512-1-1.map,maze512-1-1.map.scen,4,BFS,1.0,8400,True,3360.0000,3360.0,58220,49.1543,0.00
maze512-1-1.map,maze512-1-1.map.scen,4,BFS,1.0,8416,True,3366.0000,3366.0,104597,89.7735,0.00
maze512-1-1.map,maze512-1-1.map.scen,4,BFS,1.0,8432,True,3375.0000,3375.0,86534,75.2431,0.00
maze512-1-1.map,maze512-1-1.map.scen,4,BFS,1.0,8448,True,3377.0000,3377.0,60277,52.9518,0.00
maze512-1-1.map,maze512-1-1.map.scen,4,BFS,1.0,8463,True,3385.0000,3385.0,67041,57.3720,0.00
maze512-1-1.map,maze512-1-1.map.scen,4,BFS,1.0,8479,True,3390.0000,3390.0,115728,101.7408,0.00
maze512-1-1.map,maze512-1-1.map.scen,4,BFS,1.0,8495,True,3396.0000,3396.0,82835,69.1035,0.00
maze512-1-1.map,maze512-1-1.map.scen,4,BFS,1.0,8511,True,3404.0000,3404.0,94552,81.8214,0.00
maze512-1-1.map,maze512-1-1.map.scen,4,BFS,1.0,8527,True,3408.0000,3408.0,103222,88.5243,0.00
maze512-1-1.map,maze512-1-1.map.scen,4,BFS,1.0,8543,True,3417.0000,3417.0,101003,90.4752,0.00
maze512-1-1.map,maze512-1-1.map.scen,4,BFS,1.0,8559,True,3421.0000,3421.0,18953,16.0096,0.00
maze512-1-1.map,maze512-1-1.map.scen,4,BFS,1.0,8574,True,3428.0000,3428.0,99194,86.1143,0.00
maze512-1-1.map,maze512-1-1.map.scen,4,BFS,1.0,8590,True,3436.0000,3436.0,53713,46.7756,0.00
maze512-1-1.map,maze512-1-1.map.scen,4,BFS,1.0,8606,True,3443.0000,3443.0,46459,39.9758,0.00
maze512-1-1.map,maze512-1-1.map.scen,4,BFS,1.0,8622,True,3449.0000,3449.0,107481,95.8800,0.00
maze512-1-1.map,maze512-1-1.map.scen,4,BFS,1.0,8638,True,3453.0000,3453.0,34799,29.5943,0.00
maze512-1-1.map,maze512-1-1.map.scen,4,BFS,1.0,8654,True,3463.0000,3463.0,108083,94.1136,0.00
maze512-1-1.map,maze512-1-1.map.scen,4,BFS,1.0,8669,True,3466.0000,3466.0,94064,81.0111,0.00
maze512-1-1.map,maze512-1-1.map.scen,4,BFS,1.0,8685,True,3472.0000,3472.0,90687,78.7661,0.00
maze512-1-1.map,maze512-1-1.map.scen,4,BFS,1.0,8701,True,3483.0000,3483.0,111513,94.8108,0.00
maze512-1-1.map,maze512-1-1.map.scen,4,BFS,1.0,8717,True,3486.0000,3486.0,55589,46.0647,0.00
maze512-1-1.map,maze512-1-1.map.scen,4,BFS,1.0,8733,True,3494.0000,3494.0,102691,90.5946,0.00
maze512-1-1.map,maze512-1-1.map.scen,4,BFS,1.0,8749,True,3499.0000,3499.0,103934,92.8378,0.00
maze512-1-1.map,maze512-1-1.map.scen,4,BFS,1.0,8765,True,3507.0000,3507.0,106645,93.6591,0.00
maze512-1-1.map,maze512-1-1.map.scen,4,BFS,1.0,8780,True,3515.0000,3515.0,106211,90.5298,0.00
maze512-1-1.map,maze512-1-1.map.scen,4,BFS,1.0,8796,True,3516.0000,3516.0,110244,94.5286,0.00
maze512-1-1.map,maze512-1-1.map.scen,4,BFS,1.0,8812,True,3524.0000,3524.0,120289,103.5386,0.00
maze512-1-1.map,maze512-1-1.map.scen,4,BFS,1.0,8828,True,3528.0000,3528.0,78606,66.4898,0.00
maze512-1-1.map,maze512-1-1.map.scen,4,BFS,1.0,8844,True,3536.0000,3536.0,95968,83.8719,0.00
maze512-1-1.map,maze512-1-1.map.scen,4,BFS,1.0,8860,True,3547.0000,3547.0,92879,81.4130,0.00
maze512-1-1.map,maze512-1-1.map.scen,4,BFS,1.0,8876,True,3551.0000,3551.0,61303,51.9355,0.00
maze512-1-1.map,maze512-1-1.map.scen,4,BFS,1.0,8891,True,3558.0000,3558.0,64415,56.8010,0.00
maze512-1-1.map,maze512-1-1.map.scen,4,BFS,1.0,8907,True,3562.0000,3562.0,113875,98.6773,0.00
maze512-1-1.map,maze512-1-1.map.scen,4,BFS,1.0,8923,True,3570.0000,3570.0,98800,89.8038,0.00
maze512-1-1.map,maze512-1-1.map.scen,4,BFS,1.0,8939,True,3572.0000,3572.0,107560,94.1972,0.00
maze512-1-1.map,maze512-1-1.map.scen,4,BFS,1.0,8955,True,3580.0000,3580.0,102667,88.2090,0.00
maze512-1-1.map,maze512-1-1.map.scen,4,BFS,1.0,8971,True,3591.0000,3591.0,119039,101.1477,0.00
maze512-1-1.map,maze512-1-1.map.scen,4,BFS,1.0,8986,True,3593.0000,3593.0,51251,44.4456,0.00
maze512-1-1.map,maze512-1-1.map.scen,4,BFS,1.0,9002,True,3600.0000,3600.0,25915,21.9959,0.00
maze512-1-1.map,maze512-1-1.map.scen,4,BFS,1.0,9018,True,3607.0000,3607.0,117490,104.5584,0.00
maze512-1-1.map,maze512-1-1.map.scen,4,BFS,1.0,9034,True,3612.0000,3612.0,55116,47.2920,0.00
maze512-1-1.map,maze512-1-1.map.scen,4,BFS,1.0,9050,True,3621.0000,3621.0,33997,29.4201,0.00
maze512-1-1.map,maze512-1-1.map.scen,4,BFS,1.0,9066,True,3624.0000,3624.0,44113,38.5253,0.00
maze512-1-1.map,maze512-1-1.map.scen,4,BFS,1.0,9082,True,3635.0000,3635.0,115997,101.5547,0.00
maze512-1-1.map,maze512-1-1.map.scen,4,BFS,1.0,9097,True,3636.0000,3636.0,105940,91.0893,0.00
maze512-1-1.map,maze512-1-1.map.scen,4,BFS,1.0,9113,True,3644.0000,3644.0,45351,40.7861,0.00
maze512-1-1.map,maze512-1-1.map.scen,4,BFS,1.0,9129,True,3649.0000,3649.0,81288,69.3196,0.00
maze512-1-1.map,maze512-1-1.map.scen,4,BFS,1.0,9145,True,3656.0000,3656.0,96354,85.0589,0.00
maze512-1-1.map,maze512-1-1.map.scen,4,BFS,1.0,9161,True,3667.0000,3667.0,94656,84.1661,0.00
maze512-1-1.map,maze512-1-1.map.scen,4,BFS,1.0,9177,True,3669.0000,3669.0,105859,93.5158,0.00
maze512-1-1.map,maze512-1-1.map.scen,4,BFS,1.0,9193,True,3678.0000,3678.0,116600,102.1281,0.00
maze512-1-1.map,maze512-1-1.map.scen,4,BFS,1.0,9208,True,3682.0000,3682.0,117338,101.6596,0.00
maze512-1-1.map,maze512-1-1.map.scen,4,BFS,1.0,9224,True,3690.0000,3690.0,117425,100.7975,0.00
maze512-1-1.map,maze512-1-1.map.scen,4,BFS,1.0,9240,True,3697.0000,3697.0,115190,98.4848,0.00
maze512-1-1.map,maze512-1-1.map.scen,4,BFS,1.0,9256,True,3700.0000,3700.0,104384,90.7348,0.00
maze512-1-1.map,maze512-1-1.map.scen,4,BFS,1.0,9272,True,3708.0000,3708.0,95478,84.8455,0.00
maze512-1-1.map,maze512-1-1.map.scen,4,BFS,1.0,9288,True,3712.0000,3712.0,59137,50.6203,0.00
maze512-1-1.map,maze512-1-1.map.scen,4,BFS,1.0,9303,True,3721.0000,3721.0,114130,100.7161,0.00
maze512-1-1.map,maze512-1-1.map.scen,4,BFS,1.0,9319,True,3727.0000,3727.0,111706,95.4986,0.00
maze512-1-1.map,maze512-1-1.map.scen,4,BFS,1.0,9335,True,3735.0000,3735.0,101902,88.7386,0.00
maze512-1-1.map,maze512-1-1.map.scen,4,BFS,1.0,9351,True,3740.0000,3740.0,112294,96.0758,0.00
maze512-1-1.map,maze512-1-1.map.scen,4,BFS,1.0,9367,True,3747.0000,3747.0,107637,92.5467,0.00
maze512-1-1.map,maze512-1-1.map.scen,4,BFS,1.0,9383,True,3755.0000,3755.0,111757,95.7864,0.00
maze512-1-1.map,maze512-1-1.map.scen,4,BFS,1.0,9399,True,3758.0000,3758.0,80050,65.6879,0.00
maze512-1-1.map,maze512-1-1.map.scen,4,BFS,1.0,9414,True,3766.0000,3766.0,114303,97.2199,0.00
maze512-1-1.map,maze512-1-1.map.scen,4,BFS,1.0,9430,True,3772.0000,3772.0,99851,85.9032,0.00
maze512-1-1.map,maze512-1-1.map.scen,4,BFS,1.0,9446,True,3778.0000,3778.0,108668,92.8018,0.00
maze512-1-1.map,maze512-1-1.map.scen,4,BFS,1.0,9462,True,3784.0000,3784.0,114293,97.6168,0.00
maze512-1-1.map,maze512-1-1.map.scen,4,BFS,1.0,9478,True,3791.0000,3791.0,76864,63.4626,0.00
maze512-1-1.map,maze512-1-1.map.scen,4,BFS,1.0,9494,True,3798.0000,3798.0,111278,94.8715,0.00
maze512-1-1.map,maze512-1-1.map.scen,4,BFS,1.0,9510,True,3807.0000,3807.0,78494,66.4174,0.00
maze512-1-1.map,maze512-1-1.map.scen,4,BFS,1.0,9525,True,3810.0000,3810.0,70802,60.3748,0.00
maze512-1-1.map,maze512-1-1.map.scen,4,BFS,1.0,9541,True,3817.0000,3817.0,42625,38.0041,0.00
maze512-1-1.map,maze512-1-1.map.scen,4,BFS,1.0,9557,True,3820.0000,3820.0,109229,97.5042,0.00
maze512-1-1.map,maze512-1-1.map.scen,4,BFS,1.0,9573,True,3829.0000,3829.0,117941,100.7306,0.00
maze512-1-1.map,maze512-1-1.map.scen,4,BFS,1.0,9589,True,3834.0000,3834.0,113897,98.9252,0.00
maze512-1-1.map,maze512-1-1.map.scen,4,BFS,1.0,9605,True,3842.0000,3842.0,122620,104.6397,0.00
maze512-1-1.map,maze512-1-1.map.scen,4,BFS,1.0,9620,True,3848.0000,3848.0,26284,22.1583,0.00
maze512-1-1.map,maze512-1-1.map.scen,4,BFS,1.0,9636,True,3854.0000,3854.0,118108,100.9974,0.00
maze512-1-1.map,maze512-1-1.map.scen,4,BFS,1.0,9652,True,3863.0000,3863.0,99914,85.6336,0.00
maze512-1-1.map,maze512-1-1.map.scen,4,BFS,1.0,9668,True,3866.0000,3866.0,77143,63.6430,0.00
maze512-1-1.map,maze512-1-1.map.scen,4,BFS,1.0,9684,True,3872.0000,3872.0,119902,102.7660,0.00
maze512-1-1.map,maze512-1-1.map.scen,4,BFS,1.0,9700,True,3881.0000,3881.0,73226,62.2046,0.00
maze512-1-1.map,maze512-1-1.map.scen,4,BFS,1.0,9716,True,3887.0000,3887.0,122720,104.0495,0.00
maze512-1-1.map,maze512-1-1.map.scen,4,BFS,1.0,9731,True,3892.0000,3892.0,73031,61.3643,0.00
maze512-1-1.map,maze512-1-1.map.scen,4,BFS,1.0,9747,True,3899.0000,3899.0,119027,102.5555,0.00
maze512-1-1.map,maze512-1-1.map.scen,4,BFS,1.0,9763,True,3907.0000,3907.0,118076,100.2824,0.00
maze512-1-1.map,maze512-1-1.map.scen,4,BFS,1.0,9779,True,3910.0000,3910.0,89336,77.7974,0.00
maze512-1-1.map,maze512-1-1.map.scen,4,BFS,1.0,9795,True,3918.0000,3918.0,121203,104.8769,0.00
maze512-1-1.map,maze512-1-1.map.scen,4,BFS,1.0,9811,True,3924.0000,3924.0,124278,106.7042,0.00
maze512-1-1.map,maze512-1-1.map.scen,4,BFS,1.0,9827,True,3928.0000,3928.0,82398,69.4676,0.00
maze512-1-1.map,maze512-1-1.map.scen,4,BFS,1.0,9842,True,3938.0000,3938.0,50267,43.8447,0.00
maze512-1-1.map,maze512-1-1.map.scen,4,BFS,1.0,9858,True,3942.0000,3942.0,114341,97.8863,0.00
maze512-1-1.map,maze512-1-1.map.scen,4,BFS,1.0,9874,True,3949.0000,3949.0,78472,66.0628,0.00
maze512-1-1.map,maze512-1-1.map.scen,4,BFS,1.0,9890,True,3959.0000,3959.0,109295,93.4528,0.00
maze512-1-1.map,maze512-1-1.map.scen,4,BFS,1.0,9906,True,3962.0000,3962.0,109933,96.2617,0.00
maze512-1-1.map,maze512-1-1.map.scen,4,BFS,1.0,9922,True,3970.0000,3970.0,70051,59.9368,0.00
maze512-1-1.map,maze512-1-1.map.scen,4,BFS,1.0,9937,True,3975.0000,3975.0,90902,79.8250,0.00
maze512-1-1.map,maze512-1-1.map.scen,4,BFS,1.0,9953,True,3980.0000,3980.0,70628,60.1364,0.00
maze512-1-1.map,maze512-1-1.map.scen,4,BFS,1.0,9969,True,3985.0000,3985.0,112694,97.2153,0.00
maze512-1-1.map,maze512-1-1.map.scen,4,BFS,1.0,9985,True,3993.0000,3993.0,113383,98.5620,0.00
maze512-1-1.map,maze512-1-1.map.scen,4,BFS,1.0,10001,True,4000.0000,4000.0,74142,62.3862,0.00
maze512-1-1.map,maze512-1-1.map.scen,4,BFS,1.0,10017,True,4006.0000,4006.0,119901,104.6678,0.00
maze512-1-1.map,maze512-1-1.map.scen,4,BFS,1.0,10033,True,4015.0000,4015.0,86003,76.1117,0.00
maze512-1-1.map,maze512-1-1.map.scen,4,BFS,1.0,10048,True,4016.0000,4016.0,33643,28.1739,0.00
maze512-1-1.map,maze512-1-1.map.scen,4,BFS,1.0,10064,True,4024.0000,4024.0,80566,69.1443,0.00
maze512-1-1.map,maze512-1-1.map.scen,4,BFS,1.0,10080,True,4032.0000,4032.0,90408,80.2978,0.00
maze512-1-1.map,maze512-1-1.map.scen,4,BFS,1.0,10096,True,4039.0000,4039.0,117298,101.2855,0.00
maze512-1-1.map,maze512-1-1.map.scen,4,BFS,1.0,10112,True,4045.0000,4045.0,51709,43.9635,0.00
maze512-1-1.map,maze512-1-1.map.scen,4,BFS,1.0,10128,True,4049.0000,4049.0,115407,101.4769,0.00
maze512-1-1.map,maze512-1-1.map.scen,4,BFS,1.0,10144,True,4059.0000,4059.0,76151,63.9666,0.00
maze512-1-1.map,maze512-1-1.map.scen,4,BFS,1.0,10159,True,4061.0000,4061.0,120823,103.6481,0.00
maze512-1-1.map,maze512-1-1.map.scen,4,BFS,1.0,10175,True,4069.0000,4069.0,107765,92.8799,0.00
