MapName,Scenario,Connectivity,Algorithm,Weight,TaskID,Success,PathLength,OptimalLength,ExpandedNodes,TimeMS,Suboptimality
random512-15-2.map,random512-15-2.map.scen,4,BFS,1.0,0,True,4.0000,3.41421356,16,0.0284,17.16
random512-15-2.map,random512-15-2.map.scen,4,BFS,1.0,1,True,3.0000,3.0,18,0.0240,0.00
random512-15-2.map,random512-15-2.map.scen,4,BFS,1.0,2,True,4.0000,2.82842712,22,0.0290,41.42
random512-15-2.map,random512-15-2.map.scen,4,BFS,1.0,3,True,2.0000,1.41421356,6,0.0086,41.42
random512-15-2.map,random512-15-2.map.scen,4,BFS,1.0,4,True,2.0000,1.41421356,7,0.0098,41.42
random512-15-2.map,random512-15-2.map.scen,4,BFS,1.0,5,True,2.0000,2.0,6,0.0088,0.00
random512-15-2.map,random512-15-2.map.scen,4,BFS,1.0,6,True,2.0000,2.0,5,0.0071,0.00
random512-15-2.map,random512-15-2.map.scen,4,BFS,1.0,7,True,4.0000,3.41421356,27,0.0327,17.16
random512-15-2.map,random512-15-2.map.scen,4,BFS,1.0,8,True,1.0000,1.0,2,0.0029,0.00
random512-15-2.map,random512-15-2.map.scen,4,BFS,1.0,9,True,4.0000,3.41421356,23,0.0277,17.16
random512-15-2.map,random512-15-2.map.scen,4,Dijkstra,1.0,0,True,4.0000,3.41421356,14,0.0242,17.16
random512-15-2.map,random512-15-2.map.scen,4,Dijkstra,1.0,1,True,3.0000,3.0,22,0.0413,0.00
random512-15-2.map,random512-15-2.map.scen,4,Dijkstra,1.0,2,True,4.0000,2.82842712,19,0.0348,41.42
random512-15-2.map,random512-15-2.map.scen,4,Dijkstra,1.0,3,True,2.0000,1.41421356,6,0.0098,41.42
random512-15-2.map,random512-15-2.map.scen,4,Dijkstra,1.0,4,True,2.0000,1.41421356,10,0.0197,41.42
random512-15-2.map,random512-15-2.map.scen,4,Dijkstra,1.0,5,True,2.0000,2.0,13,0.0233,0.00
random512-15-2.map,random512-15-2.map.scen,4,Dijkstra,1.0,6,True,2.0000,2.0,5,0.0089,0.00
random512-15-2.map,random512-15-2.map.scen,4,Dijkstra,1.0,7,True,4.0000,3.41421356,25,0.0435,17.16
random512-15-2.map,random512-15-2.map.scen,4,Dijkstra,1.0,8,True,1.0000,1.0,2,0.0033,0.00
random512-15-2.map,random512-15-2.map.scen,4,Dijkstra,1.0,9,True,4.0000,3.41421356,28,0.0463,17.16
random512-15-2.map,random512-15-2.map.scen,4,A* (Manhattan),1.0,0,True,4.0000,3.41421356,6,0.0110,17.16
random512-15-2.map,random512-15-2.map.scen,4,A* (Manhattan),1.0,1,True,3.0000,3.0,4,0.0094,0.00
random512-15-2.map,random512-15-2.map.scen,4,A* (Manhattan),1.0,2,True,4.0000,2.82842712,8,0.0160,41.42
random512-15-2.map,random512-15-2.map.scen,4,A* (Manhattan),1.0,3,True,2.0000,1.41421356,4,0.0074,41.42
random512-15-2.map,random512-15-2.map.scen,4,A* (Manhattan),1.0,4,True,2.0000,1.41421356,4,0.0081,41.42
random512-15-2.map,random512-15-2.map.scen,4,A* (Manhattan),1.0,5,True,2.0000,2.0,3,0.0071,0.00
random512-15-2.map,random512-15-2.map.scen,4,A* (Manhattan),1.0,6,True,2.0000,2.0,3,0.0066,0.00
random512-15-2.map,random512-15-2.map.scen,4,A* (Manhattan),1.0,7,True,4.0000,3.41421356,8,0.0182,17.16
random512-15-2.map,random512-15-2.map.scen,4,A* (Manhattan),1.0,8,True,1.0000,1.0,2,0.0034,0.00
random512-15-2.map,random512-15-2.map.scen,4,A* (Manhattan),1.0,9,True,4.0000,3.41421356,7,0.0152,17.16
random512-15-2.map,random512-15-2.map.scen,4,A* (Euclid),1.0,0,True,4.0000,3.41421356,6,0.0109,17.16
random512-15-2.map,random512-15-2.map.scen,4,A* (Euclid),1.0,1,True,3.0000,3.0,4,0.0100,0.00
random512-15-2.map,random512-15-2.map.scen,4,A* (Euclid),1.0,2,True,4.0000,2.82842712,8,0.0170,41.42
random512-15-2.map,random512-15-2.map.scen,4,A* (Euclid),1.0,3,True,2.0000,1.41421356,4,0.0082,41.42
random512-15-2.map,random512-15-2.map.scen,4,A* (Euclid),1.0,4,True,2.0000,1.41421356,4,0.0087,41.42
random512-15-2.map,random512-15-2.map.scen,4,A* (Euclid),1.0,5,True,2.0000,2.0,3,0.0078,0.00
random512-15-2.map,random512-15-2.map.scen,4,A* (Euclid),1.0,6,True,2.0000,2.0,3,0.0072,0.00
random512-15-2.map,random512-15-2.map.scen,4,A* (Euclid),1.0,7,True,4.0000,3.41421356,8,0.0194,17.16
random512-15-2.map,random512-15-2.map.scen,4,A* (Euclid),1.0,8,True,1.0000,1.0,2,0.0037,0.00
random512-15-2.map,random512-15-2.map.scen,4,A* (Euclid),1.0,9,True,4.0000,3.41421356,7,0.0164,17.16
random512-15-2.map,random512-15-2.map.scen,4,A* (Octile),1.0,0,True,4.0000,3.41421356,6,0.0116,17.16
random512-15-2.map,random512-15-2.map.scen,4,A* (Octile),1.0,1,True,3.0000,3.0,4,0.0100,0.00
random512-15-2.map,random512-15-2.map.scen,4,A* (Octile),1.0,2,True,4.0000,2.82842712,8,0.0171,41.42
random512-15-2.map,random512-15-2.map.scen,4,A* (Octile),1.0,3,True,2.0000,1.41421356,4,0.0078,41.42
random512-15-2.map,random512-15-2.map.scen,4,A* (Octile),1.0,4,True,2.0000,1.41421356,4,0.0088,41.42
random512-15-2.map,random512-15-2.map.scen,4,A* (Octile),1.0,5,True,2.0000,2.0,3,0.0078,0.00
random512-15-2.map,random512-15-2.map.scen,4,A* (Octile),1.0,6,True,2.0000,2.0,3,0.0070,0.00
random512-15-2.map,random512-15-2.map.scen,4,A* (Octile),1.0,7,True,4.0000,3.41421356,8,0.0191,17.16
random512-15-2.map,random512-15-2.map.scen,4,A* (Octile),1.0,8,True,1.0000,1.0,2,0.0037,0.00
random512-15-2.map,random512-15-2.map.scen,4,A* (Octile),1.0,9,True,4.0000,3.41421356,7,0.0167,17.16
random512-15-2.map,random512-15-2.map.scen,4,WA* (x1.5),1.5,0,True,4.0000,3.41421356,5,0.0095,17.16
random512-15-2.map,random512-15-2.map.scen,4,WA* (x1.5),1.5,1,True,3.0000,3.0,4,0.0105,0.00
random512-15-2.map,random512-15-2.map.scen,4,WA* (x1.5),1.5,2,True,4.0000,2.82842712,5,0.0118,41.42
random512-15-2.map,random512-15-2.map.scen,4,WA* (x1.5),1.5,3,True,2.0000,1.41421356,3,0.0063,41.42
random512-15-2.map,random512-15-2.map.scen,4,WA* (x1.5),1.5,4,True,2.0000,1.41421356,3,0.0074,41.42
random512-15-2.map,random512-15-2.map.scen,4,WA* (x1.5),1.5,5,True,2.0000,2.0,3,0.0078,0.00
random512-15-2.map,random512-15-2.map.scen,4,WA* (x1.5),1.5,6,True,2.0000,2.0,3,0.0072,0.00
random512-15-2.map,random512-15-2.map.scen,4,WA* (x1.5),1.5,7,True,4.0000,3.41421356,5,0.0120,17.16
random512-15-2.map,random512-15-2.map.scen,4,WA* (x1.5),1.5,8,True,1.0000,1.0,2,0.0036,0.00
random512-15-2.map,random512-15-2.map.scen,4,WA* (x1.5),1.5,9,True,4.0000,3.41421356,5,0.0118,17.16
random512-15-2.map,random512-15-2.map.scen,4,WA* (x2.0),2.0,0,True,4.0000,3.41421356,5,0.0092,17.16
random512-15-2.map,random512-15-2.map.scen,4,WA* (x2.0),2.0,1,True,3.0000,3.0,4,0.0103,0.00
random512-15-2.map,random512-15-2.map.scen,4,WA* (x2.0),2.0,2,True,4.0000,2.82842712,5,0.0117,41.42
random512-15-2.map,random512-15-2.map.scen,4,WA* (x2.0),2.0,3,True,2.0000,1.41421356,3,0.0065,41.42
random512-15-2.map,random512-15-2.map.scen,4,WA* (x2.0),2.0,4,True,2.0000,1.41421356,3,0.0120,41.42
random512-15-2.map,random512-15-2.map.scen,4,WA* (x2.0),2.0,5,True,2.0000,2.0,3,0.0078,0.00
random512-15-2.map,random512-15-2.map.scen,4,WA* (x2.0),2.0,6,True,2.0000,2.0,3,0.0083,0.00
random512-15-2.map,random512-15-2.map.scen,4,WA* (x2.0),2.0,7,True,4.0000,3.41421356,5,0.0113,17.16
random512-15-2.map,random512-15-2.map.scen,4,WA* (x2.0),2.0,8,True,1.0000,1.0,2,0.0033,0.00
random512-15-2.map,random512-15-2.map.scen,4,WA* (x2.0),2.0,9,True,4.0000,3.41421356,5,0.0109,17.16
random512-15-2.map,random512-15-2.map.scen,8,BFS,1.0,0,True,3.0000,3.41421356,16,0.0211,-12.13
random512-15-2.map,random512-15-2.map.scen,8,BFS,1.0,1,True,3.0000,3.0,29,0.0422,0.00
random512-15-2.map,random512-15-2.map.scen,8,BFS,1.0,2,True,2.0000,2.82842712,13,0.0194,-29.29
random512-15-2.map,random512-15-2.map.scen,8,BFS,1.0,3,True,1.0000,1.41421356,7,0.0102,-29.29
random512-15-2.map,random512-15-2.map.scen,8,BFS,1.0,4,True,1.0000,1.41421356,5,0.0084,-29.29
random512-15-2.map,random512-15-2.map.scen,8,BFS,1.0,5,True,2.0000,2.0,10,0.0173,0.00
random512-15-2.map,random512-15-2.map.scen,8,BFS,1.0,6,True,2.0000,2.0,7,0.0113,0.00
random512-15-2.map,random512-15-2.map.scen,8,BFS,1.0,7,True,3.0000,3.41421356,27,0.0395,-12.13
random512-15-2.map,random512-15-2.map.scen,8,BFS,1.0,8,True,1.0000,1.0,2,0.0027,0.00
random512-15-2.map,random512-15-2.map.scen,8,BFS,1.0,9,True,3.0000,3.41421356,20,0.0285,-12.13
random512-15-2.map,random512-15-2.map.scen,8,Dijkstra,1.0,0,True,3.4142,3.41421356,13,0.0276,0.00
random512-15-2.map,random512-15-2.map.scen,8,Dijkstra,1.0,1,True,3.0000,3.0,25,0.0644,0.00
random512-15-2.map,random512-15-2.map.scen,8,Dijkstra,1.0,2,True,2.8284,2.82842712,16,0.0385,0.00
random512-15-2.map,random512-15-2.map.scen,8,Dijkstra,1.0,3,True,1.4142,1.41421356,6,0.0121,0.00
random512-15-2.map,random512-15-2.map.scen,8,Dijkstra,1.0,4,True,1.4142,1.41421356,5,0.0139,0.00
random512-15-2.map,random512-15-2.map.scen,8,Dijkstra,1.0,5,True,2.0000,2.0,13,0.0348,0.00
random512-15-2.map,random512-15-2.map.scen,8,Dijkstra,1.0,6,True,2.0000,2.0,8,0.0185,0.00
random512-15-2.map,random512-15-2.map.scen,8,Dijkstra,1.0,7,True,3.4142,3.41421356,29,0.0730,0.00
random512-15-2.map,random512-15-2.map.scen,8,Dijkstra,1.0,8,True,1.0000,1.0,2,0.0040,0.00
random512-15-2.map,random512-15-2.map.scen,8,Dijkstra,1.0,9,True,3.4142,3.41421356,27,0.0633,0.00
random512-15-2.map,random512-15-2.map.scen,8,A* (Manhattan),1.0,0,True,3.4142,3.41421356,4,0.0112,0.00
random512-15-2.map,random512-15-2.map.scen,8,A* (Manhattan),1.0,1,True,3.0000,3.0,4,0.0149,0.00
random512-15-2.map,random512-15-2.map.scen,8,A* (Manhattan),1.0,2,True,2.8284,2.82842712,3,0.0094,0.00
random512-15-2.map,random512-15-2.map.scen,8,A* (Manhattan),1.0,3,True,1.4142,1.41421356,2,0.0062,0.00
random512-15-2.map,random512-15-2.map.scen,8,A* (Manhattan),1.0,4,True,1.4142,1.41421356,2,0.0051,0.00
random512-15-2.map,random512-15-2.map.scen,8,A* (Manhattan),1.0,5,True,2.0000,2.0,3,0.0113,0.00
random512-15-2.map,random512-15-2.map.scen,8,A* (Manhattan),1.0,6,True,2.0000,2.0,3,0.0094,0.00
random512-15-2.map,random512-15-2.map.scen,8,A* (Manhattan),1.0,7,True,3.4142,3.41421356,4,0.0155,0.00
random512-15-2.map,random512-15-2.map.scen,8,A* (Manhattan),1.0,8,True,1.0000,1.0,2,0.0037,0.00
random512-15-2.map,random512-15-2.map.scen,8,A* (Manhattan),1.0,9,True,3.4142,3.41421356,5,0.0165,0.00
random512-15-2.map,random512-15-2.map.scen,8,A* (Euclid),1.0,0,True,3.4142,3.41421356,5,0.0118,0.00
random512-15-2.map,random512-15-2.map.scen,8,A* (Euclid),1.0,1,True,3.0000,3.0,4,0.0150,0.00
random512-15-2.map,random512-15-2.map.scen,8,A* (Euclid),1.0,2,True,2.8284,2.82842712,3,0.0087,0.00
random512-15-2.map,random512-15-2.map.scen,8,A* (Euclid),1.0,3,True,1.4142,1.41421356,2,0.0059,0.00
random512-15-2.map,random512-15-2.map.scen,8,A* (Euclid),1.0,4,True,1.4142,1.41421356,2,0.0046,0.00
random512-15-2.map,random512-15-2.map.scen,8,A* (Euclid),1.0,5,True,2.0000,2.0,3,0.0100,0.00
random512-15-2.map,random512-15-2.map.scen,8,A* (Euclid),1.0,6,True,2.0000,2.0,3,0.0087,0.00
random512-15-2.map,random512-15-2.map.scen,8,A* (Euclid),1.0,7,True,3.4142,3.41421356,6,0.0179,0.00
random512-15-2.map,random512-15-2.map.scen,8,A* (Euclid),1.0,8,True,1.0000,1.0,2,0.0033,0.00
random512-15-2.map,random512-15-2.map.scen,8,A* (Euclid),1.0,9,True,3.4142,3.41421356,4,0.0130,0.00
random512-15-2.map,random512-15-2.map.scen,8,A* (Octile),1.0,0,True,3.4142,3.41421356,5,0.0113,0.00
random512-15-2.map,random512-15-2.map.scen,8,A* (Octile),1.0,1,True,3.0000,3.0,4,0.0136,0.00
random512-15-2.map,random512-15-2.map.scen,8,A* (Octile),1.0,2,True,2.8284,2.82842712,3,0.0086,0.00
random512-15-2.map,random512-15-2.map.scen,8,A* (Octile),1.0,3,True,1.4142,1.41421356,2,0.0059,0.00
random512-15-2.map,random512-15-2.map.scen,8,A* (Octile),1.0,4,True,1.4142,1.41421356,2,0.0048,0.00
random512-15-2.map,random512-15-2.map.scen,8,A* (Octile),1.0,5,True,2.0000,2.0,3,0.0104,0.00
random512-15-2.map,random512-15-2.map.scen,8,A* (Octile),1.0,6,True,2.0000,2.0,3,0.0085,0.00
random512-15-2.map,random512-15-2.map.scen,8,A* (Octile),1.0,7,True,3.4142,3.41421356,6,0.0185,0.00
random512-15-2.map,random512-15-2.map.scen,8,A* (Octile),1.0,8,True,1.0000,1.0,2,0.0033,0.00
random512-15-2.map,random512-15-2.map.scen,8,A* (Octile),1.0,9,True,3.4142,3.41421356,4,0.0131,0.00
random512-15-2.map,random512-15-2.map.scen,8,WA* (x1.5),1.5,0,True,3.4142,3.41421356,4,0.0101,0.00
random512-15-2.map,random512-15-2.map.scen,8,WA* (x1.5),1.5,1,True,3.0000,3.0,4,0.0161,0.00
random512-15-2.map,random512-15-2.map.scen,8,WA* (x1.5),1.5,2,True,2.8284,2.82842712,3,0.0107,0.00
random512-15-2.map,random512-15-2.map.scen,8,WA* (x1.5),1.5,3,True,1.4142,1.41421356,2,0.0059,0.00
random512-15-2.map,random512-15-2.map.scen,8,WA* (x1.5),1.5,4,True,1.4142,1.41421356,2,0.0048,0.00
random512-15-2.map,random512-15-2.map.scen,8,WA* (x1.5),1.5,5,True,2.0000,2.0,3,0.0102,0.00
random512-15-2.map,random512-15-2.map.scen,8,WA* (x1.5),1.5,6,True,2.0000,2.0,3,0.0088,0.00
random512-15-2.map,random512-15-2.map.scen,8,WA* (x1.5),1.5,7,True,3.4142,3.41421356,4,0.0143,0.00
random512-15-2.map,random512-15-2.map.scen,8,WA* (x1.5),1.5,8,True,1.0000,1.0,2,0.0034,0.00
random512-15-2.map,random512-15-2.map.scen,8,WA* (x1.5),1.5,9,True,3.4142,3.41421356,4,0.0133,0.00
random512-15-2.map,random512-15-2.map.scen,8,WA* (x2.0),2.0,0,True,3.4142,3.41421356,4,0.0098,0.00
random512-15-2.map,random512-15-2.map.scen,8,WA* (x2.0),2.0,1,True,3.0000,3.0,4,0.0139,0.00
random512-15-2.map,random512-15-2.map.scen,8,WA* (x2.0),2.0,2,True,2.8284,2.82842712,3,0.0092,0.00
random512-15-2.map,random512-15-2.map.scen,8,WA* (x2.0),2.0,3,True,1.4142,1.41421356,2,0.0058,0.00
random512-15-2.map,random512-15-2.map.scen,8,WA* (x2.0),2.0,4,True,1.4142,1.41421356,2,0.0048,0.00
random512-15-2.map,random512-15-2.map.scen,8,WA* (x2.0),2.0,5,True,2.0000,2.0,3,0.0103,0.00
random512-15-2.map,random512-15-2.map.scen,8,WA* (x2.0),2.0,6,True,2.0000,2.0,3,0.0091,0.00
random512-15-2.map,random512-15-2.map.scen,8,WA* (x2.0),2.0,7,True,3.4142,3.41421356,4,0.0143,0.00
random512-15-2.map,random512-15-2.map.scen,8,WA* (x2.0),2.0,8,True,1.0000,1.0,2,0.0034,0.00
random512-15-2.map,random512-15-2.map.scen,8,WA* (x2.0),2.0,9,True,3.4142,3.41421356,4,0.0129,0.00
random512-20-4.map,random512-20-4.map.scen,4,BFS,1.0,0,True,3.0000,3.0,12,0.0273,0.00
random512-20-4.map,random512-20-4.map.scen,4,BFS,1.0,1,True,1.0000,1.0,2,0.0039,0.00
random512-20-4.map,random512-20-4.map.scen,4,BFS,1.0,2,True,2.0000,2.0,9,0.0107,0.00
random512-20-4.map,random512-20-4.map.scen,4,BFS,1.0,3,True,5.0000,3.82842712,37,0.0475,30.60
random512-20-4.map,random512-20-4.map.scen,4,BFS,1.0,4,True,1.0000,1.0,4,0.0092,0.00
random512-20-4.map,random512-20-4.map.scen,4,BFS,1.0,5,True,2.0000,2.0,6,0.0125,0.00
random512-20-4.map,random512-20-4.map.scen,4,BFS,1.0,6,True,0.0000,0.0,1,0.0028,0.00
random512-20-4.map,random512-20-4.map.scen,4,BFS,1.0,7,True,4.0000,2.82842712,26,0.0566,41.42
random512-20-4.map,random512-20-4.map.scen,4,BFS,1.0,8,True,3.0000,3.0,17,0.0219,0.00
random512-20-4.map,random512-20-4.map.scen,4,BFS,1.0,9,True,2.0000,2.0,7,0.0161,0.00
random512-20-4.map,random512-20-4.map.scen,4,Dijkstra,1.0,0,True,3.0000,3.0,13,0.0278,0.00
random512-20-4.map,random512-20-4.map.scen,4,Dijkstra,1.0,1,True,1.0000,1.0,2,0.0046,0.00
random512-20-4.map,random512-20-4.map.scen,4,Dijkstra,1.0,2,True,2.0000,2.0,9,0.0171,0.00
random512-20-4.map,random512-20-4.map.scen,4,Dijkstra,1.0,3,True,5.0000,3.82842712,33,0.0640,30.60
random512-20-4.map,random512-20-4.map.scen,4,Dijkstra,1.0,4,True,1.0000,1.0,3,0.0072,0.00
random512-20-4.map,random512-20-4.map.scen,4,Dijkstra,1.0,5,True,2.0000,2.0,8,0.0167,0.00
random512-20-4.map,random512-20-4.map.scen,4,Dijkstra,1.0,6,True,0.0000,0.0,1,0.0014,0.00
random512-20-4.map,random512-20-4.map.scen,4,Dijkstra,1.0,7,True,4.0000,2.82842712,30,0.0560,41.42
random512-20-4.map,random512-20-4.map.scen,4,Dijkstra,1.0,8,True,3.0000,3.0,16,0.0316,0.00
random512-20-4.map,random512-20-4.map.scen,4,Dijkstra,1.0,9,True,2.0000,2.0,10,0.0189,0.00
random512-20-4.map,random512-20-4.map.scen,4,A* (Manhattan),1.0,0,True,3.0000,3.0,4,0.0094,0.00
random512-20-4.map,random512-20-4.map.scen,4,A* (Manhattan),1.0,1,True,1.0000,1.0,2,0.0044,0.00
random512-20-4.map,random512-20-4.map.scen,4,A* (Manhattan),1.0,2,True,2.0000,2.0,3,0.0074,0.00
random512-20-4.map,random512-20-4.map.scen,4,A* (Manhattan),1.0,3,True,5.0000,3.82842712,12,0.0263,30.60
random512-20-4.map,random512-20-4.map.scen,4,A* (Manhattan),1.0,4,True,1.0000,1.0,2,0.0051,0.00
random512-20-4.map,random512-20-4.map.scen,4,A* (Manhattan),1.0,5,True,2.0000,2.0,3,0.0065,0.00
random512-20-4.map,random512-20-4.map.scen,4,A* (Manhattan),1.0,6,True,0.0000,0.0,1,0.0012,0.00
random512-20-4.map,random512-20-4.map.scen,4,A* (Manhattan),1.0,7,True,4.0000,2.82842712,8,0.0175,41.42
random512-20-4.map,random512-20-4.map.scen,4,A* (Manhattan),1.0,8,True,3.0000,3.0,4,0.0111,0.00
random512-20-4.map,random512-20-4.map.scen,4,A* (Manhattan),1.0,9,True,2.0000,2.0,3,0.0073,0.00
random512-20-4.map,random512-20-4.map.scen,4,A* (Euclid),1.0,0,True,3.0000,3.0,4,0.0099,0.00
random512-20-4.map,random512-20-4.map.scen,4,A* (Euclid),1.0,1,True,1.0000,1.0,2,0.0045,0.00
random512-20-4.map,random512-20-4.map.scen,4,A* (Euclid),1.0,2,True,2.0000,2.0,3,0.0071,0.00
random512-20-4.map,random512-20-4.map.scen,4,A* (Euclid),1.0,3,True,5.0000,3.82842712,12,0.0264,30.60
random512-20-4.map,random512-20-4.map.scen,4,A* (Euclid),1.0,4,True,1.0000,1.0,2,0.0052,0.00
random512-20-4.map,random512-20-4.map.scen,4,A* (Euclid),1.0,5,True,2.0000,2.0,3,0.0065,0.00
random512-20-4.map,random512-20-4.map.scen,4,A* (Euclid),1.0,6,True,0.0000,0.0,1,0.0013,0.00
random512-20-4.map,random512-20-4.map.scen,4,A* (Euclid),1.0,7,True,4.0000,2.82842712,8,0.0204,41.42
random512-20-4.map,random512-20-4.map.scen,4,A* (Euclid),1.0,8,True,3.0000,3.0,4,0.0101,0.00
random512-20-4.map,random512-20-4.map.scen,4,A* (Euclid),1.0,9,True,2.0000,2.0,3,0.0070,0.00
random512-20-4.map,random512-20-4.map.scen,4,A* (Octile),1.0,0,True,3.0000,3.0,4,0.0092,0.00
random512-20-4.map,random512-20-4.map.scen,4,A* (Octile),1.0,1,True,1.0000,1.0,2,0.0045,0.00
random512-20-4.map,random512-20-4.map.scen,4,A* (Octile),1.0,2,True,2.0000,2.0,3,0.0071,0.00
random512-20-4.map,random512-20-4.map.scen,4,A* (Octile),1.0,3,True,5.0000,3.82842712,12,0.0254,30.60
random512-20-4.map,random512-20-4.map.scen,4,A* (Octile),1.0,4,True,1.0000,1.0,2,0.0052,0.00
random512-20-4.map,random512-20-4.map.scen,4,A* (Octile),1.0,5,True,2.0000,2.0,3,0.0065,0.00
random512-20-4.map,random512-20-4.map.scen,4,A* (Octile),1.0,6,True,0.0000,0.0,1,0.0013,0.00
random512-20-4.map,random512-20-4.map.scen,4,A* (Octile),1.0,7,True,4.0000,2.82842712,8,0.0175,41.42
random512-20-4.map,random512-20-4.map.scen,4,A* (Octile),1.0,8,True,3.0000,3.0,4,0.0096,0.00
random512-20-4.map,random512-20-4.map.scen,4,A* (Octile),1.0,9,True,2.0000,2.0,3,0.0072,0.00
random512-20-4.map,random512-20-4.map.scen,4,WA* (x1.5),1.5,0,True,3.0000,3.0,4,0.0092,0.00
random512-20-4.map,random512-20-4.map.scen,4,WA* (x1.5),1.5,1,True,1.0000,1.0,2,0.0045,0.00
random512-20-4.map,random512-20-4.map.scen,4,WA* (x1.5),1.5,2,True,2.0000,2.0,3,0.0074,0.00
random512-20-4.map,random512-20-4.map.scen,4,WA* (x1.5),1.5,3,True,5.0000,3.82842712,6,0.0139,30.60
random512-20-4.map,random512-20-4.map.scen,4,WA* (x1.5),1.5,4,True,1.0000,1.0,2,0.0051,0.00
random512-20-4.map,random512-20-4.map.scen,4,WA* (x1.5),1.5,5,True,2.0000,2.0,3,0.0062,0.00
random512-20-4.map,random512-20-4.map.scen,4,WA* (x1.5),1.5,6,True,0.0000,0.0,1,0.0013,0.00
random512-20-4.map,random512-20-4.map.scen,4,WA* (x1.5),1.5,7,True,4.0000,2.82842712,5,0.0114,41.42
random512-20-4.map,random512-20-4.map.scen,4,WA* (x1.5),1.5,8,True,3.0000,3.0,4,0.0096,0.00
random512-20-4.map,random512-20-4.map.scen,4,WA* (x1.5),1.5,9,True,2.0000,2.0,3,0.0070,0.00
random512-20-4.map,random512-20-4.map.scen,4,WA* (x2.0),2.0,0,True,3.0000,3.0,4,0.0092,0.00
random512-20-4.map,random512-20-4.map.scen,4,WA* (x2.0),2.0,1,True,1.0000,1.0,2,0.0043,0.00
random512-20-4.map,random512-20-4.map.scen,4,WA* (x2.0),2.0,2,True,2.0000,2.0,3,0.0070,0.00
random512-20-4.map,random512-20-4.map.scen,4,WA* (x2.0),2.0,3,True,5.0000,3.82842712,6,0.0143,30.60
random512-20-4.map,random512-20-4.map.scen,4,WA* (x2.0),2.0,4,True,1.0000,1.0,2,0.0050,0.00
random512-20-4.map,random512-20-4.map.scen,4,WA* (x2.0),2.0,5,True,2.0000,2.0,3,0.0064,0.00
random512-20-4.map,random512-20-4.map.scen,4,WA* (x2.0),2.0,6,True,0.0000,0.0,1,0.0013,0.00
random512-20-4.map,random512-20-4.map.scen,4,WA* (x2.0),2.0,7,True,4.0000,2.82842712,5,0.0112,41.42
random512-20-4.map,random512-20-4.map.scen,4,WA* (x2.0),2.0,8,True,3.0000,3.0,4,0.0098,0.00
random512-20-4.map,random512-20-4.map.scen,4,WA* (x2.0),2.0,9,True,2.0000,2.0,3,0.0071,0.00
random512-20-4.map,random512-20-4.map.scen,8,BFS,1.0,0,True,3.0000,3.0,12,0.0197,0.00
random512-20-4.map,random512-20-4.map.scen,8,BFS,1.0,1,True,1.0000,1.0,2,0.0043,0.00
random512-20-4.map,random512-20-4.map.scen,8,BFS,1.0,2,True,2.0000,2.0,9,0.0129,0.00
random512-20-4.map,random512-20-4.map.scen,8,BFS,1.0,3,True,3.0000,3.82842712,29,0.0534,-21.64
random512-20-4.map,random512-20-4.map.scen,8,BFS,1.0,4,True,1.0000,1.0,4,0.0099,0.00
random512-20-4.map,random512-20-4.map.scen,8,BFS,1.0,5,True,2.0000,2.0,7,0.0124,0.00
random512-20-4.map,random512-20-4.map.scen,8,BFS,1.0,6,True,0.0000,0.0,1,0.0011,0.00
random512-20-4.map,random512-20-4.map.scen,8,BFS,1.0,7,True,2.0000,2.82842712,16,0.0265,-29.29
random512-20-4.map,random512-20-4.map.scen,8,BFS,1.0,8,True,3.0000,3.0,22,0.0334,0.00
random512-20-4.map,random512-20-4.map.scen,8,BFS,1.0,9,True,2.0000,2.0,8,0.0135,0.00
random512-20-4.map,random512-20-4.map.scen,8,Dijkstra,1.0,0,True,3.0000,3.0,14,0.0318,0.00
random512-20-4.map,random512-20-4.map.scen,8,Dijkstra,1.0,1,True,1.0000,1.0,2,0.0057,0.00
random512-20-4.map,random512-20-4.map.scen,8,Dijkstra,1.0,2,True,2.0000,2.0,8,0.0197,0.00
random512-20-4.map,random512-20-4.map.scen,8,Dijkstra,1.0,3,True,3.8284,3.82842712,30,0.0786,0.00
random512-20-4.map,random512-20-4.map.scen,8,Dijkstra,1.0,4,True,1.0000,1.0,3,0.0103,0.00
random512-20-4.map,random512-20-4.map.scen,8,Dijkstra,1.0,5,True,2.0000,2.0,8,0.0227,0.00
random512-20-4.map,random512-20-4.map.scen,8,Dijkstra,1.0,6,True,0.0000,0.0,1,0.0013,0.00
random512-20-4.map,random512-20-4.map.scen,8,Dijkstra,1.0,7,True,2.8284,2.82842712,16,0.0425,0.00
random512-20-4.map,random512-20-4.map.scen,8,Dijkstra,1.0,8,True,3.0000,3.0,16,0.0391,0.00
random512-20-4.map,random512-20-4.map.scen,8,Dijkstra,1.0,9,True,2.0000,2.0,10,0.0244,0.00
random512-20-4.map,random512-20-4.map.scen,8,A* (Manhattan),1.0,0,True,3.0000,3.0,4,0.0116,0.00
random512-20-4.map,random512-20-4.map.scen,8,A* (Manhattan),1.0,1,True,1.0000,1.0,2,0.0060,0.00
random512-20-4.map,random512-20-4.map.scen,8,A* (Manhattan),1.0,2,True,2.0000,2.0,3,0.0098,0.00
random512-20-4.map,random512-20-4.map.scen,8,A* (Manhattan),1.0,3,True,3.8284,3.82842712,4,0.0166,0.00
random512-20-4.map,random512-20-4.map.scen,8,A* (Manhattan),1.0,4,True,1.0000,1.0,2,0.0073,0.00
random512-20-4.map,random512-20-4.map.scen,8,A* (Manhattan),1.0,5,True,2.0000,2.0,3,0.0077,0.00
random512-20-4.map,random512-20-4.map.scen,8,A* (Manhattan),1.0,6,True,0.0000,0.0,1,0.0013,0.00
random512-20-4.map,random512-20-4.map.scen,8,A* (Manhattan),1.0,7,True,2.8284,2.82842712,3,0.0096,0.00
random512-20-4.map,random512-20-4.map.scen,8,A* (Manhattan),1.0,8,True,3.0000,3.0,4,0.0118,0.00
random512-20-4.map,random512-20-4.map.scen,8,A* (Manhattan),1.0,9,True,2.0000,2.0,3,0.0096,0.00
random512-20-4.map,random512-20-4.map.scen,8,A* (Euclid),1.0,0,True,3.0000,3.0,4,0.0112,0.00
random512-20-4.map,random512-20-4.map.scen,8,A* (Euclid),1.0,1,True,1.0000,1.0,2,0.0057,0.00
random512-20-4.map,random512-20-4.map.scen,8,A* (Euclid),1.0,2,True,2.0000,2.0,3,0.0095,0.00
random512-20-4.map,random512-20-4.map.scen,8,A* (Euclid),1.0,3,True,3.8284,3.82842712,4,0.0158,0.00
random512-20-4.map,random512-20-4.map.scen,8,A* (Euclid),1.0,4,True,1.0000,1.0,2,0.0075,0.00
random512-20-4.map,random512-20-4.map.scen,8,A* (Euclid),1.0,5,True,2.0000,2.0,3,0.0078,0.00
random512-20-4.map,random512-20-4.map.scen,8,A* (Euclid),1.0,6,True,0.0000,0.0,1,0.0013,0.00
random512-20-4.map,random512-20-4.map.scen,8,A* (Euclid),1.0,7,True,2.8284,2.82842712,3,0.0096,0.00
random512-20-4.map,random512-20-4.map.scen,8,A* (Euclid),1.0,8,True,3.0000,3.0,4,0.0120,0.00
random512-20-4.map,random512-20-4.map.scen,8,A* (Euclid),1.0,9,True,2.0000,2.0,3,0.0091,0.00
random512-20-4.map,random512-20-4.map.scen,8,A* (Octile),1.0,0,True,3.0000,3.0,4,0.0113,0.00
random512-20-4.map,random512-20-4.map.scen,8,A* (Octile),1.0,1,True,1.0000,1.0,2,0.0059,0.00
random512-20-4.map,random512-20-4.map.scen,8,A* (Octile),1.0,2,True,2.0000,2.0,3,0.0096,0.00
random512-20-4.map,random512-20-4.map.scen,8,A* (Octile),1.0,3,True,3.8284,3.82842712,4,0.0160,0.00
random512-20-4.map,random512-20-4.map.scen,8,A* (Octile),1.0,4,True,1.0000,1.0,2,0.0073,0.00
random512-20-4.map,random512-20-4.map.scen,8,A* (Octile),1.0,5,True,2.0000,2.0,3,0.0088,0.00
random512-20-4.map,random512-20-4.map.scen,8,A* (Octile),1.0,6,True,0.0000,0.0,1,0.0013,0.00
random512-20-4.map,random512-20-4.map.scen,8,A* (Octile),1.0,7,True,2.8284,2.82842712,3,0.0096,0.00
random512-20-4.map,random512-20-4.map.scen,8,A* (Octile),1.0,8,True,3.0000,3.0,4,0.0117,0.00
random512-20-4.map,random512-20-4.map.scen,8,A* (Octile),1.0,9,True,2.0000,2.0,3,0.0092,0.00
random512-20-4.map,random512-20-4.map.scen,8,WA* (x1.5),1.5,0,True,3.0000,3.0,4,0.0114,0.00
random512-20-4.map,random512-20-4.map.scen,8,WA* (x1.5),1.5,1,True,1.0000,1.0,2,0.0059,0.00
random512-20-4.map,random512-20-4.map.scen,8,WA* (x1.5),1.5,2,True,2.0000,2.0,3,0.0098,0.00
random512-20-4.map,random512-20-4.map.scen,8,WA* (x1.5),1.5,3,True,3.8284,3.82842712,4,0.0171,0.00
random512-20-4.map,random512-20-4.map.scen,8,WA* (x1.5),1.5,4,True,1.0000,1.0,2,0.0076,0.00
random512-20-4.map,random512-20-4.map.scen,8,WA* (x1.5),1.5,5,True,2.0000,2.0,3,0.0078,0.00
random512-20-4.map,random512-20-4.map.scen,8,WA* (x1.5),1.5,6,True,0.0000,0.0,1,0.0012,0.00
random512-20-4.map,random512-20-4.map.scen,8,WA* (x1.5),1.5,7,True,2.8284,2.82842712,3,0.0092,0.00
random512-20-4.map,random512-20-4.map.scen,8,WA* (x1.5),1.5,8,True,3.0000,3.0,4,0.0113,0.00
random512-20-4.map,random512-20-4.map.scen,8,WA* (x1.5),1.5,9,True,2.0000,2.0,3,0.0091,0.00
random512-20-4.map,random512-20-4.map.scen,8,WA* (x2.0),2.0,0,True,3.0000,3.0,4,0.0111,0.00
random512-20-4.map,random512-20-4.map.scen,8,WA* (x2.0),2.0,1,True,1.0000,1.0,2,0.0059,0.00
random512-20-4.map,random512-20-4.map.scen,8,WA* (x2.0),2.0,2,True,2.0000,2.0,3,0.0097,0.00
random512-20-4.map,random512-20-4.map.scen,8,WA* (x2.0),2.0,3,True,3.8284,3.82842712,4,0.0160,0.00
random512-20-4.map,random512-20-4.map.scen,8,WA* (x2.0),2.0,4,True,1.0000,1.0,2,0.0144,0.00
random512-20-4.map,random512-20-4.map.scen,8,WA* (x2.0),2.0,5,True,2.0000,2.0,3,0.0081,0.00
random512-20-4.map,random512-20-4.map.scen,8,WA* (x2.0),2.0,6,True,0.0000,0.0,1,0.0013,0.00
random512-20-4.map,random512-20-4.map.scen,8,WA* (x2.0),2.0,7,True,2.8284,2.82842712,3,0.0092,0.00
random512-20-4.map,random512-20-4.map.scen,8,WA* (x2.0),2.0,8,True,3.0000,3.0,4,0.0115,0.00
random512-20-4.map,random512-20-4.map.scen,8,WA* (x2.0),2.0,9,True,2.0000,2.0,3,0.0093,0.00
random512-30-6.map,random512-30-6.map.scen,4,BFS,1.0,0,True,4.0000,3.41421356,11,0.0298,17.16
random512-30-6.map,random512-30-6.map.scen,4,BFS,1.0,1,True,3.0000,2.41421356,11,0.0263,24.26
random512-30-6.map,random512-30-6.map.scen,4,BFS,1.0,2,True,3.0000,3.0,10,0.0232,0.00
random512-30-6.map,random512-30-6.map.scen,4,BFS,1.0,3,True,4.0000,3.41421356,15,0.0281,17.16
random512-30-6.map,random512-30-6.map.scen,4,BFS,1.0,4,True,1.0000,1.0,4,0.0093,0.00
random512-30-6.map,random512-30-6.map.scen,4,BFS,1.0,5,True,3.0000,3.0,8,0.0129,0.00
random512-30-6.map,random512-30-6.map.scen,4,BFS,1.0,6,True,3.0000,3.0,9,0.0160,0.00
random512-30-6.map,random512-30-6.map.scen,4,BFS,1.0,7,True,5.0000,3.82842712,35,0.0632,30.60
random512-30-6.map,random512-30-6.map.scen,4,BFS,1.0,8,True,3.0000,2.41421356,9,0.0160,24.26
random512-30-6.map,random512-30-6.map.scen,4,BFS,1.0,9,True,1.0000,1.0,4,0.0072,0.00
random512-30-6.map,random512-30-6.map.scen,4,Dijkstra,1.0,0,True,4.0000,3.41421356,10,0.0224,17.16
random512-30-6.map,random512-30-6.map.scen,4,Dijkstra,1.0,1,True,3.0000,2.41421356,13,0.0368,24.26
random512-30-6.map,random512-30-6.map.scen,4,Dijkstra,1.0,2,True,3.0000,3.0,14,0.0333,0.00
random512-30-6.map,random512-30-6.map.scen,4,Dijkstra,1.0,3,True,4.0000,3.41421356,14,0.0383,17.16
random512-30-6.map,random512-30-6.map.scen,4,Dijkstra,1.0,4,True,1.0000,1.0,3,0.0079,0.00
random512-30-6.map,random512-30-6.map.scen,4,Dijkstra,1.0,5,True,3.0000,3.0,9,0.0131,0.00
random512-30-6.map,random512-30-6.map.scen,4,Dijkstra,1.0,6,True,3.0000,3.0,9,0.0148,0.00
random512-30-6.map,random512-30-6.map.scen,4,Dijkstra,1.0,7,True,5.0000,3.82842712,36,0.0646,30.60
random512-30-6.map,random512-30-6.map.scen,4,Dijkstra,1.0,8,True,3.0000,2.41421356,8,0.0132,24.26
random512-30-6.map,random512-30-6.map.scen,4,Dijkstra,1.0,9,True,1.0000,1.0,4,0.0069,0.00
random512-30-6.map,random512-30-6.map.scen,4,A* (Manhattan),1.0,0,True,4.0000,3.41421356,7,0.0137,17.16
random512-30-6.map,random512-30-6.map.scen,4,A* (Manhattan),1.0,1,True,3.0000,2.41421356,5,0.0097,24.26
random512-30-6.map,random512-30-6.map.scen,4,A* (Manhattan),1.0,2,True,3.0000,3.0,4,0.0151,0.00
random512-30-6.map,random512-30-6.map.scen,4,A* (Manhattan),1.0,3,True,4.0000,3.41421356,6,0.0118,17.16
random512-30-6.map,random512-30-6.map.scen,4,A* (Manhattan),1.0,4,True,1.0000,1.0,2,0.0047,0.00
random512-30-6.map,random512-30-6.map.scen,4,A* (Manhattan),1.0,5,True,3.0000,3.0,5,0.0095,0.00
random512-30-6.map,random512-30-6.map.scen,4,A* (Manhattan),1.0,6,True,3.0000,3.0,4,0.0082,0.00
random512-30-6.map,random512-30-6.map.scen,4,A* (Manhattan),1.0,7,True,5.0000,3.82842712,10,0.0202,30.60
random512-30-6.map,random512-30-6.map.scen,4,A* (Manhattan),1.0,8,True,3.0000,2.41421356,5,0.0083,24.26
random512-30-6.map,random512-30-6.map.scen,4,A* (Manhattan),1.0,9,True,1.0000,1.0,2,0.0042,0.00
random512-30-6.map,random512-30-6.map.scen,4,A* (Euclid),1.0,0,True,4.0000,3.41421356,7,0.0137,17.16
random512-30-6.map,random512-30-6.map.scen,4,A* (Euclid),1.0,1,True,3.0000,2.41421356,5,0.0092,24.26
random512-30-6.map,random512-30-6.map.scen,4,A* (Euclid),1.0,2,True,3.0000,3.0,4,0.0081,0.00
random512-30-6.map,random512-30-6.map.scen,4,A* (Euclid),1.0,3,True,4.0000,3.41421356,6,0.0107,17.16
random512-30-6.map,random512-30-6.map.scen,4,A* (Euclid),1.0,4,True,1.0000,1.0,2,0.0048,0.00
random512-30-6.map,random512-30-6.map.scen,4,A* (Euclid),1.0,5,True,3.0000,3.0,5,0.0095,0.00
random512-30-6.map,random512-30-6.map.scen,4,A* (Euclid),1.0,6,True,3.0000,3.0,4,0.0082,0.00
random512-30-6.map,random512-30-6.map.scen,4,A* (Euclid),1.0,7,True,5.0000,3.82842712,10,0.0204,30.60
random512-30-6.map,random512-30-6.map.scen,4,A* (Euclid),1.0,8,True,3.0000,2.41421356,5,0.0085,24.26
random512-30-6.map,random512-30-6.map.scen,4,A* (Euclid),1.0,9,True,1.0000,1.0,2,0.0043,0.00
random512-30-6.map,random512-30-6.map.scen,4,A* (Octile),1.0,0,True,4.0000,3.41421356,7,0.0131,17.16
random512-30-6.map,random512-30-6.map.scen,4,A* (Octile),1.0,1,True,3.0000,2.41421356,5,0.0093,24.26
random512-30-6.map,random512-30-6.map.scen,4,A* (Octile),1.0,2,True,3.0000,3.0,4,0.0081,0.00
random512-30-6.map,random512-30-6.map.scen,4,A* (Octile),1.0,3,True,4.0000,3.41421356,6,0.0108,17.16
random512-30-6.map,random512-30-6.map.scen,4,A* (Octile),1.0,4,True,1.0000,1.0,2,0.0047,0.00
random512-30-6.map,random512-30-6.map.scen,4,A* (Octile),1.0,5,True,3.0000,3.0,5,0.0091,0.00
random512-30-6.map,random512-30-6.map.scen,4,A* (Octile),1.0,6,True,3.0000,3.0,4,0.0081,0.00
random512-30-6.map,random512-30-6.map.scen,4,A* (Octile),1.0,7,True,5.0000,3.82842712,10,0.0197,30.60
random512-30-6.map,random512-30-6.map.scen,4,A* (Octile),1.0,8,True,3.0000,2.41421356,5,0.0080,24.26
random512-30-6.map,random512-30-6.map.scen,4,A* (Octile),1.0,9,True,1.0000,1.0,2,0.0042,0.00
random512-30-6.map,random512-30-6.map.scen,4,WA* (x1.5),1.5,0,True,4.0000,3.41421356,5,0.0095,17.16
random512-30-6.map,random512-30-6.map.scen,4,WA* (x1.5),1.5,1,True,3.0000,2.41421356,4,0.0075,24.26
random512-30-6.map,random512-30-6.map.scen,4,WA* (x1.5),1.5,2,True,3.0000,3.0,4,0.0080,0.00
random512-30-6.map,random512-30-6.map.scen,4,WA* (x1.5),1.5,3,True,4.0000,3.41421356,5,0.0091,17.16
random512-30-6.map,random512-30-6.map.scen,4,WA* (x1.5),1.5,4,True,1.0000,1.0,2,0.0047,0.00
random512-30-6.map,random512-30-6.map.scen,4,WA* (x1.5),1.5,5,True,3.0000,3.0,4,0.0088,0.00
random512-30-6.map,random512-30-6.map.scen,4,WA* (x1.5),1.5,6,True,3.0000,3.0,4,0.0081,0.00
random512-30-6.map,random512-30-6.map.scen,4,WA* (x1.5),1.5,7,True,5.0000,3.82842712,6,0.0116,30.60
random512-30-6.map,random512-30-6.map.scen,4,WA* (x1.5),1.5,8,True,3.0000,2.41421356,4,0.0109,24.26
random512-30-6.map,random512-30-6.map.scen,4,WA* (x1.5),1.5,9,True,1.0000,1.0,2,0.0046,0.00
random512-30-6.map,random512-30-6.map.scen,4,WA* (x2.0),2.0,0,True,4.0000,3.41421356,5,0.0104,17.16
random512-30-6.map,random512-30-6.map.scen,4,WA* (x2.0),2.0,1,True,3.0000,2.41421356,4,0.0072,24.26
random512-30-6.map,random512-30-6.map.scen,4,WA* (x2.0),2.0,2,True,3.0000,3.0,4,0.0080,0.00
random512-30-6.map,random512-30-6.map.scen,4,WA* (x2.0),2.0,3,True,4.0000,3.41421356,5,0.0092,17.16
random512-30-6.map,random512-30-6.map.scen,4,WA* (x2.0),2.0,4,True,1.0000,1.0,2,0.0046,0.00
random512-30-6.map,random512-30-6.map.scen,4,WA* (x2.0),2.0,5,True,3.0000,3.0,4,0.0084,0.00
random512-30-6.map,random512-30-6.map.scen,4,WA* (x2.0),2.0,6,True,3.0000,3.0,4,0.0079,0.00
random512-30-6.map,random512-30-6.map.scen,4,WA* (x2.0),2.0,7,True,5.0000,3.82842712,6,0.0115,30.60
random512-30-6.map,random512-30-6.map.scen,4,WA* (x2.0),2.0,8,True,3.0000,2.41421356,4,0.0069,24.26
random512-30-6.map,random512-30-6.map.scen,4,WA* (x2.0),2.0,9,True,1.0000,1.0,2,0.0041,0.00
random512-30-6.map,random512-30-6.map.scen,8,BFS,1.0,0,True,3.0000,3.41421356,10,0.0114,-12.13
random512-30-6.map,random512-30-6.map.scen,8,BFS,1.0,1,True,2.0000,2.41421356,9,0.0136,-17.16
random512-30-6.map,random512-30-6.map.scen,8,BFS,1.0,2,True,3.0000,3.0,11,0.0134,0.00
random512-30-6.map,random512-30-6.map.scen,8,BFS,1.0,3,True,3.0000,3.41421356,11,0.0150,-12.13
random512-30-6.map,random512-30-6.map.scen,8,BFS,1.0,4,True,1.0000,1.0,4,0.0073,0.00
random512-30-6.map,random512-30-6.map.scen,8,BFS,1.0,5,True,3.0000,3.0,9,0.0097,0.00
random512-30-6.map,random512-30-6.map.scen,8,BFS,1.0,6,True,3.0000,3.0,9,0.0110,0.00
random512-30-6.map,random512-30-6.map.scen,8,BFS,1.0,7,True,3.0000,3.82842712,26,0.0366,-21.64
random512-30-6.map,random512-30-6.map.scen,8,BFS,1.0,8,True,2.0000,2.41421356,7,0.0088,-17.16
random512-30-6.map,random512-30-6.map.scen,8,BFS,1.0,9,True,1.0000,1.0,4,0.0057,0.00
random512-30-6.map,random512-30-6.map.scen,8,Dijkstra,1.0,0,True,3.4142,3.41421356,10,0.0153,0.00
random512-30-6.map,random512-30-6.map.scen,8,Dijkstra,1.0,1,True,2.4142,2.41421356,9,0.0201,0.00
random512-30-6.map,random512-30-6.map.scen,8,Dijkstra,1.0,2,True,3.0000,3.0,14,0.0255,0.00
random512-30-6.map,random512-30-6.map.scen,8,Dijkstra,1.0,3,True,3.4142,3.41421356,15,0.0294,0.00
random512-30-6.map,random512-30-6.map.scen,8,Dijkstra,1.0,4,True,1.0000,1.0,3,0.0085,0.00
random512-30-6.map,random512-30-6.map.scen,8,Dijkstra,1.0,5,True,3.0000,3.0,9,0.0136,0.00
random512-30-6.map,random512-30-6.map.scen,8,Dijkstra,1.0,6,True,3.0000,3.0,9,0.0161,0.00
random512-30-6.map,random512-30-6.map.scen,8,Dijkstra,1.0,7,True,3.8284,3.82842712,26,0.0589,0.00
random512-30-6.map,random512-30-6.map.scen,8,Dijkstra,1.0,8,True,2.4142,2.41421356,7,0.0173,0.00
random512-30-6.map,random512-30-6.map.scen,8,Dijkstra,1.0,9,True,1.0000,1.0,3,0.0066,0.00
random512-30-6.map,random512-30-6.map.scen,8,A* (Manhattan),1.0,0,True,3.4142,3.41421356,5,0.0105,0.00
random512-30-6.map,random512-30-6.map.scen,8,A* (Manhattan),1.0,1,True,2.4142,2.41421356,3,0.0064,0.00
random512-30-6.map,random512-30-6.map.scen,8,A* (Manhattan),1.0,2,True,3.0000,3.0,4,0.0142,0.00
random512-30-6.map,random512-30-6.map.scen,8,A* (Manhattan),1.0,3,True,3.4142,3.41421356,4,0.0108,0.00
random512-30-6.map,random512-30-6.map.scen,8,A* (Manhattan),1.0,4,True,1.0000,1.0,2,0.0065,0.00
random512-30-6.map,random512-30-6.map.scen,8,A* (Manhattan),1.0,5,True,3.0000,3.0,5,0.0102,0.00
random512-30-6.map,random512-30-6.map.scen,8,A* (Manhattan),1.0,6,True,3.0000,3.0,4,0.0106,0.00
random512-30-6.map,random512-30-6.map.scen,8,A* (Manhattan),1.0,7,True,3.8284,3.82842712,4,0.0115,0.00
random512-30-6.map,random512-30-6.map.scen,8,A* (Manhattan),1.0,8,True,2.4142,2.41421356,3,0.0061,0.00
random512-30-6.map,random512-30-6.map.scen,8,A* (Manhattan),1.0,9,True,1.0000,1.0,2,0.0056,0.00
random512-30-6.map,random512-30-6.map.scen,8,A* (Euclid),1.0,0,True,3.4142,3.41421356,4,0.0083,0.00
random512-30-6.map,random512-30-6.map.scen,8,A* (Euclid),1.0,1,True,2.4142,2.41421356,3,0.0062,0.00
random512-30-6.map,random512-30-6.map.scen,8,A* (Euclid),1.0,2,True,3.0000,3.0,4,0.0086,0.00
random512-30-6.map,random512-30-6.map.scen,8,A* (Euclid),1.0,3,True,3.4142,3.41421356,4,0.0084,0.00
random512-30-6.map,random512-30-6.map.scen,8,A* (Euclid),1.0,4,True,1.0000,1.0,2,0.0061,0.00
random512-30-6.map,random512-30-6.map.scen,8,A* (Euclid),1.0,5,True,3.0000,3.0,5,0.0099,0.00
random512-30-6.map,random512-30-6.map.scen,8,A* (Euclid),1.0,6,True,3.0000,3.0,4,0.0100,0.00
random512-30-6.map,random512-30-6.map.scen,8,A* (Euclid),1.0,7,True,3.8284,3.82842712,4,0.0117,0.00
random512-30-6.map,random512-30-6.map.scen,8,A* (Euclid),1.0,8,True,2.4142,2.41421356,4,0.0077,0.00
random512-30-6.map,random512-30-6.map.scen,8,A* (Euclid),1.0,9,True,1.0000,1.0,2,0.0056,0.00
random512-30-6.map,random512-30-6.map.scen,8,A* (Octile),1.0,0,True,3.4142,3.41421356,4,0.0083,0.00
random512-30-6.map,random512-30-6.map.scen,8,A* (Octile),1.0,1,True,2.4142,2.41421356,3,0.0062,0.00
random512-30-6.map,random512-30-6.map.scen,8,A* (Octile),1.0,2,True,3.0000,3.0,4,0.0087,0.00
random512-30-6.map,random512-30-6.map.scen,8,A* (Octile),1.0,3,True,3.4142,3.41421356,4,0.0083,0.00
random512-30-6.map,random512-30-6.map.scen,8,A* (Octile),1.0,4,True,1.0000,1.0,2,0.0060,0.00
random512-30-6.map,random512-30-6.map.scen,8,A* (Octile),1.0,5,True,3.0000,3.0,5,0.0097,0.00
random512-30-6.map,random512-30-6.map.scen,8,A* (Octile),1.0,6,True,3.0000,3.0,4,0.0097,0.00
random512-30-6.map,random512-30-6.map.scen,8,A* (Octile),1.0,7,True,3.8284,3.82842712,4,0.0116,0.00
random512-30-6.map,random512-30-6.map.scen,8,A* (Octile),1.0,8,True,2.4142,2.41421356,4,0.0079,0.00
random512-30-6.map,random512-30-6.map.scen,8,A* (Octile),1.0,9,True,1.0000,1.0,2,0.0055,0.00
random512-30-6.map,random512-30-6.map.scen,8,WA* (x1.5),1.5,0,True,3.4142,3.41421356,4,0.0083,0.00
random512-30-6.map,random512-30-6.map.scen,8,WA* (x1.5),1.5,1,True,2.4142,2.41421356,3,0.0062,0.00
random512-30-6.map,random512-30-6.map.scen,8,WA* (x1.5),1.5,2,True,3.0000,3.0,4,0.0086,0.00
random512-30-6.map,random512-30-6.map.scen,8,WA* (x1.5),1.5,3,True,3.4142,3.41421356,4,0.0086,0.00
random512-30-6.map,random512-30-6.map.scen,8,WA* (x1.5),1.5,4,True,1.0000,1.0,2,0.0060,0.00
random512-30-6.map,random512-30-6.map.scen,8,WA* (x1.5),1.5,5,True,3.0000,3.0,4,0.0097,0.00
random512-30-6.map,random512-30-6.map.scen,8,WA* (x1.5),1.5,6,True,3.0000,3.0,4,0.0105,0.00
random512-30-6.map,random512-30-6.map.scen,8,WA* (x1.5),1.5,7,True,3.8284,3.82842712,4,0.0130,0.00
random512-30-6.map,random512-30-6.map.scen,8,WA* (x1.5),1.5,8,True,2.4142,2.41421356,3,0.0062,0.00
random512-30-6.map,random512-30-6.map.scen,8,WA* (x1.5),1.5,9,True,1.0000,1.0,2,0.0057,0.00
random512-30-6.map,random512-30-6.map.scen,8,WA* (x2.0),2.0,0,True,3.4142,3.41421356,4,0.0085,0.00
random512-30-6.map,random512-30-6.map.scen,8,WA* (x2.0),2.0,1,True,2.4142,2.41421356,3,0.0061,0.00
random512-30-6.map,random512-30-6.map.scen,8,WA* (x2.0),2.0,2,True,3.0000,3.0,4,0.0089,0.00
random512-30-6.map,random512-30-6.map.scen,8,WA* (x2.0),2.0,3,True,3.4142,3.41421356,4,0.0083,0.00
random512-30-6.map,random512-30-6.map.scen,8,WA* (x2.0),2.0,4,True,1.0000,1.0,2,0.0062,0.00
random512-30-6.map,random512-30-6.map.scen,8,WA* (x2.0),2.0,5,True,3.0000,3.0,4,0.0094,0.00
random512-30-6.map,random512-30-6.map.scen,8,WA* (x2.0),2.0,6,True,3.0000,3.0,4,0.0097,0.00
random512-30-6.map,random512-30-6.map.scen,8,WA* (x2.0),2.0,7,True,3.8284,3.82842712,4,0.0120,0.00
random512-30-6.map,random512-30-6.map.scen,8,WA* (x2.0),2.0,8,True,2.4142,2.41421356,3,0.0062,0.00
random512-30-6.map,random512-30-6.map.scen,8,WA* (x2.0),2.0,9,True,1.0000,1.0,2,0.0055,0.00
random512-10-0.map,random512-10-0.map.scen,4,BFS,1.0,0,True,3.0000,2.41421356,20,0.0322,24.26
random512-10-0.map,random512-10-0.map.scen,4,BFS,1.0,1,True,0.0000,0.0,1,0.0012,0.00
random512-10-0.map,random512-10-0.map.scen,4,BFS,1.0,2,True,3.0000,3.0,15,0.0182,0.00
random512-10-0.map,random512-10-0.map.scen,4,BFS,1.0,3,True,4.0000,2.82842712,29,0.0489,41.42
random512-10-0.map,random512-10-0.map.scen,4,BFS,1.0,4,True,0.0000,0.0,1,0.0015,0.00
random512-10-0.map,random512-10-0.map.scen,4,BFS,1.0,5,True,4.0000,3.41421356,38,0.0575,17.16
random512-10-0.map,random512-10-0.map.scen,4,BFS,1.0,6,True,0.0000,0.0,1,0.0012,0.00
random512-10-0.map,random512-10-0.map.scen,4,BFS,1.0,7,True,4.0000,3.41421356,27,0.0362,17.16
random512-10-0.map,random512-10-0.map.scen,4,BFS,1.0,8,True,4.0000,3.41421356,24,0.0304,17.16
random512-10-0.map,random512-10-0.map.scen,4,BFS,1.0,9,True,4.0000,2.82842712,27,0.0342,41.42
random512-10-0.map,random512-10-0.map.scen,4,Dijkstra,1.0,0,True,3.0000,2.41421356,18,0.0377,24.26
random512-10-0.map,random512-10-0.map.scen,4,Dijkstra,1.0,1,True,0.0000,0.0,1,0.0013,0.00
random512-10-0.map,random512-10-0.map.scen,4,Dijkstra,1.0,2,True,3.0000,3.0,17,0.0326,0.00
random512-10-0.map,random512-10-0.map.scen,4,Dijkstra,1.0,3,True,4.0000,2.82842712,30,0.0574,41.42
random512-10-0.map,random512-10-0.map.scen,4,Dijkstra,1.0,4,True,0.0000,0.0,1,0.0013,0.00
random512-10-0.map,random512-10-0.map.scen,4,Dijkstra,1.0,5,True,4.0000,3.41421356,34,0.0725,17.16
random512-10-0.map,random512-10-0.map.scen,4,Dijkstra,1.0,6,True,0.0000,0.0,1,0.0012,0.00
random512-10-0.map,random512-10-0.map.scen,4,Dijkstra,1.0,7,True,4.0000,3.41421356,23,0.0411,17.16
random512-10-0.map,random512-10-0.map.scen,4,Dijkstra,1.0,8,True,4.0000,3.41421356,27,0.0474,17.16
random512-10-0.map,random512-10-0.map.scen,4,Dijkstra,1.0,9,True,4.0000,2.82842712,23,0.0433,41.42
random512-10-0.map,random512-10-0.map.scen,4,A* (Manhattan),1.0,0,True,3.0000,2.41421356,6,0.0127,24.26
random512-10-0.map,random512-10-0.map.scen,4,A* (Manhattan),1.0,1,True,0.0000,0.0,1,0.0012,0.00
random512-10-0.map,random512-10-0.map.scen,4,A* (Manhattan),1.0,2,True,3.0000,3.0,4,0.0073,0.00
random512-10-0.map,random512-10-0.map.scen,4,A* (Manhattan),1.0,3,True,4.0000,2.82842712,9,0.0191,41.42
random512-10-0.map,random512-10-0.map.scen,4,A* (Manhattan),1.0,4,True,0.0000,0.0,1,0.0012,0.00
random512-10-0.map,random512-10-0.map.scen,4,A* (Manhattan),1.0,5,True,4.0000,3.41421356,8,0.0177,17.16
random512-10-0.map,random512-10-0.map.scen,4,A* (Manhattan),1.0,6,True,0.0000,0.0,1,0.0012,0.00
random512-10-0.map,random512-10-0.map.scen,4,A* (Manhattan),1.0,7,True,4.0000,3.41421356,7,0.0147,17.16
random512-10-0.map,random512-10-0.map.scen,4,A* (Manhattan),1.0,8,True,4.0000,3.41421356,7,0.0155,17.16
random512-10-0.map,random512-10-0.map.scen,4,A* (Manhattan),1.0,9,True,4.0000,2.82842712,8,0.0169,41.42
random512-10-0.map,random512-10-0.map.scen,4,A* (Euclid),1.0,0,True,3.0000,2.41421356,6,0.0129,24.26
random512-10-0.map,random512-10-0.map.scen,4,A* (Euclid),1.0,1,True,0.0000,0.0,1,0.0011,0.00
random512-10-0.map,random512-10-0.map.scen,4,A* (Euclid),1.0,2,True,3.0000,3.0,4,0.0074,0.00
random512-10-0.map,random512-10-0.map.scen,4,A* (Euclid),1.0,3,True,4.0000,2.82842712,9,0.0194,41.42
random512-10-0.map,random512-10-0.map.scen,4,A* (Euclid),1.0,4,True,0.0000,0.0,1,0.0012,0.00
random512-10-0.map,random512-10-0.map.scen,4,A* (Euclid),1.0,5,True,4.0000,3.41421356,8,0.0174,17.16
random512-10-0.map,random512-10-0.map.scen,4,A* (Euclid),1.0,6,True,0.0000,0.0,1,0.0012,0.00
random512-10-0.map,random512-10-0.map.scen,4,A* (Euclid),1.0,7,True,4.0000,3.41421356,7,0.0145,17.16
random512-10-0.map,random512-10-0.map.scen,4,A* (Euclid),1.0,8,True,4.0000,3.41421356,7,0.0156,17.16
random512-10-0.map,random512-10-0.map.scen,4,A* (Euclid),1.0,9,True,4.0000,2.82842712,8,0.0169,41.42
random512-10-0.map,random512-10-0.map.scen,4,A* (Octile),1.0,0,True,3.0000,2.41421356,6,0.0124,24.26
random512-10-0.map,random512-10-0.map.scen,4,A* (Octile),1.0,1,True,0.0000,0.0,1,0.0012,0.00
random512-10-0.map,random512-10-0.map.scen,4,A* (Octile),1.0,2,True,3.0000,3.0,4,0.0076,0.00
random512-10-0.map,random512-10-0.map.scen,4,A* (Octile),1.0,3,True,4.0000,2.82842712,9,0.0196,41.42
random512-10-0.map,random512-10-0.map.scen,4,A* (Octile),1.0,4,True,0.0000,0.0,1,0.0012,0.00
random512-10-0.map,random512-10-0.map.scen,4,A* (Octile),1.0,5,True,4.0000,3.41421356,8,0.0170,17.16
random512-10-0.map,random512-10-0.map.scen,4,A* (Octile),1.0,6,True,0.0000,0.0,1,0.0014,0.00
random512-10-0.map,random512-10-0.map.scen,4,A* (Octile),1.0,7,True,4.0000,3.41421356,7,0.0159,17.16
random512-10-0.map,random512-10-0.map.scen,4,A* (Octile),1.0,8,True,4.0000,3.41421356,7,0.0168,17.16
random512-10-0.map,random512-10-0.map.scen,4,A* (Octile),1.0,9,True,4.0000,2.82842712,8,0.0177,41.42
random512-10-0.map,random512-10-0.map.scen,4,WA* (x1.5),1.5,0,True,3.0000,2.41421356,4,0.0091,24.26
random512-10-0.map,random512-10-0.map.scen,4,WA* (x1.5),1.5,1,True,0.0000,0.0,1,0.0012,0.00
random512-10-0.map,random512-10-0.map.scen,4,WA* (x1.5),1.5,2,True,3.0000,3.0,4,0.0077,0.00
random512-10-0.map,random512-10-0.map.scen,4,WA* (x1.5),1.5,3,True,4.0000,2.82842712,5,0.0112,41.42
random512-10-0.map,random512-10-0.map.scen,4,WA* (x1.5),1.5,4,True,0.0000,0.0,1,0.0012,0.00
random512-10-0.map,random512-10-0.map.scen,4,WA* (x1.5),1.5,5,True,4.0000,3.41421356,5,0.0114,17.16
random512-10-0.map,random512-10-0.map.scen,4,WA* (x1.5),1.5,6,True,0.0000,0.0,1,0.0012,0.00
random512-10-0.map,random512-10-0.map.scen,4,WA* (x1.5),1.5,7,True,4.0000,3.41421356,5,0.0108,17.16
random512-10-0.map,random512-10-0.map.scen,4,WA* (x1.5),1.5,8,True,4.0000,3.41421356,5,0.0118,17.16
random512-10-0.map,random512-10-0.map.scen,4,WA* (x1.5),1.5,9,True,4.0000,2.82842712,5,0.0109,41.42
random512-10-0.map,random512-10-0.map.scen,4,WA* (x2.0),2.0,0,True,3.0000,2.41421356,4,0.0091,24.26
random512-10-0.map,random512-10-0.map.scen,4,WA* (x2.0),2.0,1,True,0.0000,0.0,1,0.0012,0.00
random512-10-0.map,random512-10-0.map.scen,4,WA* (x2.0),2.0,2,True,3.0000,3.0,4,0.0074,0.00
random512-10-0.map,random512-10-0.map.scen,4,WA* (x2.0),2.0,3,True,4.0000,2.82842712,5,0.0107,41.42
random512-10-0.map,random512-10-0.map.scen,4,WA* (x2.0),2.0,4,True,0.0000,0.0,1,0.0012,0.00
random512-10-0.map,random512-10-0.map.scen,4,WA* (x2.0),2.0,5,True,4.0000,3.41421356,5,0.0121,17.16
random512-10-0.map,random512-10-0.map.scen,4,WA* (x2.0),2.0,6,True,0.0000,0.0,1,0.0012,0.00
random512-10-0.map,random512-10-0.map.scen,4,WA* (x2.0),2.0,7,True,4.0000,3.41421356,5,0.0107,17.16
random512-10-0.map,random512-10-0.map.scen,4,WA* (x2.0),2.0,8,True,4.0000,3.41421356,5,0.0110,17.16
random512-10-0.map,random512-10-0.map.scen,4,WA* (x2.0),2.0,9,True,4.0000,2.82842712,5,0.0104,41.42
random512-10-0.map,random512-10-0.map.scen,8,BFS,1.0,0,True,2.0000,2.41421356,17,0.0276,-17.16
random512-10-0.map,random512-10-0.map.scen,8,BFS,1.0,1,True,0.0000,0.0,1,0.0010,0.00
random512-10-0.map,random512-10-0.map.scen,8,BFS,1.0,2,True,3.0000,3.0,21,0.0314,0.00
random512-10-0.map,random512-10-0.map.scen,8,BFS,1.0,3,True,2.0000,2.82842712,25,0.0367,-29.29
random512-10-0.map,random512-10-0.map.scen,8,BFS,1.0,4,True,0.0000,0.0,1,0.0011,0.00
random512-10-0.map,random512-10-0.map.scen,8,BFS,1.0,5,True,3.0000,3.41421356,37,0.0602,-12.13
random512-10-0.map,random512-10-0.map.scen,8,BFS,1.0,6,True,0.0000,0.0,1,0.0010,0.00
random512-10-0.map,random512-10-0.map.scen,8,BFS,1.0,7,True,3.0000,3.41421356,32,0.0471,-12.13
random512-10-0.map,random512-10-0.map.scen,8,BFS,1.0,8,True,3.0000,3.41421356,26,0.0459,-12.13
random512-10-0.map,random512-10-0.map.scen,8,BFS,1.0,9,True,2.0000,2.82842712,24,0.0400,-29.29
random512-10-0.map,random512-10-0.map.scen,8,Dijkstra,1.0,0,True,2.4142,2.41421356,17,0.0467,0.00
random512-10-0.map,random512-10-0.map.scen,8,Dijkstra,1.0,1,True,0.0000,0.0,1,0.0012,0.00
random512-10-0.map,random512-10-0.map.scen,8,Dijkstra,1.0,2,True,3.0000,3.0,16,0.0382,0.00
random512-10-0.map,random512-10-0.map.scen,8,Dijkstra,1.0,3,True,2.8284,2.82842712,25,0.0613,0.00
random512-10-0.map,random512-10-0.map.scen,8,Dijkstra,1.0,4,True,0.0000,0.0,1,0.0012,0.00
random512-10-0.map,random512-10-0.map.scen,8,Dijkstra,1.0,5,True,3.4142,3.41421356,32,0.0820,0.00
random512-10-0.map,random512-10-0.map.scen,8,Dijkstra,1.0,6,True,0.0000,0.0,1,0.0012,0.00
random512-10-0.map,random512-10-0.map.scen,8,Dijkstra,1.0,7,True,3.4142,3.41421356,28,0.0744,0.00
random512-10-0.map,random512-10-0.map.scen,8,Dijkstra,1.0,8,True,3.4142,3.41421356,30,0.0771,0.00
random512-10-0.map,random512-10-0.map.scen,8,Dijkstra,1.0,9,True,2.8284,2.82842712,24,0.0676,0.00
random512-10-0.map,random512-10-0.map.scen,8,A* (Manhattan),1.0,0,True,2.4142,2.41421356,3,0.0108,0.00
random512-10-0.map,random512-10-0.map.scen,8,A* (Manhattan),1.0,1,True,0.0000,0.0,1,0.0012,0.00
random512-10-0.map,random512-10-0.map.scen,8,A* (Manhattan),1.0,2,True,3.0000,3.0,4,0.0087,0.00
random512-10-0.map,random512-10-0.map.scen,8,A* (Manhattan),1.0,3,True,2.8284,2.82842712,3,0.0122,0.00
random512-10-0.map,random512-10-0.map.scen,8,A* (Manhattan),1.0,4,True,0.0000,0.0,1,0.0012,0.00
random512-10-0.map,random512-10-0.map.scen,8,A* (Manhattan),1.0,5,True,3.4142,3.41421356,4,0.0149,0.00
random512-10-0.map,random512-10-0.map.scen,8,A* (Manhattan),1.0,6,True,0.0000,0.0,1,0.0012,0.00
random512-10-0.map,random512-10-0.map.scen,8,A* (Manhattan),1.0,7,True,3.4142,3.41421356,4,0.0122,0.00
random512-10-0.map,random512-10-0.map.scen,8,A* (Manhattan),1.0,8,True,3.4142,3.41421356,4,0.0144,0.00
random512-10-0.map,random512-10-0.map.scen,8,A* (Manhattan),1.0,9,True,2.8284,2.82842712,3,0.0154,0.00
random512-10-0.map,random512-10-0.map.scen,8,A* (Euclid),1.0,0,True,2.4142,2.41421356,4,0.0146,0.00
random512-10-0.map,random512-10-0.map.scen,8,A* (Euclid),1.0,1,True,0.0000,0.0,1,0.0013,0.00
random512-10-0.map,random512-10-0.map.scen,8,A* (Euclid),1.0,2,True,3.0000,3.0,4,0.0087,0.00
random512-10-0.map,random512-10-0.map.scen,8,A* (Euclid),1.0,3,True,2.8284,2.82842712,3,0.0115,0.00
random512-10-0.map,random512-10-0.map.scen,8,A* (Euclid),1.0,4,True,0.0000,0.0,1,0.0012,0.00
random512-10-0.map,random512-10-0.map.scen,8,A* (Euclid),1.0,5,True,3.4142,3.41421356,6,0.0202,0.00
random512-10-0.map,random512-10-0.map.scen,8,A* (Euclid),1.0,6,True,0.0000,0.0,1,0.0012,0.00
random512-10-0.map,random512-10-0.map.scen,8,A* (Euclid),1.0,7,True,3.4142,3.41421356,6,0.0167,0.00
random512-10-0.map,random512-10-0.map.scen,8,A* (Euclid),1.0,8,True,3.4142,3.41421356,6,0.0182,0.00
random512-10-0.map,random512-10-0.map.scen,8,A* (Euclid),1.0,9,True,2.8284,2.82842712,3,0.0107,0.00
random512-10-0.map,random512-10-0.map.scen,8,A* (Octile),1.0,0,True,2.4142,2.41421356,4,0.0136,0.00
random512-10-0.map,random512-10-0.map.scen,8,A* (Octile),1.0,1,True,0.0000,0.0,1,0.0012,0.00
random512-10-0.map,random512-10-0.map.scen,8,A* (Octile),1.0,2,True,3.0000,3.0,4,0.0086,0.00
random512-10-0.map,random512-10-0.map.scen,8,A* (Octile),1.0,3,True,2.8284,2.82842712,3,0.0117,0.00
random512-10-0.map,random512-10-0.map.scen,8,A* (Octile),1.0,4,True,0.0000,0.0,1,0.0012,0.00
random512-10-0.map,random512-10-0.map.scen,8,A* (Octile),1.0,5,True,3.4142,3.41421356,6,0.0201,0.00
random512-10-0.map,random512-10-0.map.scen,8,A* (Octile),1.0,6,True,0.0000,0.0,1,0.0012,0.00
random512-10-0.map,random512-10-0.map.scen,8,A* (Octile),1.0,7,True,3.4142,3.41421356,6,0.0168,0.00
random512-10-0.map,random512-10-0.map.scen,8,A* (Octile),1.0,8,True,3.4142,3.41421356,6,0.0191,0.00
random512-10-0.map,random512-10-0.map.scen,8,A* (Octile),1.0,9,True,2.8284,2.82842712,3,0.0108,0.00
random512-10-0.map,random512-10-0.map.scen,8,WA* (x1.5),1.5,0,True,2.4142,2.41421356,3,0.0108,0.00
random512-10-0.map,random512-10-0.map.scen,8,WA* (x1.5),1.5,1,True,0.0000,0.0,1,0.0012,0.00
random512-10-0.map,random512-10-0.map.scen,8,WA* (x1.5),1.5,2,True,3.0000,3.0,4,0.0087,0.00
random512-10-0.map,random512-10-0.map.scen,8,WA* (x1.5),1.5,3,True,2.8284,2.82842712,3,0.0121,0.00
random512-10-0.map,random512-10-0.map.scen,8,WA* (x1.5),1.5,4,True,0.0000,0.0,1,0.0012,0.00
random512-10-0.map,random512-10-0.map.scen,8,WA* (x1.5),1.5,5,True,3.4142,3.41421356,4,0.0151,0.00
random512-10-0.map,random512-10-0.map.scen,8,WA* (x1.5),1.5,6,True,0.0000,0.0,1,0.0012,0.00
random512-10-0.map,random512-10-0.map.scen,8,WA* (x1.5),1.5,7,True,3.4142,3.41421356,4,0.0123,0.00
random512-10-0.map,random512-10-0.map.scen,8,WA* (x1.5),1.5,8,True,3.4142,3.41421356,4,0.0152,0.00
random512-10-0.map,random512-10-0.map.scen,8,WA* (x1.5),1.5,9,True,2.8284,2.82842712,3,0.0111,0.00
random512-10-0.map,random512-10-0.map.scen,8,WA* (x2.0),2.0,0,True,2.4142,2.41421356,3,0.0107,0.00
random512-10-0.map,random512-10-0.map.scen,8,WA* (x2.0),2.0,1,True,0.0000,0.0,1,0.0012,0.00
random512-10-0.map,random512-10-0.map.scen,8,WA* (x2.0),2.0,2,True,3.0000,3.0,4,0.0092,0.00
random512-10-0.map,random512-10-0.map.scen,8,WA* (x2.0),2.0,3,True,2.8284,2.82842712,3,0.0122,0.00
random512-10-0.map,random512-10-0.map.scen,8,WA* (x2.0),2.0,4,True,0.0000,0.0,1,0.0012,0.00
random512-10-0.map,random512-10-0.map.scen,8,WA* (x2.0),2.0,5,True,3.4142,3.41421356,4,0.0149,0.00
random512-10-0.map,random512-10-0.map.scen,8,WA* (x2.0),2.0,6,True,0.0000,0.0,1,0.0014,0.00
random512-10-0.map,random512-10-0.map.scen,8,WA* (x2.0),2.0,7,True,3.4142,3.41421356,4,0.0135,0.00
random512-10-0.map,random512-10-0.map.scen,8,WA* (x2.0),2.0,8,True,3.4142,3.41421356,4,0.0156,0.00
random512-10-0.map,random512-10-0.map.scen,8,WA* (x2.0),2.0,9,True,2.8284,2.82842712,3,0.0119,0.00
random512-20-2.map,random512-20-2.map.scen,4,BFS,1.0,0,True,4.0000,3.41421356,17,0.0321,17.16
random512-20-2.map,random512-20-2.map.scen,4,BFS,1.0,1,True,3.0000,3.0,20,0.0244,0.00
random512-20-2.map,random512-20-2.map.scen,4,BFS,1.0,2,True,2.0000,1.41421356,6,0.0256,41.42
random512-20-2.map,random512-20-2.map.scen,4,BFS,1.0,3,True,4.0000,2.82842712,24,0.0430,41.42
random512-20-2.map,random512-20-2.map.scen,4,BFS,1.0,4,True,3.0000,3.0,17,0.0284,0.00
random512-20-2.map,random512-20-2.map.scen,4,BFS,1.0,5,True,1.0000,1.0,3,0.0043,0.00
random512-20-2.map,random512-20-2.map.scen,4,BFS,1.0,6,True,3.0000,2.41421356,10,0.0163,24.26
random512-20-2.map,random512-20-2.map.scen,4,BFS,1.0,7,True,4.0000,3.41421356,26,0.0277,17.16
random512-20-2.map,random512-20-2.map.scen,4,BFS,1.0,8,True,5.0000,3.82842712,33,0.0345,30.60
random512-20-2.map,random512-20-2.map.scen,4,BFS,1.0,9,True,1.0000,1.0,2,0.0034,0.00
random512-20-2.map,random512-20-2.map.scen,4,Dijkstra,1.0,0,True,4.0000,3.41421356,21,0.0390,17.16
random512-20-2.map,random512-20-2.map.scen,4,Dijkstra,1.0,1,True,3.0000,3.0,18,0.0293,0.00
random512-20-2.map,random512-20-2.map.scen,4,Dijkstra,1.0,2,True,2.0000,1.41421356,5,0.0087,41.42
random512-20-2.map,random512-20-2.map.scen,4,Dijkstra,1.0,3,True,4.0000,2.82842712,25,0.0416,41.42
random512-20-2.map,random512-20-2.map.scen,4,Dijkstra,1.0,4,True,3.0000,3.0,16,0.0293,0.00
random512-20-2.map,random512-20-2.map.scen,4,Dijkstra,1.0,5,True,1.0000,1.0,3,0.0055,0.00
random512-20-2.map,random512-20-2.map.scen,4,Dijkstra,1.0,6,True,3.0000,2.41421356,12,0.0187,24.26
random512-20-2.map,random512-20-2.map.scen,4,Dijkstra,1.0,7,True,4.0000,3.41421356,26,0.0412,17.16
random512-20-2.map,random512-20-2.map.scen,4,Dijkstra,1.0,8,True,5.0000,3.82842712,32,0.0502,30.60
random512-20-2.map,random512-20-2.map.scen,4,Dijkstra,1.0,9,True,1.0000,1.0,2,0.0041,0.00
random512-20-2.map,random512-20-2.map.scen,4,A* (Manhattan),1.0,0,True,4.0000,3.41421356,7,0.0143,17.16
random512-20-2.map,random512-20-2.map.scen,4,A* (Manhattan),1.0,1,True,3.0000,3.0,4,0.0087,0.00
random512-20-2.map,random512-20-2.map.scen,4,A* (Manhattan),1.0,2,True,2.0000,1.41421356,4,0.0071,41.42
random512-20-2.map,random512-20-2.map.scen,4,A* (Manhattan),1.0,3,True,4.0000,2.82842712,9,0.0179,41.42
random512-20-2.map,random512-20-2.map.scen,4,A* (Manhattan),1.0,4,True,3.0000,3.0,4,0.0084,0.00
random512-20-2.map,random512-20-2.map.scen,4,A* (Manhattan),1.0,5,True,1.0000,1.0,2,0.0034,0.00
random512-20-2.map,random512-20-2.map.scen,4,A* (Manhattan),1.0,6,True,3.0000,2.41421356,6,0.0173,24.26
random512-20-2.map,random512-20-2.map.scen,4,A* (Manhattan),1.0,7,True,4.0000,3.41421356,7,0.0140,17.16
random512-20-2.map,random512-20-2.map.scen,4,A* (Manhattan),1.0,8,True,5.0000,3.82842712,11,0.0207,30.60
random512-20-2.map,random512-20-2.map.scen,4,A* (Manhattan),1.0,9,True,1.0000,1.0,2,0.0044,0.00
random512-20-2.map,random512-20-2.map.scen,4,A* (Euclid),1.0,0,True,4.0000,3.41421356,7,0.0141,17.16
random512-20-2.map,random512-20-2.map.scen,4,A* (Euclid),1.0,1,True,3.0000,3.0,4,0.0089,0.00
random512-20-2.map,random512-20-2.map.scen,4,A* (Euclid),1.0,2,True,2.0000,1.41421356,4,0.0083,41.42
random512-20-2.map,random512-20-2.map.scen,4,A* (Euclid),1.0,3,True,4.0000,2.82842712,8,0.0172,41.42
random512-20-2.map,random512-20-2.map.scen,4,A* (Euclid),1.0,4,True,3.0000,3.0,4,0.0086,0.00
random512-20-2.map,random512-20-2.map.scen,4,A* (Euclid),1.0,5,True,1.0000,1.0,2,0.0032,0.00
random512-20-2.map,random512-20-2.map.scen,4,A* (Euclid),1.0,6,True,3.0000,2.41421356,6,0.0102,24.26
random512-20-2.map,random512-20-2.map.scen,4,A* (Euclid),1.0,7,True,4.0000,3.41421356,7,0.0124,17.16
random512-20-2.map,random512-20-2.map.scen,4,A* (Euclid),1.0,8,True,5.0000,3.82842712,11,0.0184,30.60
random512-20-2.map,random512-20-2.map.scen,4,A* (Euclid),1.0,9,True,1.0000,1.0,2,0.0040,0.00
random512-20-2.map,random512-20-2.map.scen,4,A* (Octile),1.0,0,True,4.0000,3.41421356,7,0.0141,17.16
random512-20-2.map,random512-20-2.map.scen,4,A* (Octile),1.0,1,True,3.0000,3.0,4,0.0106,0.00
random512-20-2.map,random512-20-2.map.scen,4,A* (Octile),1.0,2,True,2.0000,1.41421356,4,0.0072,41.42
random512-20-2.map,random512-20-2.map.scen,4,A* (Octile),1.0,3,True,4.0000,2.82842712,8,0.0169,41.42
random512-20-2.map,random512-20-2.map.scen,4,A* (Octile),1.0,4,True,3.0000,3.0,4,0.0086,0.00
random512-20-2.map,random512-20-2.map.scen,4,A* (Octile),1.0,5,True,1.0000,1.0,2,0.0033,0.00
random512-20-2.map,random512-20-2.map.scen,4,A* (Octile),1.0,6,True,3.0000,2.41421356,6,0.0103,24.26
random512-20-2.map,random512-20-2.map.scen,4,A* (Octile),1.0,7,True,4.0000,3.41421356,7,0.0129,17.16
random512-20-2.map,random512-20-2.map.scen,4,A* (Octile),1.0,8,True,5.0000,3.82842712,11,0.0195,30.60
random512-20-2.map,random512-20-2.map.scen,4,A* (Octile),1.0,9,True,1.0000,1.0,2,0.0041,0.00
random512-20-2.map,random512-20-2.map.scen,4,WA* (x1.5),1.5,0,True,4.0000,3.41421356,5,0.0103,17.16
random512-20-2.map,random512-20-2.map.scen,4,WA* (x1.5),1.5,1,True,3.0000,3.0,4,0.0093,0.00
random512-20-2.map,random512-20-2.map.scen,4,WA* (x1.5),1.5,2,True,2.0000,1.41421356,3,0.0061,41.42
random512-20-2.map,random512-20-2.map.scen,4,WA* (x1.5),1.5,3,True,4.0000,2.82842712,5,0.0103,41.42
random512-20-2.map,random512-20-2.map.scen,4,WA* (x1.5),1.5,4,True,3.0000,3.0,4,0.0085,0.00
random512-20-2.map,random512-20-2.map.scen,4,WA* (x1.5),1.5,5,True,1.0000,1.0,2,0.0033,0.00
random512-20-2.map,random512-20-2.map.scen,4,WA* (x1.5),1.5,6,True,3.0000,2.41421356,4,0.0084,24.26
random512-20-2.map,random512-20-2.map.scen,4,WA* (x1.5),1.5,7,True,4.0000,3.41421356,5,0.0106,17.16
random512-20-2.map,random512-20-2.map.scen,4,WA* (x1.5),1.5,8,True,5.0000,3.82842712,6,0.0119,30.60
random512-20-2.map,random512-20-2.map.scen,4,WA* (x1.5),1.5,9,True,1.0000,1.0,2,0.0041,0.00
